"Interval"|"ms"|0|0|1,"Utc"|"ms"|0|0|1,"Analog4"|"Volts"|0.0|5.0|500,"Analog5"|"Volts"|0.0|5.0|500,"Battery"|"Volts"|0.0|20.0|1,"AccelX"|"G"|-3.0|3.0|200,"AccelY"|"G"|-3.0|3.0|200,"AccelZ"|"G"|-3.0|3.0|200,"Yaw"|"Deg/Sec"|-120|120|200,"Pitch"|"Deg/Sec"|-120|120|200,"Roll"|"Deg/Sec"|-120|120|200,"Gsum"|"G"|0.0|3.0|200,"RPM2"|"rpm"|0|8000|50,"RPM3"|"rpm"|0|8000|50,"GPIO1"|""|0.0|1.0|50,"Latitude"|"Degrees"|-180.0|180.0|50,"Longitude"|"Degrees"|-180.0|180.0|50,"Speed"|"mph"|0.0|150.0|50,"Altitude"|"ft"|0.0|4000.0|50,"GPSSats"|""|0|20|50,"GPSQual"|""|0|5|50,"GPSDOP"|""|0.0|20.0|50
103,0,0.0,0.25,,-0.05,0.09,1.01,0,0,-0,0.1,0,2220,0,0.0,0.0,0.0,0.0,0,0,0.0
105,0,0.0,0.25,,,,,,,,,,,,,,,,,,
107,0,0.0,0.25,,,,,,,,,,,,,,,,,,
109,0,0.0,0.25,,,,,,,,,,,,,,,,,,
111,0,0.0,0.25,,,,,,,,,,,,,,,,,,
113,0,0.0,0.25,,-0.19,0.1,1.04,0,-0,-0,0.22,,,,,,,,,,
115,0,0.0,0.25,,,,,,,,,,,,,,,,,,
117,0,0.0,0.25,,,,,,,,,,,,,,,,,,
119,0,0.0,0.25,,,,,,,,,,,,,,,,,,
121,0,0.0,0.25,,,,,,,,,,,,,,,,,,
123,0,0.0,0.25,,-0.05,0.05,0.98,0,-1,-0,0.07,0,2220,0,0.0,0.0,0.0,0.0,0,0,0.0
125,0,0.0,0.25,,,,,,,,,,,,,,,,,,
127,0,0.0,0.26,,,,,,,,,,,,,,,,,,
129,0,0.0,0.25,,,,,,,,,,,,,,,,,,
131,0,0.0,0.25,,,,,,,,,,,,,,,,,,
133,0,0.0,0.25,,-0.08,0.06,0.96,0,-0,-0,0.1,,,,,,,,,,
135,0,0.0,0.25,,,,,,,,,,,,,,,,,,
137,0,0.0,0.25,,,,,,,,,,,,,,,,,,
139,0,0.0,0.25,,,,,,,,,,,,,,,,,,
141,0,0.0,0.25,,,,,,,,,,,,,,,,,,
143,0,0.0,0.25,,-0.16,0.11,1.04,0,-0,-0,0.2,0,2220,0,0.0,0.0,0.0,0.0,0,0,0.0
145,0,0.0,0.25,,,,,,,,,,,,,,,,,,
147,0,0.0,0.25,,,,,,,,,,,,,,,,,,
149,0,0.01,0.25,,,,,,,,,,,,,,,,,,
151,0,0.0,0.25,,,,,,,,,,,,,,,,,,
153,0,0.0,0.26,,-0.06,0.06,0.97,0,-1,-0,0.08,,,,,,,,,,
155,0,0.0,0.25,,,,,,,,,,,,,,,,,,
157,0,0.0,0.26,,,,,,,,,,,,,,,,,,
159,0,0.0,0.25,,,,,,,,,,,,,,,,,,
161,0,0.0,0.25,,,,,,,,,,,,,,,,,,
163,0,0.0,0.25,,-0.13,0.07,0.96,0,-1,-0,0.15,0,2220,0,0.0,0.0,0.0,0.0,0,0,0.0
165,0,0.0,0.25,,,,,,,,,,,,,,,,,,
167,0,0.0,0.25,,,,,,,,,,,,,,,,,,
169,0,0.0,0.25,,,,,,,,,,,,,,,,,,
171,0,0.0,0.25,,,,,,,,,,,,,,,,,,
173,0,0.0,0.25,,-0.07,0.06,0.99,0,-1,-0,0.1,,,,,,,,,,
175,0,0.0,0.25,,,,,,,,,,,,,,,,,,
177,0,0.01,0.25,,,,,,,,,,,,,,,,,,
179,0,0.0,0.25,,,,,,,,,,,,,,,,,,
181,0,0.0,0.27,,,,,,,,,,,,,,,,,,
183,0,0.0,0.26,,-0.05,0.07,1.01,0,0,-0,0.09,0,2220,0,0.0,0.0,0.0,0.0,0,0,0.0
185,0,0.0,0.25,,,,,,,,,,,,,,,,,,
187,0,0.0,0.26,,,,,,,,,,,,,,,,,,
189,0,0.0,0.25,,,,,,,,,,,,,,,,,,
191,0,0.0,0.26,,,,,,,,,,,,,,,,,,
193,0,0.0,0.25,,-0.15,0.09,1.01,-0,0,-0,0.18,,,,,,,,,,
195,0,0.0,0.25,,,,,,,,,,,,,,,,,,
197,0,0.01,0.26,,,,,,,,,,,,,,,,,,
199,0,0.0,0.25,,,,,,,,,,,,,,,,,,
201,0,0.0,0.26,,,,,,,,,,,,,,,,,,
203,0,0.0,0.26,,-0.06,0.04,0.95,0,-1,-0,0.07,0,2220,0,0.0,0.0,0.0,0.0,0,0,0.0
205,0,0.0,0.26,,,,,,,,,,,,,,,,,,
207,0,0.0,0.27,,,,,,,,,,,,,,,,,,
209,0,0.0,0.25,,,,,,,,,,,,,,,,,,
211,0,0.01,0.26,,,,,,,,,,,,,,,,,,
213,0,0.0,0.26,,-0.03,0.07,0.96,-0,0,-0,0.08,,,,,,,,,,
215,0,0.0,0.26,,,,,,,,,,,,,,,,,,
217,0,0.0,0.26,,,,,,,,,,,,,,,,,,
219,0,0.0,0.25,,,,,,,,,,,,,,,,,,
221,0,0.0,0.26,,,,,,,,,,,,,,,,,,
223,0,0.0,0.26,,-0.13,0.11,1.04,0,0,-1,0.16,0,2220,0,0.0,0.0,0.0,0.0,0,0,0.0
225,0,0.01,0.26,,,,,,,,,,,,,,,,,,
227,0,0.0,0.26,,,,,,,,,,,,,,,,,,
229,0,0.0,0.26,,,,,,,,,,,,,,,,,,
231,0,0.0,0.26,,,,,,,,,,,,,,,,,,
233,0,0.0,0.27,,-0.05,0.06,0.99,0,-0,-0,0.08,,,,,,,,,,
235,0,0.0,0.26,,,,,,,,,,,,,,,,,,
237,0,0.0,0.26,,,,,,,,,,,,,,,,,,
239,0,0.0,0.26,,,,,,,,,,,,,,,,,,
241,0,0.0,0.26,,,,,,,,,,,,,,,,,,
243,0,0.0,0.26,,-0.11,0.05,0.96,-0,-0,-0,0.12,0,2220,0,0.0,0.0,0.0,0.0,0,0,0.0
245,0,0.0,0.26,,,,,,,,,,,,,,,,,,
247,0,0.0,0.25,,,,,,,,,,,,,,,,,,
249,0,0.0,0.26,,,,,,,,,,,,,,,,,,
251,0,0.01,0.26,,,,,,,,,,,,,,,,,,
253,0,0.0,0.26,,-0.09,0.07,0.98,0,-1,-0,0.12,,,,,,,,,,
273,0,0.0,0.26,,-0.18,0.11,1.04,0,0,-0,0.21,,,,,,,,,,
289,0,0.0,0.26,,,,,,,,,,,,,,,,,,
291,0,0.0,0.27,,,,,,,,,,,,,,,,,,
293,0,0.0,0.26,,-0.07,0.06,0.94,0,-0,-0,0.09,,,,,,,,,,
295,0,0.0,0.26,,,,,,,,,,,,,,,,,,
297,0,0.0,0.26,,,,,,,,,,,,,,,,,,
299,0,0.0,0.26,,,,,,,,,,,,,,,,,,
301,0,0.01,0.26,,,,,,,,,,,,,,,,,,
303,0,0.0,0.26,,-0.16,0.1,1.03,0,-0,-0,0.19,0,2220,0,0.0,0.0,0.0,0.0,0,0,0.0
305,0,0.0,0.26,,,,,,,,,,,,,,,,,,
307,0,0.0,0.26,,,,,,,,,,,,,,,,,,
309,0,0.0,0.26,,,,,,,,,,,,,,,,,,
311,0,0.0,0.26,,,,,,,,,,,,,,,,,,
313,0,0.0,0.28,,-0.05,0.06,0.97,0,-0,-0,0.08,,,,,,,,,,
315,0,0.01,0.27,,,,,,,,,,,,,,,,,,
317,0,0.0,0.26,,,,,,,,,,,,,,,,,,
319,0,0.0,0.27,,,,,,,,,,,,,,,,,,
321,0,0.0,0.26,,,,,,,,,,,,,,,,,,
323,0,0.0,0.27,,-0.16,0.08,0.99,0,-1,-0,0.18,0,2220,0,0.0,0.0,0.0,0.0,0,0,0.0
325,0,0.0,0.27,,,,,,,,,,,,,,,,,,
327,0,0.0,0.26,,,,,,,,,,,,,,,,,,
329,0,0.01,0.26,,,,,,,,,,,,,,,,,,
331,0,0.0,0.27,,,,,,,,,,,,,,,,,,
333,0,0.0,0.26,,-0.06,0.05,0.99,0,-1,-0,0.08,,,,,,,,,,
335,0,0.01,0.27,,,,,,,,,,,,,,,,,,
337,0,0.0,0.26,,,,,,,,,,,,,,,,,,
339,0,0.0,0.28,,,,,,,,,,,,,,,,,,
341,0,0.0,0.27,,,,,,,,,,,,,,,,,,
343,0,0.0,0.27,,-0.07,0.06,0.98,0,0,-0,0.09,0,2280,0,0.0,0.0,0.0,0.0,0,0,0.0
345,0,0.0,0.27,,,,,,,,,,,,,,,,,,
347,0,0.0,0.27,,,,,,,,,,,,,,,,,,
349,0,0.0,0.27,,,,,,,,,,,,,,,,,,
351,0,0.0,0.27,,,,,,,,,,,,,,,,,,
353,0,0.0,0.27,,-0.19,0.11,1.04,0,-0,-1,0.22,,,,,,,,,,
355,0,0.0,0.27,,,,,,,,,,,,,,,,,,
357,0,0.0,0.27,,,,,,,,,,,,,,,,,,
359,0,0.0,0.27,,,,,,,,,,,,,,,,,,
361,0,0.0,0.27,,,,,,,,,,,,,,,,,,
363,0,0.0,0.27,,-0.07,0.05,0.95,0,-1,-0,0.09,0,2280,0,0.0,0.0,0.0,0.0,0,0,0.0
365,0,0.0,0.28,,,,,,,,,,,,,,,,,,
367,0,0.0,0.27,,,,,,,,,,,,,,,,,,
369,0,0.0,0.27,,,,,,,,,,,,,,,,,,
371,0,0.0,0.27,,,,,,,,,,,,,,,,,,
373,0,0.0,0.27,,-0.05,0.08,0.95,-0,-0,-0,0.09,,,,,,,,,,
375,0,0.0,0.27,,,,,,,,,,,,,,,,,,
377,0,0.01,0.27,,,,,,,,,,,,,,,,,,
379,0,0.0,0.27,,,,,,,,,,,,,,,,,,
381,0,0.0,0.27,,,,,,,,,,,,,,,,,,
383,0,0.0,0.27,,-0.12,0.08,1.03,0,-0,-1,0.15,0,2220,0,0.0,0.0,0.0,0.0,0,0,0.0
385,0,0.0,0.27,,,,,,,,,,,,,,,,,,
387,0,0.0,0.27,,,,,,,,,,,,,,,,,,
389,0,0.0,0.27,,,,,,,,,,,,,,,,,,
391,0,0.0,0.27,,,,,,,,,,,,,,,,,,
393,0,0.0,0.27,,-0.05,0.08,1.0,0,-0,-0,0.09,,,,,,,,,,
395,0,0.0,0.27,,,,,,,,,,,,,,,,,,
397,0,0.01,0.27,,,,,,,,,,,,,,,,,,
399,0,0.0,0.27,,,,,,,,,,,,,,,,,,
401,0,0.0,0.27,,,,,,,,,,,,,,,,,,
403,0,0.0,0.27,,-0.12,0.07,0.98,-0,-0,-0,0.14,0,2220,0,0.0,0.0,0.0,0.0,0,0,0.0
405,0,0.0,0.27,,,,,,,,,,,,,,,,,,
407,0,0.0,0.27,,,,,,,,,,,,,,,,,,
409,0,0.0,0.27,,,,,,,,,,,,,,,,,,
411,0,0.0,0.27,,,,,,,,,,,,,,,,,,
413,0,0.0,0.27,,-0.07,0.05,0.98,0,-1,-0,0.08,,,,,,,,,,
415,0,0.0,0.28,,,,,,,,,,,,,,,,,,
417,0,0.0,0.27,,,,,,,,,,,,,,,,,,
419,0,0.0,0.28,,,,,,,,,,,,,,,,,,
421,0,0.0,0.27,,,,,,,,,,,,,,,,,,
423,0,0.0,0.27,,-0.01,0.07,0.99,0,0,0,0.07,0,2220,0,0.0,0.0,0.0,0.0,0,0,0.0
425,0,0.01,0.27,,,,,,,,,,,,,,,,,,
427,0,0.0,0.27,,,,,,,,,,,,,,,,,,
429,0,0.0,0.28,,,,,,,,,,,,,,,,,,
431,0,0.0,0.27,,,,,,,,,,,,,,,,,,
433,0,0.0,0.27,,-0.16,0.11,1.06,0,0,-0,0.2,,,,,,,,,,
435,0,0.0,0.27,,,,,,,,,,,,,,,,,,
437,0,0.0,0.27,,,,,,,,,,,,,,,,,,
439,0,0.01,0.27,,,,,,,,,,,,,,,,,,
441,0,0.0,0.27,,,,,,,,,,,,,,,,,,
443,0,0.0,0.28,,-0.05,0.06,0.99,0,-1,-0,0.07,0,2220,0,0.0,0.0,0.0,0.0,0,0,0.0
445,0,0.0,0.29,,,,,,,,,,,,,,,,,,
447,0,0.0,0.28,,,,,,,,,,,,,,,,,,
449,0,0.0,0.28,,,,,,,,,,,,,,,,,,
451,0,0.0,0.27,,,,,,,,,,,,,,,,,,
453,0,0.01,0.27,,-0.09,0.05,0.94,0,-0,-0,0.11,,,,,,,,,,
455,0,0.0,0.28,,,,,,,,,,,,,,,,,,
457,0,0.0,0.28,,,,,,,,,,,,,,,,,,
459,0,0.0,0.28,,,,,,,,,,,,,,,,,,
461,0,0.0,0.27,,,,,,,,,,,,,,,,,,
463,0,0.0,0.28,,-0.12,0.09,1.01,0,-0,-0,0.15,0,2220,0,0.0,0.0,0.0,0.0,0,0,0.0
465,0,0.0,0.28,,,,,,,,,,,,,,,,,,
467,0,0.0,0.28,,,,,,,,,,,,,,,,,,
469,0,0.0,0.27,,,,,,,,,,,,,,,,,,
471,0,0.0,0.29,,,,,,,,,,,,,,,,,,
473,0,0.0,0.28,,-0.04,0.09,0.99,0,0,-0,0.1,,,,,,,,,,
475,0,0.0,0.28,,,,,,,,,,,,,,,,,,
477,0,0.0,0.28,,,,,,,,,,,,,,,,,,
479,0,0.0,0.28,,,,,,,,,,,,,,,,,,
481,0,0.0,0.28,,,,,,,,,,,,,,,,,,
483,0,0.0,0.28,,-0.18,0.1,1.0,0,-0,-0,0.21,0,2220,0,0.0,0.0,0.0,0.0,0,0,0.0
485,0,0.0,0.28,,,,,,,,,,,,,,,,,,
487,0,0.01,0.28,,,,,,,,,,,,,,,,,,
489,0,0.0,0.28,,,,,,,,,,,,,,,,,,
491,0,0.0,0.28,,,,,,,,,,,,,,,,,,
493,0,0.0,0.28,,-0.04,0.04,0.99,0,-1,-0,0.06,,,,,,,,,,
495,0,0.0,0.28,,,,,,,,,,,,,,,,,,
497,0,0.0,0.28,,,,,,,,,,,,,,,,,,
499,0,0.0,0.29,,,,,,,,,,,,,,,,,,
501,0,0.0,0.28,,,,,,,,,,,,,,,,,,
503,0,0.0,0.28,,-0.06,0.06,0.98,0,0,-0,0.09,0,2220,0,0.0,0.0,0.0,0.0,0,0,0.0
505,0,0.0,0.28,,,,,,,,,,,,,,,,,,
507,0,0.0,0.28,,,,,,,,,,,,,,,,,,
509,0,0.0,0.28,,,,,,,,,,,,,,,,,,
511,0,0.0,0.28,,,,,,,,,,,,,,,,,,
513,0,0.0,0.28,,-0.18,0.12,1.07,0,0,-1,0.21,,,,,,,,,,
515,0,0.01,0.28,,,,,,,,,,,,,,,,,,
517,0,0.0,0.28,,,,,,,,,,,,,,,,,,
519,0,0.0,0.29,,,,,,,,,,,,,,,,,,
521,0,0.0,0.28,,,,,,,,,,,,,,,,,,
523,0,0.0,0.28,,-0.06,0.05,0.98,0,-1,-0,0.08,0,2220,0,0.0,0.0,0.0,0.0,0,0,0.0
525,0,0.0,0.3,,,,,,,,,,,,,,,,,,
527,0,0.0,0.28,,,,,,,,,,,,,,,,,,
529,0,0.0,0.28,,,,,,,,,,,,,,,,,,
531,0,0.0,0.28,,,,,,,,,,,,,,,,,,
533,0,0.0,0.28,,-0.07,0.07,0.93,-0,-0,-0,0.1,,,,,,,,,,
535,0,0.0,0.28,,,,,,,,,,,,,,,,,,
537,0,0.0,0.28,,,,,,,,,,,,,,,,,,
539,0,0.0,0.29,,,,,,,,,,,,,,,,,,
541,0,0.0,0.28,,,,,,,,,,,,,,,,,,
543,0,0.0,0.28,,-0.09,0.08,1.0,0,-0,-0,0.12,0,2220,0,0.0,0.0,0.0,0.0,0,0,0.0
545,0,0.0,0.28,,,,,,,,,,,,,,,,,,
547,0,0.0,0.28,,,,,,,,,,,,,,,,,,
549,0,0.01,0.28,,,,,,,,,,,,,,,,,,
551,0,0.0,0.29,,,,,,,,,,,,,,,,,,
553,0,0.0,0.29,,-0.05,0.08,1.02,0,0,-0,0.09,,,,,,,,,,
555,0,0.0,0.29,,,,,,,,,,,,,,,,,,
557,0,0.0,0.29,,,,,,,,,,,,,,,,,,
559,0,0.0,0.28,,,,,,,,,,,,,,,,,,
561,0,0.0,0.28,,,,,,,,,,,,,,,,,,
563,0,0.0,0.29,,-0.14,0.08,1.0,-0,-0,-0,0.16,0,2220,0,0.0,0.0,0.0,0.0,0,0,0.0
565,0,0.0,0.28,,,,,,,,,,,,,,,,,,
567,0,0.0,0.29,,,,,,,,,,,,,,,,,,
569,0,0.0,0.28,,,,,,,,,,,,,,,,,,
571,0,0.0,0.29,,,,,,,,,,,,,,,,,,
573,0,0.0,0.29,,-0.06,0.05,0.97,0,-1,-0,0.08,,,,,,,,,,
575,0,0.0,0.29,,,,,,,,,,,,,,,,,,
577,0,0.01,0.29,,,,,,,,,,,,,,,,,,
579,0,0.0,0.29,,,,,,,,,,,,,,,,,,
581,0,0.0,0.29,,,,,,,,,,,,,,,,,,
583,0,0.0,0.29,,-0.02,0.07,0.96,0,0,-0,0.08,0,2220,0,0.0,0.0,0.0,0.0,0,0,0.0
585,0,0.0,0.29,,,,,,,,,,,,,,,,,,
587,0,0.0,0.29,,,,,,,,,,,,,,,,,,
589,0,0.0,0.29,,,,,,,,,,,,,,,,,,
591,0,0.01,0.29,,,,,,,,,,,,,,,,,,
593,0,0.0,0.29,,-0.15,0.11,1.06,0,0,-1,0.19,,,,,,,,,,
595,0,0.0,0.29,,,,,,,,,,,,,,,,,,
597,0,0.0,0.29,,,,,,,,,,,,,,,,,,
599,0,0.0,0.29,,,,,,,,,,,,,,,,,,
601,0,0.0,0.29,,,,,,,,,,,,,,,,,,
603,0,0.0,0.29,,-0.06,0.07,1.01,0,-0,-0,0.09,0,2220,0,0.0,0.0,0.0,0.0,0,0,0.0
605,0,0.0,0.3,,,,,,,,,,,,,,,,,,
607,0,0.0,0.29,,,,,,,,,,,,,,,,,,
609,0,0.0,0.29,,,,,,,,,,,,,,,,,,
611,0,0.01,0.29,,,,,,,,,,,,,,,,,,
613,0,0.0,0.29,,-0.1,0.05,0.94,0,-0,-0,0.11,,,,,,,,,,
615,0,0.0,0.29,,,,,,,,,,,,,,,,,,
617,0,0.0,0.29,,,,,,,,,,,,,,,,,,
619,0,0.0,0.29,,,,,,,,,,,,,,,,,,
621,0,0.0,0.29,,,,,,,,,,,,,,,,,,
623,0,0.0,0.29,,-0.1,0.08,0.99,0,-1,-0,0.13,0,2220,0,0.0,0.0,0.0,0.0,0,0,0.0
625,0,0.01,0.29,,,,,,,,,,,,,,,,,,
627,0,0.0,0.29,,,,,,,,,,,,,,,,,,
629,0,0.0,0.29,,,,,,,,,,,,,,,,,,
631,0,0.0,0.3,,,,,,,,,,,,,,,,,,
633,0,0.0,0.29,,-0.05,0.09,1.01,0,0,-0,0.1,,,,,,,,,,
635,0,0.0,0.29,,,,,,,,,,,,,,,,,,
637,0,0.0,0.29,,,,,,,,,,,,,,,,,,
639,0,0.01,0.29,,,,,,,,,,,,,,,,,,
641,0,0.0,0.29,,,,,,,,,,,,,,,,,,
643,0,0.0,0.29,,-0.2,0.1,1.03,0,-0,-0,0.23,0,2220,0,0.0,0.0,0.0,0.0,0,0,0.0
645,0,0.0,0.29,,,,,,,,,,,,,,,,,,
647,0,0.0,0.29,,,,,,,,,,,,,,,,,,
649,0,0.0,0.29,,,,,,,,,,,,,,,,,,
651,0,0.0,0.29,,,,,,,,,,,,,,,,,,
653,0,0.01,0.29,,-0.06,0.05,0.98,0,-1,-0,0.07,,,,,,,,,,
655,0,0.0,0.29,,,,,,,,,,,,,,,,,,
657,0,0.0,0.31,,,,,,,,,,,,,,,,,,
659,0,0.0,0.3,,,,,,,,,,,,,,,,,,
661,0,0.0,0.3,,,,,,,,,,,,,,,,,,
663,0,0.0,0.3,,-0.07,0.06,0.96,0,0,-0,0.09,0,2220,0,0.0,0.0,0.0,0.0,0,0,0.0
665,0,0.0,0.29,,,,,,,,,,,,,,,,,,
667,0,0.0,0.3,,,,,,,,,,,,,,,,,,
669,0,0.0,0.29,,,,,,,,,,,,,,,,,,
671,0,0.0,0.29,,,,,,,,,,,,,,,,,,
673,0,0.0,0.29,,-0.19,0.12,1.07,0,-0,-1,0.23,,,,,,,,,,
675,0,0.0,0.29,,,,,,,,,,,,,,,,,,
677,0,0.0,0.3,,,,,,,,,,,,,,,,,,
679,0,0.0,0.3,,,,,,,,,,,,,,,,,,
681,0,0.0,0.3,,,,,,,,,,,,,,,,,,
683,0,0.0,0.29,,-0.08,0.07,0.94,0,-1,-0,0.1,0,2220,0,0.0,0.0,0.0,0.0,0,0,0.0
685,0,0.0,0.31,,,,,,,,,,,,,,,,,,
687,0,0.01,0.3,,,,,,,,,,,,,,,,,,
689,0,0.0,0.3,,,,,,,,,,,,,,,,,,
691,0,0.0,0.3,,,,,,,,,,,,,,,,,,
693,0,0.0,0.3,,-0.15,0.09,0.95,-0,-1,-0,0.17,,,,,,,,,,
695,0,0.0,0.3,,,,,,,,,,,,,,,,,,
697,0,0.0,0.3,,,,,,,,,,,,,,,,,,
699,0,0.0,0.3,,,,,,,,,,,,,,,,,,
701,0,0.0,0.3,,,,,,,,,,,,,,,,,,
703,0,0.0,0.3,,-0.08,0.07,0.99,0,-0,-0,0.11,0,2220,0,0.0,0.0,0.0,0.0,0,0,0.0
705,0,0.0,0.3,,,,,,,,,,,,,,,,,,
707,0,0.0,0.3,,,,,,,,,,,,,,,,,,
709,0,0.0,0.3,,,,,,,,,,,,,,,,,,
711,0,0.0,0.31,,,,,,,,,,,,,,,,,,
713,0,0.0,0.3,,-0.06,0.07,1.0,0,-0,-0,0.09,,,,,,,,,,
715,0,0.01,0.3,,,,,,,,,,,,,,,,,,
717,0,0.0,0.3,,,,,,,,,,,,,,,,,,
719,0,0.0,0.3,,,,,,,,,,,,,,,,,,
721,0,0.0,0.3,,,,,,,,,,,,,,,,,,
723,0,0.0,0.3,,-0.17,0.09,1.04,-0,-0,-0,0.19,0,2220,0,0.0,0.0,0.0,0.0,0,0,0.0
725,0,0.0,0.3,,,,,,,,,,,,,,,,,,
727,0,0.0,0.3,,,,,,,,,,,,,,,,,,
729,0,0.01,0.3,,,,,,,,,,,,,,,,,,
731,0,0.0,0.3,,,,,,,,,,,,,,,,,,
733,0,0.0,0.3,,-0.08,0.04,0.95,0,-1,-0,0.08,,,,,,,,,,
735,0,0.0,0.3,,,,,,,,,,,,,,,,,,
737,0,0.0,0.31,,,,,,,,,,,,,,,,,,
739,0,0.0,0.31,,,,,,,,,,,,,,,,,,
741,0,0.0,0.3,,,,,,,,,,,,,,,,,,
743,0,0.0,0.3,,-0.03,0.07,0.96,-0,0,-0,0.08,0,2220,0,0.0,0.0,0.0,0.0,0,0,0.0
745,0,0.0,0.3,,,,,,,,,,,,,,,,,,
747,0,0.0,0.3,,,,,,,,,,,,,,,,,,
749,0,0.0,0.3,,,,,,,,,,,,,,,,,,
751,0,0.0,0.3,,,,,,,,,,,,,,,,,,
753,0,0.0,0.3,,-0.14,0.1,1.05,0,-0,-1,0.17,,,,,,,,,,
755,0,0.0,0.3,,,,,,,,,,,,,,,,,,
757,0,0.0,0.3,,,,,,,,,,,,,,,,,,
759,0,0.0,0.3,,,,,,,,,,,,,,,,,,
761,0,0.0,0.3,,,,,,,,,,,,,,,,,,
763,0,0.0,0.3,,-0.05,0.07,1.0,0,-1,-0,0.08,0,2220,0,0.0,0.0,0.0,0.0,0,0,0.0
765,0,0.0,0.32,,,,,,,,,,,,,,,,,,
767,0,0.0,0.31,,,,,,,,,,,,,,,,,,
769,0,0.0,0.3,,,,,,,,,,,,,,,,,,
771,0,0.0,0.3,,,,,,,,,,,,,,,,,,
773,0,0.0,0.3,,-0.11,0.06,0.96,0,-1,-0,0.12,,,,,,,,,,
775,0,0.0,0.3,,,,,,,,,,,,,,,,,,
777,0,0.01,0.3,,,,,,,,,,,,,,,,,,
779,0,0.0,0.3,,,,,,,,,,,,,,,,,,
781,0,0.0,0.31,,,,,,,,,,,,,,,,,,
783,0,0.0,0.3,,-0.08,0.07,0.99,0,-1,-0,0.11,0,2220,0,0.0,0.0,0.0,0.0,0,0,0.0
785,0,0.0,0.3,,,,,,,,,,,,,,,,,,
787,0,0.0,0.3,,,,,,,,,,,,,,,,,,
789,0,0.0,0.31,,,,,,,,,,,,,,,,,,
791,0,0.0,0.32,,,,,,,,,,,,,,,,,,
793,0,0.0,0.31,,-0.03,0.09,1.01,0,0,-0,0.09,,,,,,,,,,
795,0,0.0,0.31,,,,,,,,,,,,,,,,,,
797,0,0.0,0.31,,,,,,,,,,,,,,,,,,
799,0,0.0,0.31,,,,,,,,,,,,,,,,,,
801,0,0.0,0.31,,,,,,,,,,,,,,,,,,
803,0,0.0,0.31,,-0.16,0.11,1.03,0,-0,-0,0.19,0,2220,0,0.0,0.0,0.0,0.0,0,0,0.0
805,0,0.0,0.31,,,,,,,,,,,,,,,,,,
807,0,0.0,0.31,,,,,,,,,,,,,,,,,,
809,0,0.0,0.31,,,,,,,,,,,,,,,,,,
811,0,0.01,0.31,,,,,,,,,,,,,,,,,,
813,0,0.0,0.31,,-0.04,0.06,0.98,0,-1,-0,0.07,,,,,,,,,,
815,0,0.0,0.31,,,,,,,,,,,,,,,,,,
817,0,0.0,0.32,,,,,,,,,,,,,,,,,,
819,0,0.0,0.31,,,,,,,,,,,,,,,,,,
821,0,0.0,0.31,,,,,,,,,,,,,,,,,,
823,0,0.0,0.31,,-0.06,0.06,0.97,0,0,-0,0.09,0,2220,0,0.0,0.0,0.0,0.0,0,0,0.0
825,0,0.01,0.31,,,,,,,,,,,,,,,,,,
827,0,0.0,0.31,,,,,,,,,,,,,,,,,,
829,0,0.0,0.31,,,,,,,,,,,,,,,,,,
831,0,0.0,0.31,,,,,,,,,,,,,,,,,,
833,0,0.0,0.31,,-0.15,0.11,1.06,0,-0,-0,0.19,,,,,,,,,,
835,0,0.0,0.31,,,,,,,,,,,,,,,,,,
837,0,0.0,0.31,,,,,,,,,,,,,,,,,,
839,0,0.01,0.31,,,,,,,,,,,,,,,,,,
841,0,0.0,0.31,,,,,,,,,,,,,,,,,,
843,0,0.0,0.31,,-0.06,0.07,0.97,0,-1,-0,0.09,0,2220,0,0.0,0.0,0.0,0.0,0,0,0.0
845,0,0.0,0.32,,,,,,,,,,,,,,,,,,
847,0,0.0,0.31,,,,,,,,,,,,,,,,,,
849,0,0.0,0.31,,,,,,,,,,,,,,,,,,
851,0,0.0,0.31,,,,,,,,,,,,,,,,,,
853,0,0.0,0.31,,-0.12,0.07,0.97,-0,-1,-0,0.14,,,,,,,,,,
855,0,0.0,0.31,,,,,,,,,,,,,,,,,,
857,0,0.0,0.31,,,,,,,,,,,,,,,,,,
859,0,0.0,0.31,,,,,,,,,,,,,,,,,,
861,0,0.0,0.31,,,,,,,,,,,,,,,,,,
863,0,0.0,0.31,,-0.07,0.07,0.99,0,-0,-0,0.1,0,2220,0,0.0,0.0,0.0,0.0,0,0,0.0
865,0,0.0,0.31,,,,,,,,,,,,,,,,,,
867,0,0.0,0.31,,,,,,,,,,,,,,,,,,
869,0,0.0,0.31,,,,,,,,,,,,,,,,,,
871,0,0.0,0.32,,,,,,,,,,,,,,,,,,
873,0,0.01,0.31,,-0.05,0.07,1.0,0,0,-0,0.08,,,,,,,,,,
875,0,0.0,0.31,,,,,,,,,,,,,,,,,,
877,0,0.0,0.32,,,,,,,,,,,,,,,,,,
879,0,0.0,0.31,,,,,,,,,,,,,,,,,,
881,0,0.0,0.31,,,,,,,,,,,,,,,,,,
883,0,0.0,0.31,,-0.16,0.09,1.04,-0,-0,-0,0.19,0,2220,0,0.0,0.0,0.0,0.0,0,0,0.0
885,0,0.0,0.31,,,,,,,,,,,,,,,,,,
887,0,0.0,0.31,,,,,,,,,,,,,,,,,,
889,0,0.0,0.31,,,,,,,,,,,,,,,,,,
891,0,0.0,0.31,,,,,,,,,,,,,,,,,,
893,0,0.0,0.31,,-0.06,0.04,0.94,0,-1,-0,0.08,,,,,,,,,,
895,0,0.0,0.31,,,,,,,,,,,,,,,,,,
897,0,0.0,0.31,,,,,,,,,,,,,,,,,,
899,0,0.0,0.32,,,,,,,,,,,,,,,,,,
901,0,0.0,0.32,,,,,,,,,,,,,,,,,,
903,0,0.0,0.31,,-0.03,0.07,0.96,-0,0,-0,0.08,0,2220,0,0.0,0.0,0.0,0.0,0,0,0.0
905,0,0.0,0.32,,,,,,,,,,,,,,,,,,
907,0,0.0,0.31,,,,,,,,,,,,,,,,,,
909,0,0.0,0.31,,,,,,,,,,,,,,,,,,
911,0,0.0,0.32,,,,,,,,,,,,,,,,,,
913,0,0.0,0.31,,-0.15,0.1,1.04,0,0,-1,0.18,,,,,,,,,,
915,0,0.0,0.32,,,,,,,,,,,,,,,,,,
917,0,0.0,0.32,,,,,,,,,,,,,,,,,,
919,0,0.0,0.32,,,,,,,,,,,,,,,,,,
921,0,0.0,0.32,,,,,,,,,,,,,,,,,,
923,0,0.0,0.31,,-0.06,0.05,0.98,0,-0,-0,0.08,0,2220,0,0.0,0.0,0.0,0.0,0,0,0.0
925,0,0.0,0.33,,,,,,,,,,,,,,,,,,
927,0,0.0,0.32,,,,,,,,,,,,,,,,,,
929,0,0.0,0.32,,,,,,,,,,,,,,,,,,
931,0,0.0,0.32,,,,,,,,,,,,,,,,,,
933,0,0.0,0.32,,-0.13,0.04,0.95,-0,-0,-0,0.13,,,,,,,,,,
935,0,0.0,0.32,,,,,,,,,,,,,,,,,,
937,0,0.0,0.32,,,,,,,,,,,,,,,,,,
939,0,0.0,0.32,,,,,,,,,,,,,,,,,,
941,0,0.0,0.32,,,,,,,,,,,,,,,,,,
943,0,0.0,0.32,,-0.11,0.07,0.99,0,-1,-0,0.13,0,2220,0,0.0,0.0,0.0,0.0,0,0,0.0
945,0,0.0,0.32,,,,,,,,,,,,,,,,,,
947,0,0.0,0.32,,,,,,,,,,,,,,,,,,
949,0,0.01,0.32,,,,,,,,,,,,,,,,,,
951,0,0.0,0.33,,,,,,,,,,,,,,,,,,
953,0,0.0,0.33,,-0.04,0.08,1.0,0,-0,-0,0.09,,,,,,,,,,
955,0,0.0,0.32,,,,,,,,,,,,,,,,,,
957,0,0.0,0.32,,,,,,,,,,,,,,,,,,
959,0,0.0,0.32,,,,,,,,,,,,,,,,,,
961,0,0.0,0.32,,,,,,,,,,,,,,,,,,
963,0,0.0,0.32,,-0.19,0.1,1.03,0,-0,-0,0.21,0,2220,0,0.0,0.0,0.0,0.0,0,0,0.0
965,0,0.0,0.32,,,,,,,,,,,,,,,,,,
967,0,0.0,0.32,,,,,,,,,,,,,,,,,,
969,0,0.0,0.32,,,,,,,,,,,,,,,,,,
971,0,0.0,0.32,,,,,,,,,,,,,,,,,,
973,0,0.0,0.32,,-0.05,0.05,0.99,0,-1,-0,0.07,,,,,,,,,,
975,0,0.0,0.32,,,,,,,,,,,,,,,,,,
977,0,0.01,0.32,,,,,,,,,,,,,,,,,,
979,0,0.0,0.33,,,,,,,,,,,,,,,,,,
981,0,0.0,0.33,,,,,,,,,,,,,,,,,,
983,0,0.0,0.32,,-0.08,0.07,0.97,0,0,-0,0.1,0,2220,0,0.0,0.0,0.0,0.0,0,0,0.0
985,0,0.0,0.32,,,,,,,,,,,,,,,,,,
987,0,0.0,0.32,,,,,,,,,,,,,,,,,,
989,0,0.0,0.32,,,,,,,,,,,,,,,,,,
991,0,0.01,0.32,,,,,,,,,,,,,,,,,,
993,0,0.0,0.32,,-0.18,0.12,1.06,0,-0,-1,0.21,,,,,,,,,,
995,0,0.0,0.32,,,,,,,,,,,,,,,,,,
997,0,0.0,0.32,,,,,,,,,,,,,,,,,,
999,0,0.0,0.33,,,,,,,,,,,,,,,,,,
1001,0,0.0,0.33,,,,,,,,,,,,,,,,,,
1003,0,0.0,0.32,,-0.06,0.07,0.97,0,-1,-0,0.09,0,2220,0,0.0,0.0,0.0,0.0,0,0,0.0
1005,0,0.0,0.34,,,,,,,,,,,,,,,,,,
1007,0,0.0,0.33,,,,,,,,,,,,,,,,,,
1009,0,0.0,0.33,,,,,,,,,,,,,,,,,,
1011,0,0.0,0.33,,,,,,,,,,,,,,,,,,
1013,0,0.0,0.32,,-0.11,0.08,0.94,0,-1,-0,0.14,,,,,,,,,,
1015,0,0.0,0.33,,,,,,,,,,,,,,,,,,
1017,0,0.0,0.33,,,,,,,,,,,,,,,,,,
1019,0,0.0,0.33,,,,,,,,,,,,,,,,,,
1021,0,0.0,0.32,,,,,,,,,,,,,,,,,,
1023,0,0.0,0.33,,-0.08,0.09,1.02,0,-0,-1,0.12,0,2220,0,0.0,0.0,0.0,0.0,0,0,0.0
1025,0,0.0,0.33,,,,,,,,,,,,,,,,,,
1027,0,0.0,0.32,,,,,,,,,,,,,,,,,,
1029,0,0.0,0.33,,,,,,,,,,,,,,,,,,
1031,0,0.0,0.34,,,,,,,,,,,,,,,,,,
1033,0,0.0,0.33,,-0.05,0.08,1.0,0,-0,-0,0.09,,,,,,,,,,
1035,0,0.0,0.33,,,,,,,,,,,,,,,,,,
1037,0,0.0,0.33,,,,,,,,,,,,,,,,,,
1039,0,0.01,0.33,,,,,,,,,,,,,,,,,,
1041,0,0.0,0.33,,,,,,,,,,,,,,,,,,
1043,0,0.0,0.33,13.42,-0.14,0.09,1.02,-0,-1,-0,0.16,0,2220,0,0.0,0.0,0.0,0.0,0,0,0.0
1045,0,0.0,0.33,,,,,,,,,,,,,,,,,,
1047,0,0.0,0.33,,,,,,,,,,,,,,,,,,
1049,0,0.0,0.33,,,,,,,,,,,,,,,,,,
1051,0,0.0,0.33,,,,,,,,,,,,,,,,,,
1053,0,0.0,0.33,,-0.05,0.04,0.94,0,-1,-0,0.07,,,,,,,,,,
1055,0,0.0,0.33,,,,,,,,,,,,,,,,,,
1057,0,0.0,0.33,,,,,,,,,,,,,,,,,,
1059,0,0.0,0.34,,,,,,,,,,,,,,,,,,
1061,0,0.0,0.33,,,,,,,,,,,,,,,,,,
1063,0,0.0,0.33,,-0.02,0.07,0.96,0,-0,-0,0.08,0,2220,0,0.0,0.0,0.0,0.0,0,0,0.0
1065,0,0.0,0.33,,,,,,,,,,,,,,,,,,
1067,0,0.0,0.33,,,,,,,,,,,,,,,,,,
1069,0,0.0,0.33,,,,,,,,,,,,,,,,,,
1071,0,0.0,0.33,,,,,,,,,,,,,,,,,,
1073,0,0.01,0.33,,-0.14,0.11,1.06,0,0,-1,0.18,,,,,,,,,,
1075,0,0.0,0.33,,,,,,,,,,,,,,,,,,
1077,0,0.0,0.33,,,,,,,,,,,,,,,,,,
1079,0,0.0,0.33,,,,,,,,,,,,,,,,,,
1081,0,0.0,0.33,,,,,,,,,,,,,,,,,,
1083,0,0.0,0.33,,-0.03,0.06,1.0,0,-1,-1,0.07,0,2220,0,0.0,0.0,0.0,0.0,0,0,0.0
1085,0,0.0,0.34,,,,,,,,,,,,,,,,,,
1087,0,0.01,0.33,,,,,,,,,,,,,,,,,,
1089,0,0.0,0.33,,,,,,,,,,,,,,,,,,
1091,0,0.0,0.34,,,,,,,,,,,,,,,,,,
1093,0,0.0,0.33,,-0.09,0.05,0.95,0,-0,-0,0.1,,,,,,,,,,
1095,0,0.0,0.33,,,,,,,,,,,,,,,,,,
1097,0,0.0,0.33,,,,,,,,,,,,,,,,,,
1099,0,0.0,0.33,,,,,,,,,,,,,,,,,,
1101,0,0.0,0.33,,,,,,,,,,,,,,,,,,
1103,0,0.0,0.33,,-0.1,0.09,1.0,0,-0,-1,0.13,0,2220,0,0.0,0.0,0.0,0.0,0,0,0.0
1105,0,0.0,0.33,,,,,,,,,,,,,,,,,,
1107,0,0.0,0.33,,,,,,,,,,,,,,,,,,
1109,0,0.0,0.33,,,,,,,,,,,,,,,,,,
1111,0,0.0,0.34,,,,,,,,,,,,,,,,,,
1113,0,0.0,0.35,,-0.04,0.09,1.02,0,0,-0,0.1,,,,,,,,,,
1115,0,0.0,0.33,,,,,,,,,,,,,,,,,,
1117,0,0.0,0.33,,,,,,,,,,,,,,,,,,
1119,0,0.0,0.34,,,,,,,,,,,,,,,,,,
1121,0,0.0,0.33,,,,,,,,,,,,,,,,,,
1123,0,0.0,0.34,,-0.16,0.09,1.01,-0,-0,-0,0.18,0,2220,0,0.0,0.0,0.0,0.0,0,0,0.0
1125,0,0.0,0.33,,,,,,,,,,,,,,,,,,
1127,0,0.0,0.34,,,,,,,,,,,,,,,,,,
1129,0,0.0,0.33,,,,,,,,,,,,,,,,,,
1131,0,0.0,0.34,,,,,,,,,,,,,,,,,,
1133,0,0.0,0.34,,-0.04,0.05,0.97,0,-1,-0,0.06,,,,,,,,,,
1135,0,0.01,0.33,,,,,,,,,,,,,,,,,,
1137,0,0.0,0.34,,,,,,,,,,,,,,,,,,
1139,0,0.0,0.35,,,,,,,,,,,,,,,,,,
1141,0,0.0,0.34,,,,,,,,,,,,,,,,,,
1143,0,0.0,0.34,,-0.06,0.06,0.96,0,0,-0,0.09,0,2220,0,0.0,0.0,0.0,0.0,0,0,0.0
1145,0,0.0,0.34,,,,,,,,,,,,,,,,,,
1147,0,0.0,0.34,,,,,,,,,,,,,,,,,,
1149,0,0.0,0.34,,,,,,,,,,,,,,,,,,
1151,0,0.0,0.34,,,,,,,,,,,,,,,,,,
1153,0,0.0,0.34,,-0.17,0.11,1.04,-0,0,-1,0.2,,,,,,,,,,
1155,0,0.0,0.34,,,,,,,,,,,,,,,,,,
1157,0,0.0,0.34,,,,,,,,,,,,,,,,,,
1159,0,0.0,0.34,,,,,,,,,,,,,,,,,,
1161,0,0.0,0.34,,,,,,,,,,,,,,,,,,
1163,0,0.0,0.34,,-0.07,0.05,0.97,0,-1,-0,0.09,0,2220,0,0.0,0.0,0.0,0.0,0,0,0.0
1165,0,0.0,0.35,,,,,,,,,,,,,,,,,,
1167,0,0.0,0.34,,,,,,,,,,,,,,,,,,
1169,0,0.0,0.34,,,,,,,,,,,,,,,,,,
1171,0,0.0,0.34,,,,,,,,,,,,,,,,,,
1173,0,0.0,0.34,,-0.09,0.06,0.92,-0,-0,-0,0.1,,,,,,,,,,
1175,0,0.0,0.34,,,,,,,,,,,,,,,,,,
1177,0,0.01,0.34,,,,,,,,,,,,,,,,,,
1179,0,0.0,0.34,,,,,,,,,,,,,,,,,,
1181,0,0.0,0.34,,,,,,,,,,,,,,,,,,
1183,0,0.0,0.34,,-0.09,0.08,1.01,0,-0,-0,0.12,0,2220,0,0.0,0.0,0.0,0.0,0,0,0.0
1185,0,0.0,0.34,,,,,,,,,,,,,,,,,,
1187,0,0.0,0.34,,,,,,,,,,,,,,,,,,
1189,0,0.0,0.34,,,,,,,,,,,,,,,,,,
1191,0,0.01,0.34,,,,,,,,,,,,,,,,,,
1193,0,0.0,0.35,,-0.06,0.06,1.02,0,-0,-0,0.09,,,,,,,,,,
1195,0,0.0,0.34,,,,,,,,,,,,,,,,,,
1197,0,0.0,0.34,,,,,,,,,,,,,,,,,,
1199,0,0.0,0.34,,,,,,,,,,,,,,,,,,
1201,0,0.0,0.34,,,,,,,,,,,,,,,,,,
1203,0,0.0,0.34,,-0.15,0.07,1.0,-0,-0,-0,0.16,0,2220,0,0.0,0.0,0.0,0.0,0,0,0.0
1205,0,0.0,0.34,,,,,,,,,,,,,,,,,,
1207,0,0.0,0.34,,,,,,,,,,,,,,,,,,
1209,0,0.0,0.34,,,,,,,,,,,,,,,,,,
1211,0,0.0,0.34,,,,,,,,,,,,,,,,,,
1213,0,0.0,0.34,,-0.07,0.04,0.95,0,-1,-0,0.08,,,,,,,,,,
1215,0,0.0,0.35,,,,,,,,,,,,,,,,,,
1217,0,0.0,0.34,,,,,,,,,,,,,,,,,,
1219,0,0.0,0.35,,,,,,,,,,,,,,,,,,
1221,0,0.0,0.34,,,,,,,,,,,,,,,,,,
1223,0,0.0,0.34,,-0.03,0.07,0.98,0,0,-0,0.07,0,2220,0,0.0,0.0,0.0,0.0,0,0,0.0
1225,0,0.01,0.34,,,,,,,,,,,,,,,,,,
1227,0,0.0,0.35,,,,,,,,,,,,,,,,,,
1229,0,0.0,0.35,,,,,,,,,,,,,,,,,,
1231,0,0.0,0.35,,,,,,,,,,,,,,,,,,
1233,0,0.0,0.34,,-0.17,0.11,1.07,0,0,-0,0.2,,,,,,,,,,
1235,0,0.0,0.35,,,,,,,,,,,,,,,,,,
1237,0,0.0,0.34,,,,,,,,,,,,,,,,,,
1239,0,0.0,0.34,,,,,,,,,,,,,,,,,,
1241,0,0.0,0.34,,,,,,,,,,,,,,,,,,
1243,0,0.0,0.35,,-0.06,0.06,0.99,0,-1,-0,0.08,0,2220,0,0.0,0.0,0.0,0.0,0,0,0.0
1245,0,0.0,0.36,,,,,,,,,,,,,,,,,,
1247,0,0.0,0.35,,,,,,,,,,,,,,,,,,
1249,0,0.0,0.35,,,,,,,,,,,,,,,,,,
1251,0,0.0,0.35,,,,,,,,,,,,,,,,,,
1253,0,0.0,0.35,,-0.1,0.05,0.94,0,-0,-0,0.12,,,,,,,,,,
1255,0,0.0,0.35,,,,,,,,,,,,,,,,,,
1257,0,0.0,0.35,,,,,,,,,,,,,,,,,,
1259,0,0.0,0.35,,,,,,,,,,,,,,,,,,
1261,0,0.0,0.35,,,,,,,,,,,,,,,,,,
1263,0,0.0,0.35,,-0.12,0.1,1.01,0,-0,-0,0.16,0,2220,0,0.0,0.0,0.0,0.0,0,0,0.0
1265,0,0.0,0.35,,,,,,,,,,,,,,,,,,
1267,0,0.01,0.35,,,,,,,,,,,,,,,,,,
1269,0,0.0,0.35,,,,,,,,,,,,,,,,,,
1271,0,0.0,0.35,,,,,,,,,,,,,,,,,,
1273,0,0.01,0.36,,-0.06,0.09,1.02,0,-0,-0,0.1,,,,,,,,,,
1275,0,0.0,0.35,,,,,,,,,,,,,,,,,,
1277,0,0.0,0.35,,,,,,,,,,,,,,,,,,
1279,0,0.0,0.35,,,,,,,,,,,,,,,,,,
1281,0,0.0,0.35,,,,,,,,,,,,,,,,,,
1283,0,0.0,0.35,,-0.16,0.1,1.0,0,-0,-0,0.19,0,2220,0,0.0,0.0,0.0,0.0,0,0,0.0
1285,0,0.0,0.35,,,,,,,,,,,,,,,,,,
1287,0,0.0,0.35,,,,,,,,,,,,,,,,,,
1289,0,0.0,0.35,,,,,,,,,,,,,,,,,,
1291,0,0.0,0.35,,,,,,,,,,,,,,,,,,
1293,0,0.0,0.35,,-0.05,0.05,0.96,0,-1,-0,0.07,,,,,,,,,,
1295,0,0.0,0.35,,,,,,,,,,,,,,,,,,
1297,0,0.0,0.35,,,,,,,,,,,,,,,,,,
1299,0,0.0,0.36,,,,,,,,,,,,,,,,,,
1301,0,0.0,0.35,,,,,,,,,,,,,,,,,,
1303,0,0.0,0.35,,-0.05,0.07,0.95,0,-0,-0,0.08,0,2220,0,0.0,0.0,0.0,0.0,0,0,0.0
1305,0,0.0,0.35,,,,,,,,,,,,,,,,,,
1307,0,0.0,0.35,,,,,,,,,,,,,,,,,,
1309,0,0.0,0.35,,,,,,,,,,,,,,,,,,
1311,0,0.0,0.35,,,,,,,,,,,,,,,,,,
1313,0,0.0,0.35,,-0.16,0.11,1.05,0,-0,-1,0.2,,,,,,,,,,
1315,0,0.0,0.35,,,,,,,,,,,,,,,,,,
1317,0,0.0,0.35,,,,,,,,,,,,,,,,,,
1319,0,0.0,0.36,,,,,,,,,,,,,,,,,,
1321,0,0.0,0.35,,,,,,,,,,,,,,,,,,
1323,0,0.0,0.35,,-0.07,0.06,0.99,0,-1,-0,0.09,0,2220,0,0.0,0.0,0.0,0.0,0,0,0.0
1325,0,0.0,0.36,,,,,,,,,,,,,,,,,,
1327,0,0.0,0.35,,,,,,,,,,,,,,,,,,
1329,0,0.0,0.36,,,,,,,,,,,,,,,,,,
1331,0,0.0,0.35,,,,,,,,,,,,,,,,,,
1333,0,0.0,0.35,,-0.08,0.07,0.93,-0,-1,-0,0.1,,,,,,,,,,
1335,0,0.0,0.35,,,,,,,,,,,,,,,,,,
1337,0,0.0,0.35,,,,,,,,,,,,,,,,,,
1339,0,0.0,0.36,,,,,,,,,,,,,,,,,,
1341,0,0.0,0.35,,,,,,,,,,,,,,,,,,
1343,0,0.0,0.36,,-0.07,0.07,1.02,0,-0,-0,0.1,0,2220,0,0.0,0.0,0.0,0.0,0,0,0.0
1345,0,0.0,0.35,,,,,,,,,,,,,,,,,,
1347,0,0.0,0.35,,,,,,,,,,,,,,,,,,
1349,0,0.01,0.35,,,,,,,,,,,,,,,,,,
1351,0,0.0,0.35,,,,,,,,,,,,,,,,,,
1353,0,0.0,0.36,,-0.05,0.07,1.02,0,-0,-0,0.09,,,,,,,,,,
1355,0,0.0,0.36,,,,,,,,,,,,,,,,,,
1357,0,0.0,0.36,,,,,,,,,,,,,,,,,,
1359,0,0.0,0.36,,,,,,,,,,,,,,,,,,
1361,0,0.0,0.35,,,,,,,,,,,,,,,,,,
1363,0,0.0,0.36,,-0.14,0.07,1.01,-0,-0,-0,0.16,0,2220,0,0.0,0.0,0.0,0.0,0,0,0.0
1365,0,0.0,0.36,,,,,,,,,,,,,,,,,,
1367,0,0.0,0.36,,,,,,,,,,,,,,,,,,
1369,0,0.0,0.35,,,,,,,,,,,,,,,,,,
1371,0,0.0,0.36,,,,,,,,,,,,,,,,,,
1373,0,0.0,0.36,,-0.04,0.04,0.95,0,-1,-0,0.06,,,,,,,,,,
1375,0,0.0,0.36,,,,,,,,,,,,,,,,,,
1377,0,0.01,0.36,,,,,,,,,,,,,,,,,,
1379,0,0.0,0.37,,,,,,,,,,,,,,,,,,
1381,0,0.0,0.36,,,,,,,,,,,,,,,,,,
1383,0,0.0,0.36,,-0.0,0.07,0.95,0,0,-0,0.07,0,2220,0,0.0,0.0,0.0,0.0,0,0,0.0
1385,0,0.0,0.36,,,,,,,,,,,,,,,,,,
1387,0,0.0,0.36,,,,,,,,,,,,,,,,,,
1389,0,0.0,0.36,,,,,,,,,,,,,,,,,,
1391,0,0.0,0.36,,,,,,,,,,,,,,,,,,
1393,0,0.0,0.36,,-0.16,0.11,1.07,0,0,-1,0.2,,,,,,,,,,
1395,0,0.0,0.36,,,,,,,,,,,,,,,,,,
1397,0,0.0,0.36,,,,,,,,,,,,,,,,,,
1399,0,0.0,0.36,,,,,,,,,,,,,,,,,,
1401,0,0.0,0.36,,,,,,,,,,,,,,,,,,
1403,0,0.0,0.36,,-0.05,0.07,1.02,0,-1,-0,0.08,0,2220,0,0.0,0.0,0.0,0.0,0,0,0.0
1405,0,0.0,0.37,,,,,,,,,,,,,,,,,,
1407,0,0.0,0.36,,,,,,,,,,,,,,,,,,
1409,0,0.0,0.36,,,,,,,,,,,,,,,,,,
1411,0,0.0,0.36,,,,,,,,,,,,,,,,,,
1413,0,0.0,0.36,,-0.1,0.06,0.95,0,-0,-0,0.11,,,,,,,,,,
1415,0,0.0,0.36,,,,,,,,,,,,,,,,,,
1417,0,0.0,0.36,,,,,,,,,,,,,,,,,,
1419,0,0.0,0.36,,,,,,,,,,,,,,,,,,
1421,0,0.0,0.36,,,,,,,,,,,,,,,,,,
1423,0,0.0,0.36,,-0.11,0.1,0.99,0,-0,-0,0.14,0,2220,0,0.0,0.0,0.0,0.0,0,0,0.0
1425,0,0.01,0.36,,,,,,,,,,,,,,,,,,
1427,0,0.0,0.36,,,,,,,,,,,,,,,,,,
1429,0,0.0,0.36,,,,,,,,,,,,,,,,,,
1431,0,0.0,0.37,,,,,,,,,,,,,,,,,,
1433,0,0.0,0.36,,-0.06,0.09,1.03,0,-0,-0,0.11,,,,,,,,,,
1435,0,0.0,0.36,,,,,,,,,,,,,,,,,,
1437,0,0.0,0.36,,,,,,,,,,,,,,,,,,
1439,0,0.01,0.36,,,,,,,,,,,,,,,,,,
1441,0,0.0,0.36,,,,,,,,,,,,,,,,,,
1443,0,0.0,0.37,,-0.17,0.11,1.03,-0,-0,-0,0.21,0,2220,0,0.0,0.0,0.0,0.0,0,0,0.0
1445,0,0.0,0.36,,,,,,,,,,,,,,,,,,
1447,0,0.0,0.37,,,,,,,,,,,,,,,,,,
1449,0,0.0,0.36,,,,,,,,,,,,,,,,,,
1451,0,0.0,0.36,,,,,,,,,,,,,,,,,,
1453,0,0.0,0.36,,-0.05,0.06,0.97,0,-1,-0,0.08,,,,,,,,,,
1455,0,0.0,0.36,,,,,,,,,,,,,,,,,,
1457,0,0.0,0.37,,,,,,,,,,,,,,,,,,
1459,0,0.0,0.37,,,,,,,,,,,,,,,,,,
1461,0,0.0,0.37,,,,,,,,,,,,,,,,,,
1463,0,0.0,0.37,,-0.06,0.07,0.96,-0,0,-0,0.09,0,2220,0,0.0,0.0,0.0,0.0,0,0,0.0
1465,0,0.0,0.36,,,,,,,,,,,,,,,,,,
1467,0,0.01,0.37,,,,,,,,,,,,,,,,,,
1469,0,0.0,0.36,,,,,,,,,,,,,,,,,,
1471,0,0.0,0.36,,,,,,,,,,,,,,,,,,
1473,0,0.0,0.36,,-0.16,0.1,1.04,0,-0,-1,0.19,,,,,,,,,,
1475,0,0.0,0.36,,,,,,,,,,,,,,,,,,
1477,0,0.0,0.37,,,,,,,,,,,,,,,,,,
1479,0,0.0,0.37,,,,,,,,,,,,,,,,,,
1481,0,0.0,0.37,,,,,,,,,,,,,,,,,,
1483,0,0.0,0.37,,-0.08,0.06,0.99,0,-1,-0,0.1,0,2220,0,0.0,0.0,0.0,0.0,0,0,0.0
1485,0,0.0,0.38,,,,,,,,,,,,,,,,,,
1487,0,0.0,0.37,,,,,,,,,,,,,,,,,,
1489,0,0.0,0.36,,,,,,,,,,,,,,,,,,
1491,0,0.0,0.37,,,,,,,,,,,,,,,,,,
1493,0,0.0,0.37,,-0.1,0.07,0.94,-0,-0,-0,0.12,,,,,,,,,,
1495,0,0.0,0.37,,,,,,,,,,,,,,,,,,
1497,0,0.0,0.37,,,,,,,,,,,,,,,,,,
1499,0,0.0,0.37,,,,,,,,,,,,,,,,,,
1501,0,0.01,0.37,,,,,,,,,,,,,,,,,,
1503,0,0.0,0.37,,-0.07,0.07,1.0,0,-0,-1,0.1,0,2220,0,0.0,0.0,0.0,0.0,0,0,0.0
1505,0,0.0,0.37,,,,,,,,,,,,,,,,,,
1507,0,0.0,0.37,,,,,,,,,,,,,,,,,,
1509,0,0.0,0.37,,,,,,,,,,,,,,,,,,
1511,0,0.0,0.38,,,,,,,,,,,,,,,,,,
1513,0,0.0,0.37,,-0.05,0.06,1.01,0,-0,-0,0.08,,,,,,,,,,
1515,0,0.01,0.37,,,,,,,,,,,,,,,,,,
1517,0,0.0,0.37,,,,,,,,,,,,,,,,,,
1519,0,0.0,0.37,,,,,,,,,,,,,,,,,,
1521,0,0.0,0.37,,,,,,,,,,,,,,,,,,
1523,0,0.0,0.37,,-0.15,0.06,1.01,0,-0,-0,0.16,0,2220,0,0.0,0.0,0.0,0.0,0,0,0.0
1525,0,0.0,0.37,,,,,,,,,,,,,,,,,,
1527,0,0.0,0.37,,,,,,,,,,,,,,,,,,
1529,0,0.0,0.37,,,,,,,,,,,,,,,,,,
1531,0,0.0,0.37,,,,,,,,,,,,,,,,,,
1533,0,0.0,0.37,,-0.04,0.04,0.94,0,-1,-0,0.06,,,,,,,,,,
1535,0,0.0,0.37,,,,,,,,,,,,,,,,,,
1537,0,0.0,0.37,,,,,,,,,,,,,,,,,,
1539,0,0.0,0.38,,,,,,,,,,,,,,,,,,
1541,0,0.0,0.37,,,,,,,,,,,,,,,,,,
1543,0,0.0,0.37,,-0.01,0.08,0.95,0,0,-0,0.08,0,2220,0,0.0,0.0,0.0,0.0,0,0,0.0
1545,0,0.0,0.37,,,,,,,,,,,,,,,,,,
1547,0,0.0,0.37,,,,,,,,,,,,,,,,,,
1549,0,0.01,0.37,,,,,,,,,,,,,,,,,,
1551,0,0.0,0.37,,,,,,,,,,,,,,,,,,
1553,0,0.0,0.37,,-0.15,0.11,1.06,0,0,-1,0.18,,,,,,,,,,
1555,0,0.0,0.37,,,,,,,,,,,,,,,,,,
1557,0,0.0,0.37,,,,,,,,,,,,,,,,,,
1559,0,0.0,0.37,,,,,,,,,,,,,,,,,,
1561,0,0.0,0.37,,,,,,,,,,,,,,,,,,
1563,0,0.01,0.37,,-0.04,0.07,1.03,0,-0,-0,0.08,0,2220,0,0.0,0.0,0.0,0.0,0,0,0.0
1565,0,0.0,0.38,,,,,,,,,,,,,,,,,,
1567,0,0.0,0.38,,,,,,,,,,,,,,,,,,
1569,0,0.0,0.37,,,,,,,,,,,,,,,,,,
1571,0,0.0,0.37,,,,,,,,,,,,,,,,,,
1573,0,0.0,0.37,,-0.1,0.06,0.94,-0,-0,-0,0.11,,,,,,,,,,
1575,0,0.0,0.37,,,,,,,,,,,,,,,,,,
1577,0,0.01,0.37,,,,,,,,,,,,,,,,,,
1579,0,0.0,0.37,,,,,,,,,,,,,,,,,,
1581,0,0.0,0.38,,,,,,,,,,,,,,,,,,
1583,0,0.0,0.37,,-0.09,0.09,0.99,0,-0,-0,0.13,0,2220,0,0.0,0.0,0.0,0.0,0,0,0.0
1585,0,0.0,0.38,,,,,,,,,,,,,,,,,,
1587,0,0.0,0.38,,,,,,,,,,,,,,,,,,
1589,0,0.0,0.37,,,,,,,,,,,,,,,,,,
1591,0,0.0,0.38,,,,,,,,,,,,,,,,,,
1593,0,0.0,0.38,,-0.05,0.09,1.02,-0,-0,-0,0.1,,,,,,,,,,
1595,0,0.0,0.38,,,,,,,,,,,,,,,,,,
1597,0,0.0,0.38,,,,,,,,,,,,,,,,,,
1599,0,0.0,0.38,,,,,,,,,,,,,,,,,,
1601,0,0.0,0.38,,,,,,,,,,,,,,,,,,
1603,0,0.0,0.37,,-0.17,0.1,1.01,-0,-0,-0,0.19,0,2220,0,0.0,0.0,0.0,0.0,0,0,0.0
1605,0,0.0,0.38,,,,,,,,,,,,,,,,,,
1607,0,0.0,0.38,,,,,,,,,,,,,,,,,,
1609,0,0.0,0.38,,,,,,,,,,,,,,,,,,
1611,0,0.0,0.38,,,,,,,,,,,,,,,,,,
1613,0,0.0,0.37,,-0.04,0.05,0.96,0,-1,-0,0.06,,,,,,,,,,
1615,0,0.0,0.38,,,,,,,,,,,,,,,,,,
1617,0,0.0,0.38,,,,,,,,,,,,,,,,,,
1619,0,0.0,0.38,,,,,,,,,,,,,,,,,,
1621,0,0.0,0.38,,,,,,,,,,,,,,,,,,
1623,0,0.0,0.38,,-0.05,0.06,0.96,-0,0,0,0.08,0,2220,0,0.0,0.0,0.0,0.0,0,0,0.0
1625,0,0.0,0.38,,,,,,,,,,,,,,,,,,
1627,0,0.0,0.38,,,,,,,,,,,,,,,,,,
1629,0,0.0,0.38,,,,,,,,,,,,,,,,,,
1631,0,0.0,0.38,,,,,,,,,,,,,,,,,,
1633,0,0.0,0.38,,-0.16,0.1,1.05,0,0,-0,0.19,,,,,,,,,,
1635,0,0.0,0.38,,,,,,,,,,,,,,,,,,
1637,0,0.0,0.38,,,,,,,,,,,,,,,,,,
1639,0,0.0,0.38,,,,,,,,,,,,,,,,,,
1641,0,0.0,0.38,,,,,,,,,,,,,,,,,,
1643,0,0.0,0.38,,-0.07,0.05,0.99,0,-1,-0,0.09,0,2220,0,0.0,0.0,0.0,0.0,0,0,0.0
1645,0,0.0,0.39,,,,,,,,,,,,,,,,,,
1647,0,0.0,0.38,,,,,,,,,,,,,,,,,,
1649,0,0.0,0.38,,,,,,,,,,,,,,,,,,
1651,0,0.0,0.38,,,,,,,,,,,,,,,,,,
1653,0,0.0,0.38,,-0.1,0.06,0.93,-0,-1,-0,0.12,,,,,,,,,,
1655,0,0.0,0.38,,,,,,,,,,,,,,,,,,
1657,0,0.0,0.38,,,,,,,,,,,,,,,,,,
1659,0,0.0,0.38,,,,,,,,,,,,,,,,,,
1661,0,0.0,0.38,,,,,,,,,,,,,,,,,,
1663,0,0.0,0.38,,-0.08,0.07,0.99,0,-0,-0,0.11,0,2220,0,0.0,0.0,0.0,0.0,0,0,0.0
1665,0,0.0,0.38,,,,,,,,,,,,,,,,,,
1667,0,0.01,0.38,,,,,,,,,,,,,,,,,,
1669,0,0.0,0.38,,,,,,,,,,,,,,,,,,
1671,0,0.0,0.39,,,,,,,,,,,,,,,,,,
1673,0,0.01,0.38,,-0.06,0.07,1.01,0,-0,-0,0.09,,,,,,,,,,
1675,0,0.0,0.38,,,,,,,,,,,,,,,,,,
1677,0,0.0,0.39,,,,,,,,,,,,,,,,,,
1679,0,0.0,0.38,,,,,,,,,,,,,,,,,,
1681,0,0.0,0.38,,,,,,,,,,,,,,,,,,
1683,0,0.0,0.38,,-0.16,0.07,1.01,-0,-0,-0,0.18,0,2220,0,0.0,0.0,0.0,0.0,0,0,0.0
1685,0,0.0,0.38,,,,,,,,,,,,,,,,,,
1687,0,0.01,0.38,,,,,,,,,,,,,,,,,,
1689,0,0.0,0.38,,,,,,,,,,,,,,,,,,
1691,0,0.0,0.38,,,,,,,,,,,,,,,,,,
1693,0,0.0,0.38,,-0.06,0.05,0.95,0,-1,-0,0.08,,,,,,,,,,
1695,0,0.0,0.38,,,,,,,,,,,,,,,,,,
1697,0,0.0,0.39,,,,,,,,,,,,,,,,,,
1699,0,0.0,0.4,,,,,,,,,,,,,,,,,,
1701,0,0.0,0.39,,,,,,,,,,,,,,,,,,
1703,0,0.0,0.38,,-0.02,0.09,0.96,-0,0,-0,0.09,0,2220,0,0.0,0.0,0.0,0.0,0,0,0.0
1705,0,0.0,0.39,,,,,,,,,,,,,,,,,,
1707,0,0.0,0.38,,,,,,,,,,,,,,,,,,
1709,0,0.0,0.39,,,,,,,,,,,,,,,,,,
1711,0,0.0,0.39,,,,,,,,,,,,,,,,,,
1713,0,0.0,0.38,,-0.16,0.12,1.06,0,0,-1,0.2,,,,,,,,,,
1715,0,0.0,0.39,,,,,,,,,,,,,,,,,,
1717,0,0.0,0.38,,,,,,,,,,,,,,,,,,
1719,0,0.0,0.39,,,,,,,,,,,,,,,,,,
1721,0,0.0,0.38,,,,,,,,,,,,,,,,,,
1723,0,0.0,0.39,,-0.05,0.07,1.02,0,-0,-0,0.08,0,2220,0,0.0,0.0,0.0,0.0,0,0,0.0
1725,0,0.0,0.4,,,,,,,,,,,,,,,,,,
1727,0,0.0,0.39,,,,,,,,,,,,,,,,,,
1729,0,0.0,0.39,,,,,,,,,,,,,,,,,,
1731,0,0.0,0.39,,,,,,,,,,,,,,,,,,
1733,0,0.0,0.39,,-0.11,0.06,0.95,-0,-0,-0,0.12,,,,,,,,,,
1735,0,0.0,0.39,,,,,,,,,,,,,,,,,,
1737,0,0.0,0.39,,,,,,,,,,,,,,,,,,
1739,0,0.0,0.39,,,,,,,,,,,,,,,,,,
1741,0,0.0,0.39,,,,,,,,,,,,,,,,,,
1743,0,0.0,0.39,,-0.11,0.1,0.99,0,-0,-0,0.15,0,2220,0,0.0,0.0,0.0,0.0,0,0,0.0
1745,0,0.0,0.39,,,,,,,,,,,,,,,,,,
1747,0,0.0,0.39,,,,,,,,,,,,,,,,,,
1749,0,0.01,0.39,,,,,,,,,,,,,,,,,,
1751,0,0.0,0.39,,,,,,,,,,,,,,,,,,
1753,0,0.0,0.4,,-0.05,0.08,1.03,0,-0,-0,0.09,,,,,,,,,,
1755,0,0.0,0.39,,,,,,,,,,,,,,,,,,
1757,0,0.0,0.39,,,,,,,,,,,,,,,,,,
1759,0,0.0,0.39,,,,,,,,,,,,,,,,,,
1761,0,0.0,0.39,,,,,,,,,,,,,,,,,,
1763,0,0.0,0.39,,-0.18,0.09,0.99,-0,-0,-0,0.2,0,2220,0,0.0,0.0,0.0,0.0,0,0,0.0
1765,0,0.0,0.39,,,,,,,,,,,,,,,,,,
1767,0,0.0,0.39,,,,,,,,,,,,,,,,,,
1769,0,0.0,0.39,,,,,,,,,,,,,,,,,,
1771,0,0.0,0.39,,,,,,,,,,,,,,,,,,
1773,0,0.0,0.39,,-0.04,0.05,0.96,0,-1,-0,0.06,,,,,,,,,,
1775,0,0.0,0.39,,,,,,,,,,,,,,,,,,
1777,0,0.0,0.39,,,,,,,,,,,,,,,,,,
1779,0,0.0,0.4,,,,,,,,,,,,,,,,,,
1781,0,0.0,0.4,,,,,,,,,,,,,,,,,,
1783,0,0.0,0.39,,-0.05,0.06,0.95,-0,0,-0,0.08,0,2220,0,0.0,0.0,0.0,0.0,0,0,0.0
1785,0,0.0,0.39,,,,,,,,,,,,,,,,,,
1787,0,0.0,0.39,,,,,,,,,,,,,,,,,,
1789,0,0.0,0.39,,,,,,,,,,,,,,,,,,
1791,0,0.0,0.39,,,,,,,,,,,,,,,,,,
1793,0,0.0,0.39,,-0.18,0.11,1.05,0,-0,-1,0.21,,,,,,,,,,
1795,0,0.0,0.39,,,,,,,,,,,,,,,,,,
1797,0,0.0,0.39,,,,,,,,,,,,,,,,,,
1799,0,0.0,0.39,,,,,,,,,,,,,,,,,,
1801,0,0.0,0.39,,,,,,,,,,,,,,,,,,
1803,0,0.0,0.39,,-0.07,0.05,0.98,0,-1,-0,0.09,0,2220,0,0.0,0.0,0.0,0.0,0,0,0.0
1805,0,0.0,0.4,,,,,,,,,,,,,,,,,,
1807,0,0.0,0.4,,,,,,,,,,,,,,,,,,
1809,0,0.0,0.39,,,,,,,,,,,,,,,,,,
1811,0,0.01,0.39,,,,,,,,,,,,,,,,,,
1813,0,0.0,0.39,,-0.07,0.07,0.93,0,-0,-0,0.1,,,,,,,,,,
1815,0,0.0,0.4,,,,,,,,,,,,,,,,,,
1817,0,0.0,0.39,,,,,,,,,,,,,,,,,,
1819,0,0.0,0.4,,,,,,,,,,,,,,,,,,
1821,0,0.0,0.39,,,,,,,,,,,,,,,,,,
1823,0,0.0,0.39,,-0.09,0.09,1.01,0,-0,-1,0.13,0,2220,0,0.0,0.0,0.0,0.0,0,0,0.0
1825,0,0.0,0.39,,,,,,,,,,,,,,,,,,
1827,0,0.0,0.39,,,,,,,,,,,,,,,,,,
1829,0,0.0,0.4,,,,,,,,,,,,,,,,,,
1831,0,0.0,0.39,,,,,,,,,,,,,,,,,,
1833,0,0.0,0.4,,-0.06,0.07,1.03,0,-0,-0,0.09,,,,,,,,,,
1835,0,0.0,0.4,,,,,,,,,,,,,,,,,,
1837,0,0.0,0.4,,,,,,,,,,,,,,,,,,
1839,0,0.0,0.39,,,,,,,,,,,,,,,,,,
1841,0,0.0,0.39,,,,,,,,,,,,,,,,,,
1843,0,0.0,0.4,,-0.15,0.07,1.0,0,-1,-0,0.16,0,2220,0,0.0,0.0,0.0,0.0,0,0,0.0
1845,0,0.0,0.4,,,,,,,,,,,,,,,,,,
1847,0,0.0,0.4,,,,,,,,,,,,,,,,,,
1849,0,0.0,0.4,,,,,,,,,,,,,,,,,,
1851,0,0.0,0.39,,,,,,,,,,,,,,,,,,
1853,0,0.0,0.4,,-0.06,0.05,0.94,0,-1,-0,0.08,,,,,,,,,,
1855,0,0.0,0.4,,,,,,,,,,,,,,,,,,
1857,0,0.0,0.4,,,,,,,,,,,,,,,,,,
1859,0,0.0,0.41,,,,,,,,,,,,,,,,,,
1861,0,0.0,0.4,,,,,,,,,,,,,,,,,,
1863,0,0.0,0.4,,-0.02,0.08,0.97,-0,-0,-0,0.08,0,2220,0,0.0,0.0,0.0,0.0,0,0,0.0
1865,0,0.0,0.4,,,,,,,,,,,,,,,,,,
1867,0,0.01,0.4,,,,,,,,,,,,,,,,,,
1869,0,0.0,0.4,,,,,,,,,,,,,,,,,,
1871,0,0.0,0.4,,,,,,,,,,,,,,,,,,
1873,0,0.0,0.4,,-0.17,0.11,1.07,0,-0,-1,0.2,,,,,,,,,,
1875,0,0.0,0.4,,,,,,,,,,,,,,,,,,
1877,0,0.0,0.4,,,,,,,,,,,,,,,,,,
1879,0,0.0,0.4,,,,,,,,,,,,,,,,,,
1881,0,0.0,0.4,,,,,,,,,,,,,,,,,,
1883,0,0.0,0.4,,-0.05,0.07,1.01,0,-1,-1,0.08,0,2220,0,0.0,0.0,0.0,0.0,0,0,0.0
1885,0,0.0,0.41,,,,,,,,,,,,,,,,,,
1887,0,0.0,0.4,,,,,,,,,,,,,,,,,,
1889,0,0.0,0.4,,,,,,,,,,,,,,,,,,
1891,0,0.0,0.4,,,,,,,,,,,,,,,,,,
1893,0,0.0,0.4,,-0.08,0.05,0.92,-0,-0,-0,0.1,,,,,,,,,,
1895,0,0.0,0.4,,,,,,,,,,,,,,,,,,
1897,0,0.0,0.4,,,,,,,,,,,,,,,,,,
1899,0,0.0,0.4,,,,,,,,,,,,,,,,,,
1901,0,0.0,0.4,,,,,,,,,,,,,,,,,,
1903,0,0.0,0.4,,-0.11,0.09,1.0,0,-0,-0,0.14,0,2220,0,0.0,0.0,0.0,0.0,0,0,0.0
1905,0,0.0,0.4,,,,,,,,,,,,,,,,,,
1907,0,0.0,0.4,,,,,,,,,,,,,,,,,,
1909,0,0.0,0.4,,,,,,,,,,,,,,,,,,
1911,0,0.0,0.4,,,,,,,,,,,,,,,,,,
1913,0,0.0,0.41,,-0.04,0.07,1.03,0,-0,-0,0.09,,,,,,,,,,
1915,0,0.0,0.4,,,,,,,,,,,,,,,,,,
1917,0,0.0,0.4,,,,,,,,,,,,,,,,,,
1919,0,0.0,0.4,,,,,,,,,,,,,,,,,,
1921,0,0.0,0.4,,,,,,,,,,,,,,,,,,
1923,0,0.0,0.41,,-0.16,0.08,1.0,0,-0,-0,0.18,0,2220,0,0.0,0.0,0.0,0.0,0,0,0.0
1925,0,0.0,0.4,,,,,,,,,,,,,,,,,,
1927,0,0.0,0.4,,,,,,,,,,,,,,,,,,
1929,0,0.0,0.4,,,,,,,,,,,,,,,,,,
1931,0,0.0,0.4,,,,,,,,,,,,,,,,,,
1933,0,0.0,0.4,,-0.03,0.04,0.97,0,-1,-0,0.05,,,,,,,,,,
1935,0,0.0,0.41,,,,,,,,,,,,,,,,,,
1937,0,0.0,0.4,,,,,,,,,,,,,,,,,,
1939,0,0.0,0.42,,,,,,,,,,,,,,,,,,
1941,0,0.0,0.4,,,,,,,,,,,,,,,,,,
1943,0,0.0,0.41,,-0.05,0.06,0.96,0,0,-0,0.07,0,2220,0,0.0,0.0,0.0,0.0,0,0,0.0
1945,0,0.0,0.41,,,,,,,,,,,,,,,,,,
1947,0,0.0,0.4,,,,,,,,,,,,,,,,,,
1949,0,0.01,0.4,,,,,,,,,,,,,,,,,,
1951,0,0.0,0.41,,,,,,,,,,,,,,,,,,
1953,0,0.0,0.41,,-0.18,0.1,1.05,0,-0,-0,0.2,,,,,,,,,,
1955,0,0.0,0.41,,,,,,,,,,,,,,,,,,
1957,0,0.0,0.41,,,,,,,,,,,,,,,,,,
1959,0,0.0,0.4,,,,,,,,,,,,,,,,,,
1961,0,0.0,0.41,,,,,,,,,,,,,,,,,,
1963,0,0.0,0.41,,-0.07,0.05,0.98,0,-1,-0,0.08,0,2220,0,0.0,0.0,0.0,0.0,0,0,0.0
1965,0,0.0,0.42,,,,,,,,,,,,,,,,,,
1967,0,0.0,0.41,,,,,,,,,,,,,,,,,,
1969,0,0.0,0.41,,,,,,,,,,,,,,,,,,
1971,0,0.0,0.41,,,,,,,,,,,,,,,,,,
1973,0,0.0,0.41,,-0.07,0.06,0.92,-0,-0,-0,0.09,,,,,,,,,,
1975,0,0.0,0.41,,,,,,,,,,,,,,,,,,
1977,0,0.0,0.41,,,,,,,,,,,,,,,,,,
1979,0,0.0,0.41,,,,,,,,,,,,,,,,,,
1981,0,0.0,0.41,,,,,,,,,,,,,,,,,,
1983,0,0.0,0.41,,-0.08,0.08,1.02,0,-0,-1,0.12,0,2220,0,0.0,0.0,0.0,0.0,0,0,0.0
1985,0,0.0,0.41,,,,,,,,,,,,,,,,,,
1987,0,0.0,0.41,,,,,,,,,,,,,,,,,,
1989,0,0.0,0.41,,,,,,,,,,,,,,,,,,
1991,0,0.01,0.41,,,,,,,,,,,,,,,,,,
1993,0,0.0,0.42,,-0.05,0.07,1.02,0,-0,-0,0.09,,,,,,,,,,
2009,0,0.0,0.41,,,,,,,,,,,,,,,,,,
2011,0,0.01,0.41,,,,,,,,,,,,,,,,,,
2013,0,0.0,0.41,,-0.06,0.06,0.94,0,-1,-0,0.08,,,,,,,,,,
2023,0,0.0,0.41,,-0.01,0.07,0.97,-0,0,-0,0.07,0,2220,0,0.0,0.0,0.0,0.0,0,0,0.0
2025,0,0.0,0.41,,,,,,,,,,,,,,,,,,
2027,0,0.0,0.41,,,,,,,,,,,,,,,,,,
2029,0,0.0,0.41,,,,,,,,,,,,,,,,,,
2031,0,0.0,0.41,,,,,,,,,,,,,,,,,,
2033,0,0.0,0.41,,-0.19,0.11,1.08,0,-0,-0,0.22,,,,,,,,,,
2035,0,0.0,0.41,,,,,,,,,,,,,,,,,,
2037,0,0.0,0.41,,,,,,,,,,,,,,,,,,
2039,0,0.01,0.41,,,,,,,,,,,,,,,,,,
2041,0,0.0,0.41,,,,,,,,,,,,,,,,,,
2043,0,0.0,0.42,13.42,-0.05,0.07,1.0,0,-1,-0,0.09,0,2220,0,0.0,0.0,0.0,0.0,0,0,0.0
2045,0,0.0,0.42,,,,,,,,,,,,,,,,,,
2047,0,0.0,0.42,,,,,,,,,,,,,,,,,,
2049,0,0.0,0.41,,,,,,,,,,,,,,,,,,
2051,0,0.0,0.41,,,,,,,,,,,,,,,,,,
2053,0,0.0,0.41,,-0.09,0.06,0.93,-0,-0,-0,0.11,,,,,,,,,,
2055,0,0.0,0.41,,,,,,,,,,,,,,,,,,
2057,0,0.0,0.42,,,,,,,,,,,,,,,,,,
2059,0,0.0,0.41,,,,,,,,,,,,,,,,,,
2061,0,0.0,0.41,,,,,,,,,,,,,,,,,,
2063,0,0.0,0.41,,-0.11,0.1,1.01,0,-0,-0,0.15,0,2220,0,0.0,0.0,0.0,0.0,0,0,0.0
2065,0,0.0,0.41,,,,,,,,,,,,,,,,,,
2067,0,0.0,0.42,,,,,,,,,,,,,,,,,,
2069,0,0.0,0.41,,,,,,,,,,,,,,,,,,
2071,0,0.0,0.41,,,,,,,,,,,,,,,,,,
2073,0,0.0,0.42,,-0.06,0.08,1.03,0,-0,-0,0.1,,,,,,,,,,
2075,0,0.0,0.42,,,,,,,,,,,,,,,,,,
2077,0,0.0,0.42,,,,,,,,,,,,,,,,,,
2079,0,0.0,0.42,,,,,,,,,,,,,,,,,,
2081,0,0.0,0.42,,,,,,,,,,,,,,,,,,
2083,0,0.0,0.42,,-0.16,0.1,1.0,-0,-0,-0,0.18,0,2220,0,0.0,0.0,0.0,0.0,0,0,0.0
2085,0,0.0,0.41,,,,,,,,,,,,,,,,,,
2087,0,0.01,0.41,,,,,,,,,,,,,,,,,,
2089,0,0.0,0.41,,,,,,,,,,,,,,,,,,
2091,0,0.0,0.42,,,,,,,,,,,,,,,,,,
2093,0,0.0,0.42,,-0.05,0.05,0.97,0,-1,-0,0.07,,,,,,,,,,
2095,0,0.0,0.42,,,,,,,,,,,,,,,,,,
2097,0,0.0,0.42,,,,,,,,,,,,,,,,,,
2099,0,0.0,0.43,,,,,,,,,,,,,,,,,,
2101,0,0.01,0.42,,,,,,,,,,,,,,,,,,
2103,0,0.0,0.42,,-0.05,0.07,0.97,0,0,-0,0.09,0,2220,0,0.0,0.0,0.0,0.0,0,0,0.0
2105,0,0.0,0.42,,,,,,,,,,,,,,,,,,
2107,0,0.0,0.42,,,,,,,,,,,,,,,,,,
2109,0,0.0,0.42,,,,,,,,,,,,,,,,,,
2111,0,0.0,0.42,,,,,,,,,,,,,,,,,,
2113,0,0.0,0.42,,-0.17,0.11,1.07,0,-0,-1,0.21,,,,,,,,,,
2115,0,0.0,0.42,,,,,,,,,,,,,,,,,,
2117,0,0.0,0.42,,,,,,,,,,,,,,,,,,
2119,0,0.0,0.42,,,,,,,,,,,,,,,,,,
2121,0,0.0,0.42,,,,,,,,,,,,,,,,,,
2123,0,0.0,0.42,,-0.07,0.06,0.98,0,-1,-0,0.09,0,2220,0,0.0,0.0,0.0,0.0,0,0,0.0
2125,0,0.0,0.43,,,,,,,,,,,,,,,,,,
2127,0,0.0,0.42,,,,,,,,,,,,,,,,,,
2129,0,0.01,0.42,,,,,,,,,,,,,,,,,,
2131,0,0.0,0.42,,,,,,,,,,,,,,,,,,
2133,0,0.0,0.42,,-0.08,0.07,0.92,-0,-1,-0,0.1,,,,,,,,,,
2135,0,0.0,0.42,,,,,,,,,,,,,,,,,,
2137,0,0.0,0.42,,,,,,,,,,,,,,,,,,
2139,0,0.0,0.42,,,,,,,,,,,,,,,,,,
2141,0,0.0,0.42,,,,,,,,,,,,,,,,,,
2143,0,0.0,0.42,,-0.08,0.09,1.0,0,-0,-0,0.12,0,2220,0,0.0,0.0,0.0,0.0,0,0,0.0
2145,0,0.0,0.42,,,,,,,,,,,,,,,,,,
2147,0,0.0,0.42,,,,,,,,,,,,,,,,,,
2149,0,0.01,0.42,,,,,,,,,,,,,,,,,,
2151,0,0.0,0.43,,,,,,,,,,,,,,,,,,
2153,0,0.0,0.43,,-0.07,0.08,1.02,0,-0,-0,0.11,,,,,,,,,,
2155,0,0.0,0.42,,,,,,,,,,,,,,,,,,
2157,0,0.0,0.42,,,,,,,,,,,,,,,,,,
2159,0,0.0,0.42,,,,,,,,,,,,,,,,,,
2161,0,0.0,0.42,,,,,,,,,,,,,,,,,,
2163,0,0.01,0.42,,-0.15,0.08,1.01,-0,-0,-0,0.17,0,2220,0,0.0,0.0,0.0,0.0,0,0,0.0
2165,0,0.0,0.42,,,,,,,,,,,,,,,,,,
2167,0,0.0,0.42,,,,,,,,,,,,,,,,,,
2169,0,0.0,0.42,,,,,,,,,,,,,,,,,,
2171,0,0.0,0.42,,,,,,,,,,,,,,,,,,
2173,0,0.0,0.42,,-0.05,0.05,0.94,0,-1,-0,0.07,,,,,,,,,,
2175,0,0.0,0.42,,,,,,,,,,,,,,,,,,
2177,0,0.0,0.42,,,,,,,,,,,,,,,,,,
2179,0,0.0,0.43,,,,,,,,,,,,,,,,,,
2181,0,0.0,0.43,,,,,,,,,,,,,,,,,,
2183,0,0.0,0.42,,-0.02,0.07,0.96,-0,0,-0,0.07,0,2220,0,0.0,0.0,0.0,0.0,0,0,0.0
2185,0,0.0,0.42,,,,,,,,,,,,,,,,,,
2187,0,0.0,0.42,,,,,,,,,,,,,,,,,,
2189,0,0.0,0.42,,,,,,,,,,,,,,,,,,
2191,0,0.0,0.42,,,,,,,,,,,,,,,,,,
2193,0,0.0,0.42,,-0.18,0.11,1.06,0,-0,-1,0.21,,,,,,,,,,
2195,0,0.0,0.43,,,,,,,,,,,,,,,,,,
2197,0,0.0,0.43,,,,,,,,,,,,,,,,,,
2199,0,0.0,0.42,,,,,,,,,,,,,,,,,,
2201,0,0.0,0.42,,,,,,,,,,,,,,,,,,
2203,0,0.0,0.43,,-0.05,0.06,1.01,0,-1,-1,0.08,0,2220,0,0.0,0.0,0.0,0.0,0,0,0.0
2205,0,0.01,0.44,,,,,,,,,,,,,,,,,,
2207,0,0.0,0.43,,,,,,,,,,,,,,,,,,
2209,0,0.0,0.43,,,,,,,,,,,,,,,,,,
2211,0,0.0,0.42,,,,,,,,,,,,,,,,,,
2213,0,0.0,0.43,,-0.09,0.04,0.93,0,-0,-0,0.1,,,,,,,,,,
2215,0,0.0,0.43,,,,,,,,,,,,,,,,,,
2217,0,0.0,0.43,,,,,,,,,,,,,,,,,,
2219,0,0.0,0.43,,,,,,,,,,,,,,,,,,
2221,0,0.0,0.42,,,,,,,,,,,,,,,,,,
2223,0,0.0,0.43,,-0.11,0.09,1.0,0,-0,-0,0.14,0,2220,0,0.0,0.0,0.0,0.0,0,0,0.0
2225,0,0.01,0.43,,,,,,,,,,,,,,,,,,
2227,0,0.0,0.43,,,,,,,,,,,,,,,,,,
2229,0,0.0,0.43,,,,,,,,,,,,,,,,,,
2231,0,0.0,0.44,,,,,,,,,,,,,,,,,,
2233,0,0.0,0.43,,-0.05,0.08,1.02,0,-0,-0,0.09,,,,,,,,,,
2235,0,0.0,0.43,,,,,,,,,,,,,,,,,,
2237,0,0.0,0.43,,,,,,,,,,,,,,,,,,
2239,0,0.0,0.43,,,,,,,,,,,,,,,,,,
2241,0,0.0,0.43,,,,,,,,,,,,,,,,,,
2243,0,0.0,0.43,,-0.16,0.08,1.0,0,-0,-0,0.18,0,2220,0,0.0,0.0,0.0,0.0,0,0,0.0
2245,0,0.0,0.43,,,,,,,,,,,,,,,,,,
2247,0,0.0,0.43,,,,,,,,,,,,,,,,,,
2249,0,0.0,0.43,,,,,,,,,,,,,,,,,,
2251,0,0.0,0.43,,,,,,,,,,,,,,,,,,
2253,0,0.0,0.43,,-0.04,0.04,0.98,0,-1,-0,0.06,,,,,,,,,,
2255,0,0.0,0.43,,,,,,,,,,,,,,,,,,
2257,0,0.0,0.43,,,,,,,,,,,,,,,,,,
2259,0,0.0,0.44,,,,,,,,,,,,,,,,,,
2261,0,0.0,0.43,,,,,,,,,,,,,,,,,,
2263,0,0.0,0.43,,-0.06,0.06,0.96,0,0,-0,0.08,0,2220,0,0.0,0.0,0.0,0.0,0,0,0.0
2265,0,0.0,0.43,,,,,,,,,,,,,,,,,,
2267,0,0.0,0.43,,,,,,,,,,,,,,,,,,
2269,0,0.0,0.43,,,,,,,,,,,,,,,,,,
2271,0,0.0,0.43,,,,,,,,,,,,,,,,,,
2273,0,0.0,0.43,,-0.18,0.11,1.07,0,-0,-1,0.21,,,,,,,,,,
2275,0,0.0,0.43,,,,,,,,,,,,,,,,,,
2277,0,0.0,0.43,,,,,,,,,,,,,,,,,,
2279,0,0.0,0.43,,,,,,,,,,,,,,,,,,
2281,0,0.0,0.43,,,,,,,,,,,,,,,,,,
2283,0,0.0,0.43,,-0.07,0.06,0.98,0,-1,-0,0.09,0,2220,0,0.0,0.0,0.0,0.0,0,0,0.0
2285,0,0.0,0.44,,,,,,,,,,,,,,,,,,
2287,0,0.01,0.43,,,,,,,,,,,,,,,,,,
2289,0,0.0,0.43,,,,,,,,,,,,,,,,,,
2291,0,0.0,0.43,,,,,,,,,,,,,,,,,,
2293,0,0.0,0.43,,-0.09,0.07,0.93,-0,-1,-0,0.11,,,,,,,,,,
2295,0,0.0,0.43,,,,,,,,,,,,,,,,,,
2297,0,0.0,0.43,,,,,,,,,,,,,,,,,,
2299,0,0.0,0.43,,,,,,,,,,,,,,,,,,
2301,0,0.01,0.43,,,,,,,,,,,,,,,,,,
2303,0,0.0,0.43,,-0.1,0.08,1.0,0,-0,-0,0.13,0,2220,0,0.0,0.0,0.0,0.0,0,0,0.0
2305,0,0.0,0.44,,,,,,,,,,,,,,,,,,
2307,0,0.0,0.44,,,,,,,,,,,,,,,,,,
2309,0,0.0,0.44,,,,,,,,,,,,,,,,,,
2311,0,0.0,0.44,,,,,,,,,,,,,,,,,,
2313,0,0.0,0.44,,-0.06,0.07,1.03,0,0,-0,0.09,,,,,,,,,,
2315,0,0.0,0.44,,,,,,,,,,,,,,,,,,
2317,0,0.0,0.43,,,,,,,,,,,,,,,,,,
2319,0,0.0,0.44,,,,,,,,,,,,,,,,,,
2321,0,0.0,0.44,,,,,,,,,,,,,,,,,,
2323,0,0.0,0.43,,-0.15,0.07,1.0,-0,-0,-0,0.16,0,2220,0,0.0,0.0,0.0,0.0,0,0,0.0
2325,0,0.0,0.43,,,,,,,,,,,,,,,,,,
2327,0,0.0,0.43,,,,,,,,,,,,,,,,,,
2329,0,0.01,0.44,,,,,,,,,,,,,,,,,,
2331,0,0.0,0.43,,,,,,,,,,,,,,,,,,
2333,0,0.0,0.44,,-0.06,0.05,0.95,0,-1,-0,0.08,,,,,,,,,,
2335,0,0.0,0.43,,,,,,,,,,,,,,,,,,
2337,0,0.0,0.44,,,,,,,,,,,,,,,,,,
2339,0,0.0,0.45,,,,,,,,,,,,,,,,,,
2341,0,0.0,0.44,,,,,,,,,,,,,,,,,,
2343,0,0.0,0.44,,-0.02,0.07,0.97,-0,0,-0,0.07,0,2220,0,0.0,0.0,0.0,0.0,0,0,0.0
2345,0,0.0,0.44,,,,,,,,,,,,,,,,,,
2347,0,0.0,0.44,,,,,,,,,,,,,,,,,,
2349,0,0.0,0.44,,,,,,,,,,,,,,,,,,
2351,0,0.0,0.44,,,,,,,,,,,,,,,,,,
2353,0,0.0,0.44,,-0.16,0.12,1.07,0,-0,-0,0.19,,,,,,,,,,
2355,0,0.0,0.44,,,,,,,,,,,,,,,,,,
2357,0,0.0,0.44,,,,,,,,,,,,,,,,,,
2359,0,0.0,0.44,,,,,,,,,,,,,,,,,,
2361,0,0.0,0.44,,,,,,,,,,,,,,,,,,
2363,0,0.01,0.44,,-0.06,0.06,1.0,0,-1,-0,0.09,0,2220,0,0.0,0.0,0.0,0.0,0,0,0.0
2365,0,0.0,0.45,,,,,,,,,,,,,,,,,,
2367,0,0.0,0.44,,,,,,,,,,,,,,,,,,
2369,0,0.0,0.44,,,,,,,,,,,,,,,,,,
2371,0,0.0,0.44,,,,,,,,,,,,,,,,,,
2373,0,0.0,0.44,,-0.1,0.04,0.93,0,-1,-0,0.11,,,,,,,,,,
2375,0,0.0,0.44,,,,,,,,,,,,,,,,,,
2377,0,0.01,0.44,,,,,,,,,,,,,,,,,,
2379,0,0.0,0.44,,,,,,,,,,,,,,,,,,
2381,0,0.0,0.44,,,,,,,,,,,,,,,,,,
2383,0,0.0,0.44,,-0.12,0.1,1.01,0,-0,-0,0.15,0,2220,0,0.0,0.0,0.0,0.0,0,0,0.0
2385,0,0.0,0.44,,,,,,,,,,,,,,,,,,
2387,0,0.0,0.44,,,,,,,,,,,,,,,,,,
2389,0,0.0,0.44,,,,,,,,,,,,,,,,,,
2391,0,0.01,0.44,,,,,,,,,,,,,,,,,,
2393,0,0.0,0.44,,-0.06,0.09,1.03,0,-0,-0,0.11,,,,,,,,,,
2395,0,0.0,0.44,,,,,,,,,,,,,,,,,,
2397,0,0.0,0.44,,,,,,,,,,,,,,,,,,
2399,0,0.0,0.44,,,,,,,,,,,,,,,,,,
2401,0,0.0,0.44,,,,,,,,,,,,,,,,,,
2403,0,0.0,0.44,,-0.16,0.09,0.98,0,-0,-0,0.19,0,2220,0,0.0,0.0,0.0,0.0,0,0,0.0
2405,0,0.0,0.44,,,,,,,,,,,,,,,,,,
2407,0,0.0,0.44,,,,,,,,,,,,,,,,,,
2409,0,0.0,0.44,,,,,,,,,,,,,,,,,,
2411,0,0.01,0.44,,,,,,,,,,,,,,,,,,
2413,0,0.0,0.44,,-0.04,0.05,0.97,0,-1,-0,0.06,,,,,,,,,,
2415,0,0.0,0.44,,,,,,,,,,,,,,,,,,
2417,0,0.0,0.44,,,,,,,,,,,,,,,,,,
2419,0,0.0,0.46,,,,,,,,,,,,,,,,,,
2421,0,0.0,0.44,,,,,,,,,,,,,,,,,,
2423,0,0.0,0.44,,-0.06,0.07,0.97,0,-0,-0,0.1,0,2220,0,0.0,0.0,0.0,0.0,0,0,0.0
2425,0,0.0,0.44,,,,,,,,,,,,,,,,,,
2427,0,0.0,0.44,,,,,,,,,,,,,,,,,,
2429,0,0.0,0.44,,,,,,,,,,,,,,,,,,
2431,0,0.0,0.44,,,,,,,,,,,,,,,,,,
2433,0,0.0,0.44,,-0.17,0.11,1.06,0,-0,-1,0.21,,,,,,,,,,
2435,0,0.0,0.44,,,,,,,,,,,,,,,,,,
2437,0,0.0,0.44,,,,,,,,,,,,,,,,,,
2439,0,0.01,0.44,,,,,,,,,,,,,,,,,,
2441,0,0.0,0.44,,,,,,,,,,,,,,,,,,
2443,0,0.0,0.45,,-0.06,0.05,0.97,0,-1,-0,0.08,0,2220,0,0.0,0.0,0.0,0.0,0,0,0.0
2445,0,0.0,0.46,,,,,,,,,,,,,,,,,,
2447,0,0.0,0.45,,,,,,,,,,,,,,,,,,
2449,0,0.0,0.45,,,,,,,,,,,,,,,,,,
2451,0,0.0,0.45,,,,,,,,,,,,,,,,,,
2453,0,0.0,0.45,,-0.07,0.07,0.94,-0,-1,-0,0.09,,,,,,,,,,
2455,0,0.0,0.45,,,,,,,,,,,,,,,,,,
2457,0,0.0,0.45,,,,,,,,,,,,,,,,,,
2459,0,0.0,0.45,,,,,,,,,,,,,,,,,,
2461,0,0.0,0.45,,,,,,,,,,,,,,,,,,
2463,0,0.0,0.45,,-0.09,0.08,1.02,0,-0,-0,0.12,0,2220,0,0.0,0.0,0.0,0.0,0,0,0.0
2465,0,0.0,0.44,,,,,,,,,,,,,,,,,,
2467,0,0.0,0.44,,,,,,,,,,,,,,,,,,
2469,0,0.0,0.44,,,,,,,,,,,,,,,,,,
2471,0,0.0,0.45,,,,,,,,,,,,,,,,,,
2473,0,0.0,0.45,,-0.05,0.08,1.02,0,-0,-0,0.09,,,,,,,,,,
2475,0,0.0,0.45,,,,,,,,,,,,,,,,,,
2477,0,0.0,0.45,,,,,,,,,,,,,,,,,,
2479,0,0.0,0.45,,,,,,,,,,,,,,,,,,
2481,0,0.0,0.45,,,,,,,,,,,,,,,,,,
2483,0,0.0,0.45,,-0.13,0.06,1.0,-0,-0,-0,0.15,0,2220,0,0.0,0.0,0.0,0.0,0,0,0.0
2485,0,0.0,0.45,,,,,,,,,,,,,,,,,,
2487,0,0.0,0.45,,,,,,,,,,,,,,,,,,
2489,0,0.0,0.45,,,,,,,,,,,,,,,,,,
2491,0,0.0,0.45,,,,,,,,,,,,,,,,,,
2493,0,0.0,0.45,,-0.05,0.04,0.95,0,-1,-0,0.07,,,,,,,,,,
2495,0,0.0,0.45,,,,,,,,,,,,,,,,,,
2497,0,0.0,0.45,,,,,,,,,,,,,,,,,,
2499,0,0.0,0.46,,,,,,,,,,,,,,,,,,
2501,0,0.01,0.45,,,,,,,,,,,,,,,,,,
2503,0,0.0,0.45,,-0.02,0.07,0.97,-0,0,0,0.07,0,2220,0,0.0,0.0,0.0,0.0,0,0,0.0
2505,0,0.0,0.45,,,,,,,,,,,,,,,,,,
2507,0,0.0,0.45,,,,,,,,,,,,,,,,,,
2509,0,0.0,0.45,,,,,,,,,,,,,,,,,,
2511,0,0.0,0.45,,,,,,,,,,,,,,,,,,
2513,0,0.0,0.45,,-0.17,0.11,1.08,0,0,-0,0.2,,,,,,,,,,
2515,0,0.01,0.45,,,,,,,,,,,,,,,,,,
2517,0,0.0,0.45,,,,,,,,,,,,,,,,,,
2519,0,0.0,0.45,,,,,,,,,,,,,,,,,,
2521,0,0.0,0.45,,,,,,,,,,,,,,,,,,
2523,0,0.0,0.45,,-0.04,0.06,0.98,0,-1,-0,0.08,0,2220,0,0.0,0.0,0.0,0.0,0,0,0.0
2525,0,0.0,0.46,,,,,,,,,,,,,,,,,,
2527,0,0.0,0.45,,,,,,,,,,,,,,,,,,
2529,0,0.01,0.45,,,,,,,,,,,,,,,,,,
2531,0,0.0,0.45,,,,,,,,,,,,,,,,,,
2533,0,0.0,0.45,,-0.09,0.05,0.94,-0,-0,-0,0.1,,,,,,,,,,
2535,0,0.0,0.45,,,,,,,,,,,,,,,,,,
2537,0,0.0,0.45,,,,,,,,,,,,,,,,,,
2539,0,0.0,0.45,,,,,,,,,,,,,,,,,,
2541,0,0.0,0.45,,,,,,,,,,,,,,,,,,
2543,0,0.0,0.45,,-0.12,0.1,1.01,0,-0,-0,0.16,0,2220,0,0.0,0.0,0.0,0.0,0,0,0.0
2545,0,0.0,0.45,,,,,,,,,,,,,,,,,,
2547,0,0.0,0.45,,,,,,,,,,,,,,,,,,
2549,0,0.0,0.45,,,,,,,,,,,,,,,,,,
2551,0,0.0,0.45,,,,,,,,,,,,,,,,,,
2553,0,0.0,0.46,,-0.05,0.09,1.02,0,-0,-0,0.11,,,,,,,,,,
2555,0,0.0,0.45,,,,,,,,,,,,,,,,,,
2557,0,0.0,0.45,,,,,,,,,,,,,,,,,,
2559,0,0.0,0.45,,,,,,,,,,,,,,,,,,
2561,0,0.0,0.45,,,,,,,,,,,,,,,,,,
2563,0,0.0,0.45,,-0.15,0.1,1.0,-0,-0,-0,0.18,0,2220,0,0.0,0.0,0.0,0.0,0,0,0.0
2565,0,0.0,0.45,,,,,,,,,,,,,,,,,,
2567,0,0.0,0.45,,,,,,,,,,,,,,,,,,
2569,0,0.0,0.45,,,,,,,,,,,,,,,,,,
2571,0,0.0,0.45,,,,,,,,,,,,,,,,,,
2573,0,0.0,0.45,,-0.05,0.06,0.99,0,-1,-0,0.08,,,,,,,,,,
2575,0,0.0,0.45,,,,,,,,,,,,,,,,,,
2577,0,0.01,0.45,,,,,,,,,,,,,,,,,,
2579,0,0.0,0.47,,,,,,,,,,,,,,,,,,
2581,0,0.0,0.46,,,,,,,,,,,,,,,,,,
2583,0,0.0,0.45,,-0.05,0.07,0.96,-0,0,-0,0.09,0,2220,0,0.0,0.0,0.0,0.0,0,0,0.0
2585,0,0.0,0.46,,,,,,,,,,,,,,,,,,
2587,0,0.0,0.45,,,,,,,,,,,,,,,,,,
2589,0,0.0,0.46,,,,,,,,,,,,,,,,,,
2591,0,0.0,0.46,,,,,,,,,,,,,,,,,,
2593,0,0.0,0.45,,-0.17,0.12,1.06,-0,0,-1,0.21,,,,,,,,,,
2595,0,0.0,0.46,,,,,,,,,,,,,,,,,,
2597,0,0.0,0.45,,,,,,,,,,,,,,,,,,
2599,0,0.0,0.46,,,,,,,,,,,,,,,,,,
2601,0,0.0,0.46,,,,,,,,,,,,,,,,,,
2603,0,0.0,0.46,,-0.08,0.06,0.97,0,-1,-0,0.1,0,2220,0,0.0,0.0,0.0,0.0,0,0,0.0
2605,0,0.01,0.47,,,,,,,,,,,,,,,,,,
2607,0,0.0,0.46,,,,,,,,,,,,,,,,,,
2609,0,0.0,0.46,,,,,,,,,,,,,,,,,,
2611,0,0.0,0.46,,,,,,,,,,,,,,,,,,
2613,0,0.0,0.46,,-0.08,0.07,0.93,-0,-1,-0,0.1,,,,,,,,,,
2615,0,0.0,0.46,,,,,,,,,,,,,,,,,,
2617,0,0.0,0.46,,,,,,,,,,,,,,,,,,
2619,0,0.0,0.46,,,,,,,,,,,,,,,,,,
2621,0,0.0,0.46,,,,,,,,,,,,,,,,,,
2623,0,0.0,0.46,,-0.1,0.08,1.02,0,-0,-0,0.13,0,2220,0,0.0,0.0,0.0,0.0,0,0,0.0
2625,0,0.0,0.46,,,,,,,,,,,,,,,,,,
2627,0,0.0,0.46,,,,,,,,,,,,,,,,,,
2629,0,0.0,0.46,,,,,,,,,,,,,,,,,,
2631,0,0.0,0.46,,,,,,,,,,,,,,,,,,
2633,0,0.0,0.46,,-0.06,0.07,1.02,0,-0,-0,0.1,,,,,,,,,,
2635,0,0.0,0.46,,,,,,,,,,,,,,,,,,
2637,0,0.0,0.46,,,,,,,,,,,,,,,,,,
2639,0,0.0,0.46,,,,,,,,,,,,,,,,,,
2641,0,0.0,0.46,,,,,,,,,,,,,,,,,,
2643,0,0.0,0.46,,-0.14,0.06,1.01,-0,-0,-0,0.15,0,2220,0,0.0,0.0,0.0,0.0,0,0,0.0
2645,0,0.0,0.46,,,,,,,,,,,,,,,,,,
2647,0,0.0,0.46,,,,,,,,,,,,,,,,,,
2649,0,0.0,0.46,,,,,,,,,,,,,,,,,,
2651,0,0.0,0.46,,,,,,,,,,,,,,,,,,
2653,0,0.01,0.46,,-0.06,0.05,0.96,0,-1,-0,0.08,,,,,,,,,,
2655,0,0.0,0.46,,,,,,,,,,,,,,,,,,
2657,0,0.0,0.46,,,,,,,,,,,,,,,,,,
2659,0,0.0,0.47,,,,,,,,,,,,,,,,,,
2661,0,0.0,0.46,,,,,,,,,,,,,,,,,,
2663,0,0.0,0.46,,-0.02,0.07,0.98,0,0,-0,0.07,0,2220,0,0.0,0.0,0.0,0.0,0,0,0.0
2665,0,0.0,0.46,,,,,,,,,,,,,,,,,,
2667,0,0.01,0.46,,,,,,,,,,,,,,,,,,
2669,0,0.0,0.46,,,,,,,,,,,,,,,,,,
2671,0,0.0,0.46,,,,,,,,,,,,,,,,,,
2673,0,0.0,0.46,,-0.18,0.11,1.07,0,0,-1,0.21,,,,,,,,,,
2675,0,0.0,0.46,,,,,,,,,,,,,,,,,,
2677,0,0.0,0.46,,,,,,,,,,,,,,,,,,
2679,0,0.0,0.46,,,,,,,,,,,,,,,,,,
2681,0,0.0,0.46,,,,,,,,,,,,,,,,,,
2683,0,0.0,0.46,,-0.05,0.06,0.99,0,-1,-0,0.07,0,2220,0,0.0,0.0,0.0,0.0,0,0,0.0
2685,0,0.0,0.47,,,,,,,,,,,,,,,,,,
2687,0,0.01,0.47,,,,,,,,,,,,,,,,,,
2689,0,0.0,0.46,,,,,,,,,,,,,,,,,,
2691,0,0.0,0.47,,,,,,,,,,,,,,,,,,
2693,0,0.0,0.46,,-0.09,0.05,0.94,0,-0,-0,0.1,,,,,,,,,,
2695,0,0.0,0.46,,,,,,,,,,,,,,,,,,
2697,0,0.0,0.46,,,,,,,,,,,,,,,,,,
2699,0,0.0,0.46,,,,,,,,,,,,,,,,,,
2701,0,0.0,0.46,,,,,,,,,,,,,,,,,,
2703,0,0.0,0.46,,-0.13,0.1,1.01,0,-0,-0,0.16,0,2220,0,0.0,0.0,0.0,0.0,0,0,0.0
2705,0,0.0,0.47,,,,,,,,,,,,,,,,,,
2707,0,0.0,0.46,,,,,,,,,,,,,,,,,,
2709,0,0.0,0.47,,,,,,,,,,,,,,,,,,
2711,0,0.0,0.47,,,,,,,,,,,,,,,,,,
2713,0,0.0,0.48,,-0.04,0.07,1.0,0,-0,-0,0.08,,,,,,,,,,
2715,0,0.0,0.47,,,,,,,,,,,,,,,,,,
2717,0,0.0,0.47,,,,,,,,,,,,,,,,,,
2719,0,0.0,0.47,,,,,,,,,,,,,,,,,,
2721,0,0.0,0.47,,,,,,,,,,,,,,,,,,
2723,0,0.0,0.47,,-0.15,0.07,0.98,0,-0,-0,0.16,0,2220,0,0.0,0.0,0.0,0.0,0,0,0.0
2725,0,0.0,0.46,,,,,,,,,,,,,,,,,,
2727,0,0.0,0.46,,,,,,,,,,,,,,,,,,
2729,0,0.0,0.46,,,,,,,,,,,,,,,,,,
2731,0,0.0,0.46,,,,,,,,,,,,,,,,,,
2733,0,0.0,0.47,,-0.05,0.04,1.0,0,-1,-0,0.06,,,,,,,,,,
2735,0,0.0,0.47,,,,,,,,,,,,,,,,,,
2737,0,0.0,0.47,,,,,,,,,,,,,,,,,,
2739,0,0.0,0.48,,,,,,,,,,,,,,,,,,
2741,0,0.0,0.47,,,,,,,,,,,,,,,,,,
2743,0,0.0,0.47,,-0.05,0.06,0.97,0,0,0,0.07,0,2220,0,0.0,0.0,0.0,0.0,0,0,0.0
2745,0,0.0,0.47,,,,,,,,,,,,,,,,,,
2747,0,0.0,0.47,,,,,,,,,,,,,,,,,,
2749,0,0.0,0.47,,,,,,,,,,,,,,,,,,
2751,0,0.0,0.47,,,,,,,,,,,,,,,,,,
2753,0,0.0,0.47,,-0.17,0.1,1.06,0,-0,-0,0.2,,,,,,,,,,
2755,0,0.0,0.47,,,,,,,,,,,,,,,,,,
2757,0,0.0,0.47,,,,,,,,,,,,,,,,,,
2759,0,0.0,0.47,,,,,,,,,,,,,,,,,,
2761,0,0.0,0.47,,,,,,,,,,,,,,,,,,
2763,0,0.0,0.47,,-0.07,0.03,0.97,0,-1,-0,0.08,0,2220,0,0.0,0.0,0.0,0.0,0,0,0.0
2765,0,0.0,0.47,,,,,,,,,,,,,,,,,,
2767,0,0.0,0.48,,,,,,,,,,,,,,,,,,
2769,0,0.0,0.47,,,,,,,,,,,,,,,,,,
2771,0,0.0,0.47,,,,,,,,,,,,,,,,,,
2773,0,0.0,0.47,,-0.06,0.06,0.94,-0,-1,-0,0.08,,,,,,,,,,
2775,0,0.0,0.47,,,,,,,,,,,,,,,,,,
2777,0,0.0,0.47,,,,,,,,,,,,,,,,,,
2779,0,0.0,0.47,,,,,,,,,,,,,,,,,,
2781,0,0.0,0.47,,,,,,,,,,,,,,,,,,
2783,0,0.0,0.47,,-0.12,0.08,1.04,0,-0,-0,0.15,0,2220,0,0.0,0.0,0.0,0.0,0,0,0.0
2785,0,0.0,0.47,,,,,,,,,,,,,,,,,,
2787,0,0.0,0.47,,,,,,,,,,,,,,,,,,
2789,0,0.0,0.47,,,,,,,,,,,,,,,,,,
2791,0,0.01,0.47,,,,,,,,,,,,,,,,,,
2793,0,0.0,0.48,,-0.05,0.07,1.02,0,-0,-0,0.08,,,,,,,,,,
2795,0,0.0,0.47,,,,,,,,,,,,,,,,,,
2797,0,0.0,0.47,,,,,,,,,,,,,,,,,,
2799,0,0.0,0.47,,,,,,,,,,,,,,,,,,
2801,0,0.0,0.47,,,,,,,,,,,,,,,,,,
2803,0,0.0,0.47,,-0.11,0.06,0.98,-0,-0,-0,0.13,0,2220,0,0.0,0.0,0.0,0.0,0,0,0.0
2805,0,0.0,0.47,,,,,,,,,,,,,,,,,,
2807,0,0.0,0.47,,,,,,,,,,,,,,,,,,
2809,0,0.0,0.47,,,,,,,,,,,,,,,,,,
2811,0,0.0,0.47,,,,,,,,,,,,,,,,,,
2813,0,0.0,0.47,,-0.07,0.06,0.97,0,-1,-0,0.1,,,,,,,,,,
2815,0,0.0,0.47,,,,,,,,,,,,,,,,,,
2817,0,0.0,0.47,,,,,,,,,,,,,,,,,,
2819,0,0.0,0.47,,,,,,,,,,,,,,,,,,
2821,0,0.0,0.47,,,,,,,,,,,,,,,,,,
2823,0,0.0,0.47,,-0.02,0.09,1.01,0,0,-0,0.09,0,2160,0,0.0,0.0,0.0,0.0,0,0,0.0
2825,0,0.01,0.47,,,,,,,,,,,,,,,,,,
2827,0,0.0,0.47,,,,,,,,,,,,,,,,,,
2829,0,0.0,0.47,,,,,,,,,,,,,,,,,,
2831,0,0.0,0.47,,,,,,,,,,,,,,,,,,
2833,0,0.0,0.47,,-0.18,0.11,1.05,0,0,-0,0.21,,,,,,,,,,
2835,0,0.0,0.47,,,,,,,,,,,,,,,,,,
2837,0,0.0,0.47,,,,,,,,,,,,,,,,,,
2839,0,0.0,0.47,,,,,,,,,,,,,,,,,,
2841,0,0.0,0.47,,,,,,,,,,,,,,,,,,
2843,0,0.0,0.47,,-0.05,0.07,0.98,0,-1,-0,0.08,0,2160,0,0.0,0.0,0.0,0.0,0,0,0.0
2845,0,0.0,0.47,,,,,,,,,,,,,,,,,,
2847,0,0.0,0.48,,,,,,,,,,,,,,,,,,
2849,0,0.0,0.47,,,,,,,,,,,,,,,,,,
2851,0,0.0,0.47,,,,,,,,,,,,,,,,,,
2853,0,0.0,0.47,,-0.08,0.07,0.95,-0,-0,-0,0.1,,,,,,,,,,
2855,0,0.0,0.47,,,,,,,,,,,,,,,,,,
2857,0,0.0,0.48,,,,,,,,,,,,,,,,,,
2859,0,0.0,0.47,,,,,,,,,,,,,,,,,,
2861,0,0.0,0.47,,,,,,,,,,,,,,,,,,
2863,0,0.0,0.47,,-0.17,0.12,1.04,0,-0,-0,0.2,0,2220,0,0.0,0.0,0.0,0.0,0,0,0.0
2865,0,0.0,0.47,,,,,,,,,,,,,,,,,,
2867,0,0.0,0.47,,,,,,,,,,,,,,,,,,
2869,0,0.0,0.47,,,,,,,,,,,,,,,,,,
2871,0,0.0,0.47,,,,,,,,,,,,,,,,,,
2873,0,0.0,0.47,,-0.06,0.08,0.96,-0,-1,-0,0.1,,,,,,,,,,
2875,0,0.0,0.48,,,,,,,,,,,,,,,,,,
2877,0,0.0,0.48,,,,,,,,,,,,,,,,,,
2879,0,0.01,0.47,,,,,,,,,,,,,,,,,,
2881,0,0.0,0.48,,,,,,,,,,,,,,,,,,
2883,0,0.0,0.48,,-0.12,0.09,0.97,-0,-1,-0,0.14,0,2160,0,0.0,0.0,0.0,0.0,0,0,0.0
2885,0,0.0,0.48,,,,,,,,,,,,,,,,,,
2887,0,0.0,0.47,,,,,,,,,,,,,,,,,,
2889,0,0.0,0.47,,,,,,,,,,,,,,,,,,
2891,0,0.0,0.48,,,,,,,,,,,,,,,,,,
2893,0,0.0,0.47,,-0.09,0.08,1.0,0,-1,-0,0.12,,,,,,,,,,
2895,0,0.0,0.48,,,,,,,,,,,,,,,,,,
2897,0,0.0,0.48,,,,,,,,,,,,,,,,,,
2899,0,0.0,0.48,,,,,,,,,,,,,,,,,,
2901,0,0.01,0.49,,,,,,,,,,,,,,,,,,
2903,0,0.0,0.48,,-0.05,0.08,1.01,0,0,-0,0.09,0,2220,0,0.0,0.0,0.0,0.0,0,0,0.0
2905,0,0.0,0.48,,,,,,,,,,,,,,,,,,
2907,0,0.0,0.48,,,,,,,,,,,,,,,,,,
2909,0,0.0,0.48,,,,,,,,,,,,,,,,,,
2911,0,0.0,0.48,,,,,,,,,,,,,,,,,,
2913,0,0.0,0.48,,-0.15,0.1,1.03,0,-0,-0,0.17,,,,,,,,,,
2915,0,0.01,0.48,,,,,,,,,,,,,,,,,,
2917,0,0.0,0.48,,,,,,,,,,,,,,,,,,
2919,0,0.0,0.48,,,,,,,,,,,,,,,,,,
2921,0,0.0,0.48,,,,,,,,,,,,,,,,,,
2923,0,0.0,0.48,,-0.07,0.05,0.95,0,-1,-0,0.09,0,2220,0,0.0,0.0,0.0,0.0,0,0,0.0
2925,0,0.0,0.48,,,,,,,,,,,,,,,,,,
2927,0,0.0,0.48,,,,,,,,,,,,,,,,,,
2929,0,0.01,0.49,,,,,,,,,,,,,,,,,,
2931,0,0.0,0.48,,,,,,,,,,,,,,,,,,
2933,0,0.0,0.48,,-0.03,0.08,0.97,0,0,-0,0.09,,,,,,,,,,
2935,0,0.0,0.48,,,,,,,,,,,,,,,,,,
2937,0,0.0,0.48,,,,,,,,,,,,,,,,,,
2939,0,0.0,0.48,,,,,,,,,,,,,,,,,,
2941,0,0.0,0.48,,,,,,,,,,,,,,,,,,
2943,0,0.0,0.48,,-0.15,0.12,1.05,0,0,-1,0.19,0,2160,0,0.0,0.0,0.0,0.0,0,0,0.0
2945,0,0.0,0.47,,,,,,,,,,,,,,,,,,
2947,0,0.0,0.48,,,,,,,,,,,,,,,,,,
2949,0,0.0,0.48,,,,,,,,,,,,,,,,,,
2951,0,0.0,0.48,,,,,,,,,,,,,,,,,,
2953,0,0.0,0.48,,-0.04,0.06,0.99,0,-1,-0,0.07,,,,,,,,,,
2955,0,0.0,0.49,,,,,,,,,,,,,,,,,,
2957,0,0.0,0.48,,,,,,,,,,,,,,,,,,
2959,0,0.0,0.48,,,,,,,,,,,,,,,,,,
2961,0,0.0,0.48,,,,,,,,,,,,,,,,,,
2963,0,0.0,0.48,,-0.1,0.06,0.95,0,-0,-0,0.11,0,2220,0,0.0,0.0,0.0,0.0,0,0,0.0
2965,0,0.0,0.48,,,,,,,,,,,,,,,,,,
2967,0,0.0,0.48,,,,,,,,,,,,,,,,,,
2969,0,0.0,0.48,,,,,,,,,,,,,,,,,,
2971,0,0.0,0.48,,,,,,,,,,,,,,,,,,
2973,0,0.0,0.48,,-0.12,0.1,1.02,0,-0,-0,0.16,,,,,,,,,,
2975,0,0.0,0.48,,,,,,,,,,,,,,,,,,
2977,0,0.0,0.48,,,,,,,,,,,,,,,,,,
2979,0,0.0,0.48,,,,,,,,,,,,,,,,,,
2981,0,0.0,0.48,,,,,,,,,,,,,,,,,,
2983,0,0.0,0.49,,-0.03,0.08,0.99,0,0,-0,0.08,0,2160,0,0.0,0.0,0.0,0.0,0,0,0.0
2985,0,0.0,0.48,,,,,,,,,,,,,,,,,,
2987,0,0.0,0.48,,,,,,,,,,,,,,,,,,
2989,0,0.0,0.48,,,,,,,,,,,,,,,,,,
2991,0,0.01,0.48,,,,,,,,,,,,,,,,,,
2993,0,0.0,0.48,,-0.16,0.08,1.0,-0,-0,-0,0.18,,,,,,,,,,
2995,0,0.0,0.49,,,,,,,,,,,,,,,,,,
2997,0,0.0,0.48,,,,,,,,,,,,,,,,,,
2999,0,0.0,0.48,,,,,,,,,,,,,,,,,,
3001,0,0.0,0.48,,,,,,,,,,,,,,,,,,
3003,0,0.0,0.49,,-0.05,0.05,1.0,0,-1,-0,0.07,0,2160,0,0.0,0.0,0.0,0.0,0,0,0.0
3005,0,0.01,0.49,,,,,,,,,,,,,,,,,,
3007,0,0.0,0.48,,,,,,,,,,,,,,,,,,
3009,0,0.0,0.5,,,,,,,,,,,,,,,,,,
3011,0,0.0,0.49,,,,,,,,,,,,,,,,,,
3013,0,0.0,0.48,,-0.06,0.05,0.97,-0,0,-0,0.08,,,,,,,,,,
3015,0,0.0,0.48,,,,,,,,,,,,,,,,,,
3017,0,0.0,0.49,,,,,,,,,,,,,,,,,,
3019,0,0.0,0.49,,,,,,,,,,,,,,,,,,
3021,0,0.0,0.48,,,,,,,,,,,,,,,,,,
3023,0,0.0,0.48,,-0.2,0.12,1.05,-0,-0,-1,0.23,0,2220,0,0.0,0.0,0.0,0.0,0,0,0.0
3025,0,0.01,0.48,,,,,,,,,,,,,,,,,,
3027,0,0.0,0.48,,,,,,,,,,,,,,,,,,
3029,0,0.0,0.49,,,,,,,,,,,,,,,,,,
3031,0,0.0,0.48,,,,,,,,,,,,,,,,,,
3033,0,0.0,0.49,,-0.09,0.04,0.96,0,-1,-0,0.09,,,,,,,,,,
3035,0,0.0,0.49,,,,,,,,,,,,,,,,,,
3037,0,0.0,0.49,,,,,,,,,,,,,,,,,,
3039,0,0.01,0.49,,,,,,,,,,,,,,,,,,
3041,0,0.0,0.48,,,,,,,,,,,,,,,,,,
3043,0,0.0,0.49,13.41,-0.09,0.04,0.94,-0,-1,-0,0.1,0,2220,0,0.0,0.0,0.0,0.0,0,0,0.0
3045,0,0.0,0.49,,,,,,,,,,,,,,,,,,
3047,0,0.0,0.49,,,,,,,,,,,,,,,,,,
3049,0,0.0,0.49,,,,,,,,,,,,,,,,,,
3051,0,0.0,0.48,,,,,,,,,,,,,,,,,,
3053,0,0.01,0.49,,-0.14,0.08,1.02,0,-0,-0,0.16,,,,,,,,,,
3055,0,0.0,0.49,,,,,,,,,,,,,,,,,,
3057,0,0.0,0.49,,,,,,,,,,,,,,,,,,
3059,0,0.0,0.49,,,,,,,,,,,,,,,,,,
3061,0,0.0,0.49,,,,,,,,,,,,,,,,,,
3063,0,0.0,0.5,,-0.07,0.07,1.03,0,-0,-0,0.1,0,2220,0,0.0,0.0,0.0,0.0,0,0,0.0
3065,0,0.0,0.49,,,,,,,,,,,,,,,,,,
3067,0,0.0,0.49,,,,,,,,,,,,,,,,,,
3069,0,0.0,0.49,,,,,,,,,,,,,,,,,,
3071,0,0.0,0.49,,,,,,,,,,,,,,,,,,
3073,0,0.0,0.49,,-0.14,0.06,0.99,-0,-1,-0,0.15,,,,,,,,,,
3075,0,0.0,0.49,,,,,,,,,,,,,,,,,,
3077,0,0.0,0.49,,,,,,,,,,,,,,,,,,
3079,0,0.0,0.48,,,,,,,,,,,,,,,,,,
3081,0,0.0,0.49,,,,,,,,,,,,,,,,,,
3083,0,0.0,0.49,,-0.09,0.05,0.98,0,-1,-0,0.1,0,2220,0,0.0,0.0,0.0,0.0,0,0,0.0
3085,0,0.0,0.49,,,,,,,,,,,,,,,,,,
3087,0,0.01,0.49,,,,,,,,,,,,,,,,,,
3089,0,0.0,0.49,,,,,,,,,,,,,,,,,,
3091,0,0.0,0.5,,,,,,,,,,,,,,,,,,
3093,0,0.0,0.49,,-0.02,0.09,0.98,0,0,-0,0.09,,,,,,,,,,
3095,0,0.0,0.49,,,,,,,,,,,,,,,,,,
3097,0,0.0,0.49,,,,,,,,,,,,,,,,,,
3099,0,0.0,0.49,,,,,,,,,,,,,,,,,,
