"Interval"|"ms"|0|0|1,"Utc"|"ms"|0|0|1,"Analog4"|"Volts"|0.0|5.0|500,"Analog5"|"Volts"|0.0|5.0|500,"Battery"|"Volts"|0.0|20.0|1,"AccelX"|"G"|-3.0|3.0|200,"AccelY"|"G"|-3.0|3.0|200,"AccelZ"|"G"|-3.0|3.0|200,"Yaw"|"Deg/Sec"|-120|120|200,"Pitch"|"Deg/Sec"|-120|120|200,"Roll"|"Deg/Sec"|-120|120|200,"Gsum"|"G"|0.0|3.0|200,"RPM2"|"rpm"|0|8000|50,"RPM3"|"rpm"|0|8000|50,"GPIO1"|""|0.0|1.0|50,"Latitude"|"Degrees"|-180.0|180.0|50,"Longitude"|"Degrees"|-180.0|180.0|50,"Speed"|"mph"|0.0|150.0|50,"Altitude"|"ft"|0.0|4000.0|50,"GPSSats"|""|0|20|50,"GPSQual"|""|0|5|50,"GPSDOP"|""|0.0|20.0|50
107,0,0.0,0.25,,,,,,,,,,,,,,,,,,
109,0,0.0,0.25,,,,,,,,,,,,,,,,,,
111,0,0.0,0.25,,,,,,,,,,,,,,,,,,
113,0,0.0,0.25,,0.01,0.05,1.01,1,0,-1,0.05,,,,,,,,,,
115,0,0.0,0.25,,,,,,,,,,,,,,,,,,
117,0,0.0,0.25,,,,,,,,,,,,,,,,,,
119,0,0.0,0.26,,,,,,,,,,,,,,,,,,
121,0,0.0,0.26,,,,,,,,,,,,,,,,,,
123,0,0.0,0.26,,0.07,0.02,0.96,-0,-0,-0,0.08,0,2040,0,0.0,0.0,0.0,0.0,0,0,0.0
125,0,0.0,0.27,,,,,,,,,,,,,,,,,,
127,0,0.0,0.26,,,,,,,,,,,,,,,,,,
129,0,0.0,0.26,,,,,,,,,,,,,,,,,,
131,0,0.0,0.26,,,,,,,,,,,,,,,,,,
133,0,0.0,0.26,,-0.12,0.06,0.92,0,0,-0,0.14,,,,,,,,,,
135,0,0.0,0.26,,,,,,,,,,,,,,,,,,
137,0,0.0,0.26,,,,,,,,,,,,,,,,,,
139,0,0.0,0.26,,,,,,,,,,,,,,,,,,
141,0,0.0,0.26,,,,,,,,,,,,,,,,,,
143,0,0.0,0.26,,-0.07,0.09,0.99,0,-0,-0,0.12,0,2100,0,0.0,0.0,0.0,0.0,0,0,0.0
145,0,0.0,0.26,,,,,,,,,,,,,,,,,,
147,0,0.0,0.26,,,,,,,,,,,,,,,,,,
149,0,0.0,0.26,,,,,,,,,,,,,,,,,,
151,0,0.0,0.26,,,,,,,,,,,,,,,,,,
153,0,0.0,0.27,,-0.04,0.11,1.04,-0,-0,-0,0.11,,,,,,,,,,
155,0,0.0,0.26,,,,,,,,,,,,,,,,,,
157,0,0.0,0.26,,,,,,,,,,,,,,,,,,
159,0,0.0,0.26,,,,,,,,,,,,,,,,,,
161,0,0.0,0.26,,,,,,,,,,,,,,,,,,
163,0,0.0,0.26,,-0.24,0.07,0.93,0,-0,-0,0.25,0,2100,0,0.0,0.0,0.0,0.0,0,0,0.0
165,0,0.0,0.26,,,,,,,,,,,,,,,,,,
167,0,0.0,0.26,,,,,,,,,,,,,,,,,,
169,0,0.0,0.26,,,,,,,,,,,,,,,,,,
171,0,0.0,0.26,,,,,,,,,,,,,,,,,,
173,0,0.0,0.26,,0.03,0.04,1.0,0,-0,-0,0.05,,,,,,,,,,
175,0,0.0,0.26,,,,,,,,,,,,,,,,,,
177,0,0.0,0.26,,,,,,,,,,,,,,,,,,
179,0,0.0,0.27,,,,,,,,,,,,,,,,,,
181,0,0.0,0.27,,,,,,,,,,,,,,,,,,
183,0,0.0,0.26,,-0.07,0.07,0.99,-0,0,0,0.1,0,2100,0,0.0,0.0,0.0,0.0,0,0,0.0
185,0,0.0,0.26,,,,,,,,,,,,,,,,,,
187,0,0.0,0.26,,,,,,,,,,,,,,,,,,
189,0,0.0,0.26,,,,,,,,,,,,,,,,,,
191,0,0.0,0.26,,,,,,,,,,,,,,,,,,
193,0,0.0,0.26,,-0.18,0.1,0.95,0,-1,-0,0.21,,,,,,,,,,
195,0,0.0,0.26,,,,,,,,,,,,,,,,,,
197,0,0.0,0.26,,,,,,,,,,,,,,,,,,
199,0,0.0,0.26,,,,,,,,,,,,,,,,,,
201,0,0.0,0.27,,,,,,,,,,,,,,,,,,
203,0,0.0,0.27,,0.03,0.06,0.87,0,-1,-0,0.06,0,2100,0,0.0,0.0,0.0,0.0,0,0,0.0
205,0,0.0,0.27,,,,,,,,,,,,,,,,,,
207,0,0.0,0.27,,,,,,,,,,,,,,,,,,
209,0,0.0,0.27,,,,,,,,,,,,,,,,,,
211,0,0.0,0.27,,,,,,,,,,,,,,,,,,
213,0,0.0,0.27,,-0.06,0.12,1.01,-0,0,-0,0.14,,,,,,,,,,
215,0,0.0,0.27,,,,,,,,,,,,,,,,,,
217,0,0.0,0.27,,,,,,,,,,,,,,,,,,
219,0,0.0,0.27,,,,,,,,,,,,,,,,,,
221,0,0.0,0.27,,,,,,,,,,,,,,,,,,
223,0,0.0,0.27,,-0.2,0.09,1.04,0,-1,-0,0.22,0,2100,0,0.0,0.0,0.0,0.0,0,0,0.0
225,0,0.0,0.27,,,,,,,,,,,,,,,,,,
227,0,0.0,0.27,,,,,,,,,,,,,,,,,,
229,0,0.0,0.27,,,,,,,,,,,,,,,,,,
231,0,0.0,0.27,,,,,,,,,,,,,,,,,,
233,0,0.0,0.27,,0.08,0.01,0.97,0,-1,-0,0.08,,,,,,,,,,
235,0,0.0,0.27,,,,,,,,,,,,,,,,,,
237,0,0.0,0.29,,,,,,,,,,,,,,,,,,
239,0,0.0,0.28,,,,,,,,,,,,,,,,,,
241,0,0.0,0.27,,,,,,,,,,,,,,,,,,
243,0,0.0,0.27,,-0.16,0.07,0.98,-0,0,0,0.17,0,2160,0,0.0,0.0,0.0,0.0,0,0,0.0
245,0,0.0,0.27,,,,,,,,,,,,,,,,,,
247,0,0.0,0.27,,,,,,,,,,,,,,,,,,
249,0,0.0,0.27,,,,,,,,,,,,,,,,,,
251,0,0.0,0.27,,,,,,,,,,,,,,,,,,
253,0,0.0,0.27,,-0.16,0.1,1.1,1,-1,-0,0.19,,,,,,,,,,
255,0,0.0,0.27,,,,,,,,,,,,,,,,,,
257,0,0.0,0.27,,,,,,,,,,,,,,,,,,
259,0,0.0,0.28,,,,,,,,,,,,,,,,,,
261,0,0.0,0.28,,,,,,,,,,,,,,,,,,
263,0,0.0,0.28,,0.02,0.07,0.98,-0,-1,-0,0.08,0,2160,0,0.0,0.0,0.0,0.0,0,0,0.0
265,0,0.0,0.28,,,,,,,,,,,,,,,,,,
267,0,0.0,0.29,,,,,,,,,,,,,,,,,,
269,0,0.0,0.27,,,,,,,,,,,,,,,,,,
271,0,0.0,0.28,,,,,,,,,,,,,,,,,,
273,0,0.0,0.28,,-0.11,0.1,0.99,0,0,-0,0.15,,,,,,,,,,
275,0,0.0,0.28,,,,,,,,,,,,,,,,,,
277,0,0.0,0.27,,,,,,,,,,,,,,,,,,
279,0,0.0,0.28,,,,,,,,,,,,,,,,,,
281,0,0.0,0.28,,,,,,,,,,,,,,,,,,
283,0,0.0,0.28,,0.01,0.05,0.99,1,-0,-1,0.05,0,2100,0,0.0,0.0,0.0,0.0,0,0,0.0
285,0,0.0,0.28,,,,,,,,,,,,,,,,,,
287,0,0.0,0.28,,,,,,,,,,,,,,,,,,
289,0,0.0,0.28,,,,,,,,,,,,,,,,,,
291,0,0.0,0.28,,,,,,,,,,,,,,,,,,
293,0,0.0,0.28,,0.02,0.04,0.98,-0,-0,-0,0.04,,,,,,,,,,
295,0,0.0,0.28,,,,,,,,,,,,,,,,,,
297,0,0.0,0.28,,,,,,,,,,,,,,,,,,
299,0,0.0,0.28,,,,,,,,,,,,,,,,,,
301,0,0.0,0.28,,,,,,,,,,,,,,,,,,
303,0,0.0,0.28,,-0.15,0.08,0.95,0,-0,-0,0.17,0,2160,0,0.0,0.0,0.0,0.0,0,0,0.0
305,0,0.0,0.28,,,,,,,,,,,,,,,,,,
307,0,0.0,0.28,,,,,,,,,,,,,,,,,,
309,0,0.0,0.28,,,,,,,,,,,,,,,,,,
311,0,0.0,0.28,,,,,,,,,,,,,,,,,,
313,0,0.0,0.28,,-0.03,0.05,0.91,0,-1,-0,0.06,,,,,,,,,,
315,0,0.0,0.28,,,,,,,,,,,,,,,,,,
317,0,0.0,0.28,,,,,,,,,,,,,,,,,,
319,0,0.0,0.28,,,,,,,,,,,,,,,,,,
321,0,0.0,0.28,,,,,,,,,,,,,,,,,,
323,0,0.0,0.3,,-0.05,0.13,1.01,-0,0,-0,0.14,0,2100,0,0.0,0.0,0.0,0.0,0,0,0.0
325,0,0.0,0.29,,,,,,,,,,,,,,,,,,
327,0,0.0,0.28,,,,,,,,,,,,,,,,,,
329,0,0.0,0.28,,,,,,,,,,,,,,,,,,
331,0,0.0,0.28,,,,,,,,,,,,,,,,,,
333,0,0.0,0.29,,-0.28,0.09,0.98,0,-1,-0,0.3,,,,,,,,,,
335,0,0.0,0.29,,,,,,,,,,,,,,,,,,
337,0,0.0,0.29,,,,,,,,,,,,,,,,,,
339,0,0.0,0.28,,,,,,,,,,,,,,,,,,
341,0,0.0,0.29,,,,,,,,,,,,,,,,,,
343,0,0.0,0.29,,0.08,0.03,0.97,0,-1,-1,0.08,0,2100,0,0.0,0.0,0.0,0.0,0,0,0.0
345,0,0.0,0.29,,,,,,,,,,,,,,,,,,
347,0,0.0,0.29,,,,,,,,,,,,,,,,,,
349,0,0.0,0.29,,,,,,,,,,,,,,,,,,
351,0,0.0,0.3,,,,,,,,,,,,,,,,,,
353,0,0.0,0.29,,-0.12,0.07,1.0,-0,0,0,0.14,,,,,,,,,,
355,0,0.0,0.29,,,,,,,,,,,,,,,,,,
357,0,0.0,0.29,,,,,,,,,,,,,,,,,,
359,0,0.0,0.29,,,,,,,,,,,,,,,,,,
361,0,0.0,0.29,,,,,,,,,,,,,,,,,,
363,0,0.0,0.29,,-0.19,0.09,1.03,0,-1,-0,0.21,0,2160,0,0.0,0.0,0.0,0.0,0,0,0.0
383,0,0.0,0.29,,-0.06,0.13,1.01,-0,0,-0,0.14,0,2100,0,0.0,0.0,0.0,0.0,0,0,0.0
399,0,0.0,0.3,,,,,,,,,,,,,,,,,,
401,0,0.0,0.3,,,,,,,,,,,,,,,,,,
403,0,0.0,0.3,,0.05,0.03,0.98,-0,-0,-0,0.06,0,2100,0,0.0,0.0,0.0,0.0,0,0,0.0
405,0,0.0,0.3,,,,,,,,,,,,,,,,,,
407,0,0.0,0.31,,,,,,,,,,,,,,,,,,
409,0,0.0,0.3,,,,,,,,,,,,,,,,,,
411,0,0.0,0.3,,,,,,,,,,,,,,,,,,
413,0,0.0,0.3,,-0.16,0.07,0.98,-0,0,-0,0.17,,,,,,,,,,
415,0,0.0,0.3,,,,,,,,,,,,,,,,,,
417,0,0.0,0.3,,,,,,,,,,,,,,,,,,
419,0,0.0,0.3,,,,,,,,,,,,,,,,,,
421,0,0.0,0.3,,,,,,,,,,,,,,,,,,
423,0,0.0,0.3,,-0.12,0.08,1.03,1,-0,-0,0.14,0,2100,0,0.0,0.0,0.0,0.0,0,0,0.0
425,0,0.0,0.3,,,,,,,,,,,,,,,,,,
427,0,0.0,0.3,,,,,,,,,,,,,,,,,,
429,0,0.0,0.3,,,,,,,,,,,,,,,,,,
431,0,0.0,0.3,,,,,,,,,,,,,,,,,,
433,0,0.0,0.3,,-0.01,0.1,1.03,-0,0,-0,0.1,,,,,,,,,,
435,0,0.0,0.31,,,,,,,,,,,,,,,,,,
437,0,0.0,0.3,,,,,,,,,,,,,,,,,,
439,0,0.0,0.3,,,,,,,,,,,,,,,,,,
441,0,0.0,0.3,,,,,,,,,,,,,,,,,,
443,0,0.0,0.3,,-0.18,0.09,0.94,0,0,-1,0.2,0,2100,0,0.0,0.0,0.0,0.0,0,0,0.0
445,0,0.0,0.3,,,,,,,,,,,,,,,,,,
447,0,0.0,0.3,,,,,,,,,,,,,,,,,,
449,0,0.0,0.3,,,,,,,,,,,,,,,,,,
451,0,0.0,0.3,,,,,,,,,,,,,,,,,,
453,0,0.0,0.31,,0.02,0.04,0.99,1,-0,-0,0.04,,,,,,,,,,
455,0,0.0,0.31,,,,,,,,,,,,,,,,,,
457,0,0.0,0.31,,,,,,,,,,,,,,,,,,
459,0,0.0,0.31,,,,,,,,,,,,,,,,,,
461,0,0.0,0.31,,,,,,,,,,,,,,,,,,
463,0,0.0,0.32,,-0.03,0.06,0.96,-0,0,-0,0.07,0,2100,0,0.0,0.0,0.0,0.0,0,0,0.0
465,0,0.0,0.31,,,,,,,,,,,,,,,,,,
467,0,0.0,0.31,,,,,,,,,,,,,,,,,,
469,0,0.0,0.31,,,,,,,,,,,,,,,,,,
471,0,0.0,0.31,,,,,,,,,,,,,,,,,,
473,0,0.0,0.31,,-0.16,0.09,0.92,0,-1,-0,0.19,,,,,,,,,,
475,0,0.0,0.31,,,,,,,,,,,,,,,,,,
477,0,0.0,0.31,,,,,,,,,,,,,,,,,,
479,0,0.0,0.31,,,,,,,,,,,,,,,,,,
481,0,0.0,0.31,,,,,,,,,,,,,,,,,,
483,0,0.0,0.31,,-0.01,0.05,0.88,0,-1,-0,0.05,0,2100,0,0.0,0.0,0.0,0.0,0,0,0.0
485,0,0.0,0.31,,,,,,,,,,,,,,,,,,
487,0,0.0,0.31,,,,,,,,,,,,,,,,,,
489,0,0.0,0.31,,,,,,,,,,,,,,,,,,
491,0,0.0,0.32,,,,,,,,,,,,,,,,,,
493,0,0.0,0.31,,-0.05,0.13,1.03,-0,0,-0,0.14,,,,,,,,,,
495,0,0.0,0.31,,,,,,,,,,,,,,,,,,
497,0,0.0,0.31,,,,,,,,,,,,,,,,,,
499,0,0.0,0.31,,,,,,,,,,,,,,,,,,
501,0,0.0,0.31,,,,,,,,,,,,,,,,,,
503,0,0.0,0.31,,-0.25,0.11,1.03,0,-1,-0,0.27,0,2100,0,0.0,0.0,0.0,0.0,0,0,0.0
505,0,0.0,0.31,,,,,,,,,,,,,,,,,,
507,0,0.0,0.31,,,,,,,,,,,,,,,,,,
509,0,0.0,0.31,,,,,,,,,,,,,,,,,,
511,0,0.0,0.31,,,,,,,,,,,,,,,,,,
513,0,0.0,0.32,,0.07,-0.01,0.99,0,-1,-1,0.07,,,,,,,,,,
515,0,0.0,0.31,,,,,,,,,,,,,,,,,,
517,0,0.0,0.32,,,,,,,,,,,,,,,,,,
519,0,0.0,0.33,,,,,,,,,,,,,,,,,,
521,0,0.0,0.32,,,,,,,,,,,,,,,,,,
523,0,0.0,0.32,,-0.16,0.09,1.0,-0,1,-0,0.18,0,2160,0,0.0,0.0,0.0,0.0,0,0,0.0
525,0,0.0,0.31,,,,,,,,,,,,,,,,,,
527,0,0.0,0.32,,,,,,,,,,,,,,,,,,
529,0,0.0,0.32,,,,,,,,,,,,,,,,,,
531,0,0.0,0.31,,,,,,,,,,,,,,,,,,
533,0,0.0,0.32,,-0.2,0.11,1.03,0,-1,-0,0.23,,,,,,,,,,
535,0,0.0,0.32,,,,,,,,,,,,,,,,,,
537,0,0.0,0.32,,,,,,,,,,,,,,,,,,
539,0,0.0,0.32,,,,,,,,,,,,,,,,,,
541,0,0.0,0.32,,,,,,,,,,,,,,,,,,
543,0,0.0,0.32,,0.02,0.07,0.92,-0,-0,-0,0.07,0,2160,0,0.0,0.0,0.0,0.0,0,0,0.0
545,0,0.0,0.32,,,,,,,,,,,,,,,,,,
547,0,0.0,0.33,,,,,,,,,,,,,,,,,,
549,0,0.0,0.32,,,,,,,,,,,,,,,,,,
551,0,0.0,0.32,,,,,,,,,,,,,,,,,,
553,0,0.0,0.32,,-0.1,0.11,1.0,-0,0,-1,0.16,,,,,,,,,,
555,0,0.0,0.32,,,,,,,,,,,,,,,,,,
557,0,0.0,0.32,,,,,,,,,,,,,,,,,,
559,0,0.0,0.32,,,,,,,,,,,,,,,,,,
561,0,0.0,0.32,,,,,,,,,,,,,,,,,,
563,0,0.0,0.32,,-0.07,0.05,1.02,0,0,-1,0.09,0,2100,0,0.0,0.0,0.0,0.0,0,0,0.0
565,0,0.0,0.32,,,,,,,,,,,,,,,,,,
567,0,0.0,0.32,,,,,,,,,,,,,,,,,,
569,0,0.0,0.32,,,,,,,,,,,,,,,,,,
571,0,0.0,0.32,,,,,,,,,,,,,,,,,,
573,0,0.0,0.32,,0.03,0.02,0.96,-1,-0,-1,0.04,,,,,,,,,,
575,0,0.0,0.34,,,,,,,,,,,,,,,,,,
577,0,0.0,0.33,,,,,,,,,,,,,,,,,,
579,0,0.0,0.33,,,,,,,,,,,,,,,,,,
581,0,0.0,0.33,,,,,,,,,,,,,,,,,,
583,0,0.0,0.33,,-0.16,0.07,0.93,-0,0,-0,0.18,0,2160,0,0.0,0.0,0.0,0.0,0,0,0.0
585,0,0.0,0.32,,,,,,,,,,,,,,,,,,
587,0,0.0,0.32,,,,,,,,,,,,,,,,,,
589,0,0.0,0.33,,,,,,,,,,,,,,,,,,
591,0,0.0,0.32,,,,,,,,,,,,,,,,,,
593,0,0.0,0.32,,-0.07,0.07,0.97,0,-0,-0,0.1,,,,,,,,,,
595,0,0.0,0.33,,,,,,,,,,,,,,,,,,
597,0,0.0,0.33,,,,,,,,,,,,,,,,,,
599,0,0.0,0.33,,,,,,,,,,,,,,,,,,
601,0,0.0,0.33,,,,,,,,,,,,,,,,,,
603,0,0.0,0.34,,-0.03,0.09,1.01,-1,-0,-0,0.1,0,2100,0,0.0,0.0,0.0,0.0,0,0,0.0
605,0,0.0,0.33,,,,,,,,,,,,,,,,,,
607,0,0.0,0.33,,,,,,,,,,,,,,,,,,
609,0,0.0,0.33,,,,,,,,,,,,,,,,,,
611,0,0.0,0.33,,,,,,,,,,,,,,,,,,
613,0,0.0,0.33,,-0.27,0.08,0.94,0,-0,-0,0.28,,,,,,,,,,
615,0,0.0,0.33,,,,,,,,,,,,,,,,,,
617,0,0.0,0.33,,,,,,,,,,,,,,,,,,
619,0,0.0,0.33,,,,,,,,,,,,,,,,,,
621,0,0.0,0.33,,,,,,,,,,,,,,,,,,
623,0,0.0,0.34,,0.02,0.03,1.01,0,-1,-0,0.04,0,2100,0,0.0,0.0,0.0,0.0,0,0,0.0
625,0,0.0,0.33,,,,,,,,,,,,,,,,,,
627,0,0.0,0.33,,,,,,,,,,,,,,,,,,
629,0,0.0,0.33,,,,,,,,,,,,,,,,,,
631,0,0.0,0.34,,,,,,,,,,,,,,,,,,
633,0,0.0,0.34,,-0.08,0.06,0.99,-0,0,-0,0.1,,,,,,,,,,
635,0,0.0,0.33,,,,,,,,,,,,,,,,,,
637,0,0.0,0.33,,,,,,,,,,,,,,,,,,
639,0,0.0,0.33,,,,,,,,,,,,,,,,,,
641,0,0.0,0.33,,,,,,,,,,,,,,,,,,
643,0,0.0,0.33,,-0.2,0.09,1.0,0,-1,-0,0.22,0,2100,0,0.0,0.0,0.0,0.0,0,0,0.0
645,0,0.0,0.33,,,,,,,,,,,,,,,,,,
647,0,0.0,0.33,,,,,,,,,,,,,,,,,,
649,0,0.0,0.33,,,,,,,,,,,,,,,,,,
651,0,0.0,0.34,,,,,,,,,,,,,,,,,,
653,0,0.0,0.34,,0.02,0.04,0.88,0,-1,-0,0.05,,,,,,,,,,
655,0,0.0,0.34,,,,,,,,,,,,,,,,,,
657,0,0.0,0.34,,,,,,,,,,,,,,,,,,
659,0,0.0,0.35,,,,,,,,,,,,,,,,,,
661,0,0.0,0.34,,,,,,,,,,,,,,,,,,
663,0,0.0,0.34,,-0.05,0.14,1.02,0,0,-0,0.14,0,2100,0,0.0,0.0,0.0,0.0,0,0,0.0
665,0,0.0,0.34,,,,,,,,,,,,,,,,,,
667,0,0.0,0.34,,,,,,,,,,,,,,,,,,
669,0,0.0,0.34,,,,,,,,,,,,,,,,,,
671,0,0.0,0.34,,,,,,,,,,,,,,,,,,
673,0,0.0,0.34,,-0.17,0.1,1.04,1,-1,-0,0.2,,,,,,,,,,
675,0,0.0,0.34,,,,,,,,,,,,,,,,,,
677,0,0.0,0.34,,,,,,,,,,,,,,,,,,
679,0,0.0,0.34,,,,,,,,,,,,,,,,,,
681,0,0.0,0.34,,,,,,,,,,,,,,,,,,
683,0,0.0,0.34,,0.06,0.03,0.97,0,-0,-0,0.07,0,2100,0,0.0,0.0,0.0,0.0,0,0,0.0
685,0,0.0,0.34,,,,,,,,,,,,,,,,,,
687,0,0.0,0.35,,,,,,,,,,,,,,,,,,
689,0,0.0,0.34,,,,,,,,,,,,,,,,,,
691,0,0.0,0.34,,,,,,,,,,,,,,,,,,
693,0,0.0,0.34,,-0.16,0.07,1.02,0,0,-0,0.18,,,,,,,,,,
695,0,0.0,0.34,,,,,,,,,,,,,,,,,,
697,0,0.0,0.34,,,,,,,,,,,,,,,,,,
699,0,0.0,0.34,,,,,,,,,,,,,,,,,,
701,0,0.0,0.34,,,,,,,,,,,,,,,,,,
703,0,0.0,0.34,,-0.16,0.1,1.09,0,-0,-0,0.19,0,2100,0,0.0,0.0,0.0,0.0,0,0,0.0
705,0,0.0,0.34,,,,,,,,,,,,,,,,,,
707,0,0.0,0.34,,,,,,,,,,,,,,,,,,
709,0,0.0,0.35,,,,,,,,,,,,,,,,,,
711,0,0.0,0.34,,,,,,,,,,,,,,,,,,
713,0,0.0,0.35,,-0.01,0.09,0.99,-0,-0,-0,0.09,,,,,,,,,,
715,0,0.0,0.36,,,,,,,,,,,,,,,,,,
717,0,0.0,0.35,,,,,,,,,,,,,,,,,,
719,0,0.0,0.35,,,,,,,,,,,,,,,,,,
721,0,0.0,0.35,,,,,,,,,,,,,,,,,,
723,0,0.0,0.35,,-0.12,0.09,0.96,0,0,-1,0.15,0,2100,0,0.0,0.0,0.0,0.0,0,0,0.0
725,0,0.0,0.35,,,,,,,,,,,,,,,,,,
727,0,0.0,0.35,,,,,,,,,,,,,,,,,,
729,0,0.0,0.35,,,,,,,,,,,,,,,,,,
731,0,0.0,0.35,,,,,,,,,,,,,,,,,,
733,0,0.0,0.35,,0.0,0.06,0.99,0,-0,-1,0.06,,,,,,,,,,
735,0,0.0,0.35,,,,,,,,,,,,,,,,,,
737,0,0.0,0.35,,,,,,,,,,,,,,,,,,
739,0,0.0,0.35,,,,,,,,,,,,,,,,,,
741,0,0.0,0.35,,,,,,,,,,,,,,,,,,
743,0,0.0,0.36,,-0.02,0.09,0.97,-1,-0,-0,0.09,0,2160,0,0.0,0.0,0.0,0.0,0,0,0.0
745,0,0.0,0.35,,,,,,,,,,,,,,,,,,
747,0,0.0,0.35,,,,,,,,,,,,,,,,,,
749,0,0.0,0.35,,,,,,,,,,,,,,,,,,
751,0,0.0,0.35,,,,,,,,,,,,,,,,,,
753,0,0.0,0.35,,-0.13,0.11,0.92,-0,-0,-0,0.17,,,,,,,,,,
755,0,0.0,0.35,,,,,,,,,,,,,,,,,,
757,0,0.0,0.35,,,,,,,,,,,,,,,,,,
759,0,0.0,0.35,,,,,,,,,,,,,,,,,,
761,0,0.0,0.35,,,,,,,,,,,,,,,,,,
763,0,0.0,0.35,,-0.04,0.06,0.92,0,-1,-0,0.07,0,2160,0,0.0,0.0,0.0,0.0,0,0,0.0
765,0,0.0,0.36,,,,,,,,,,,,,,,,,,
767,0,0.0,0.35,,,,,,,,,,,,,,,,,,
769,0,0.0,0.35,,,,,,,,,,,,,,,,,,
771,0,0.0,0.36,,,,,,,,,,,,,,,,,,
773,0,0.0,0.35,,-0.05,0.1,1.04,-0,0,-0,0.12,,,,,,,,,,
775,0,0.0,0.36,,,,,,,,,,,,,,,,,,
777,0,0.0,0.36,,,,,,,,,,,,,,,,,,
779,0,0.0,0.36,,,,,,,,,,,,,,,,,,
781,0,0.0,0.36,,,,,,,,,,,,,,,,,,
783,0,0.0,0.36,,-0.3,0.07,1.0,0,-1,-0,0.3,0,2100,0,0.0,0.0,0.0,0.0,0,0,0.0
785,0,0.0,0.36,,,,,,,,,,,,,,,,,,
787,0,0.0,0.35,,,,,,,,,,,,,,,,,,
789,0,0.0,0.36,,,,,,,,,,,,,,,,,,
791,0,0.0,0.36,,,,,,,,,,,,,,,,,,
793,0,0.0,0.36,,0.0,-0.02,1.0,0,-1,-0,0.02,,,,,,,,,,
795,0,0.0,0.36,,,,,,,,,,,,,,,,,,
797,0,0.0,0.36,,,,,,,,,,,,,,,,,,
799,0,0.0,0.37,,,,,,,,,,,,,,,,,,
801,0,0.0,0.36,,,,,,,,,,,,,,,,,,
803,0,0.0,0.36,,-0.16,0.08,0.96,-0,0,-0,0.18,0,2100,0,0.0,0.0,0.0,0.0,0,0,0.0
805,0,0.0,0.36,,,,,,,,,,,,,,,,,,
807,0,0.0,0.36,,,,,,,,,,,,,,,,,,
809,0,0.0,0.36,,,,,,,,,,,,,,,,,,
811,0,0.0,0.36,,,,,,,,,,,,,,,,,,
813,0,0.0,0.36,,-0.2,0.1,1.06,0,-1,-0,0.22,,,,,,,,,,
815,0,0.0,0.36,,,,,,,,,,,,,,,,,,
817,0,0.0,0.36,,,,,,,,,,,,,,,,,,
819,0,0.0,0.36,,,,,,,,,,,,,,,,,,
821,0,0.0,0.36,,,,,,,,,,,,,,,,,,
823,0,0.0,0.36,,0.0,0.04,0.95,0,-1,-0,0.04,0,2100,0,0.0,0.0,0.0,0.0,0,0,0.0
825,0,0.0,0.36,,,,,,,,,,,,,,,,,,
827,0,0.0,0.37,,,,,,,,,,,,,,,,,,
829,0,0.0,0.37,,,,,,,,,,,,,,,,,,
831,0,0.0,0.36,,,,,,,,,,,,,,,,,,
833,0,0.0,0.37,,-0.08,0.08,0.99,0,-0,-0,0.11,,,,,,,,,,
835,0,0.0,0.36,,,,,,,,,,,,,,,,,,
837,0,0.0,0.36,,,,,,,,,,,,,,,,,,
839,0,0.0,0.36,,,,,,,,,,,,,,,,,,
841,0,0.0,0.37,,,,,,,,,,,,,,,,,,
843,0,0.0,0.37,,-0.06,0.08,1.04,1,-0,-0,0.1,0,2100,0,0.0,0.0,0.0,0.0,0,0,0.0
845,0,0.0,0.37,,,,,,,,,,,,,,,,,,
847,0,0.0,0.37,,,,,,,,,,,,,,,,,,
849,0,0.0,0.37,,,,,,,,,,,,,,,,,,
851,0,0.0,0.37,,,,,,,,,,,,,,,,,,
853,0,0.0,0.37,,0.02,0.05,0.97,0,-0,-0,0.05,,,,,,,,,,
855,0,0.0,0.38,,,,,,,,,,,,,,,,,,
857,0,0.0,0.37,,,,,,,,,,,,,,,,,,
859,0,0.0,0.37,,,,,,,,,,,,,,,,,,
861,0,0.0,0.37,,,,,,,,,,,,,,,,,,
863,0,0.0,0.37,,-0.12,0.07,0.93,0,0,-0,0.14,0,2100,0,0.0,0.0,0.0,0.0,0,0,0.0
865,0,0.0,0.37,,,,,,,,,,,,,,,,,,
867,0,0.0,0.37,,,,,,,,,,,,,,,,,,
869,0,0.0,0.37,,,,,,,,,,,,,,,,,,
871,0,0.0,0.37,,,,,,,,,,,,,,,,,,
873,0,0.0,0.37,,-0.09,0.07,1.0,1,-0,-0,0.12,,,,,,,,,,
875,0,0.0,0.37,,,,,,,,,,,,,,,,,,
877,0,0.0,0.37,,,,,,,,,,,,,,,,,,
879,0,0.0,0.37,,,,,,,,,,,,,,,,,,
881,0,0.0,0.37,,,,,,,,,,,,,,,,,,
883,0,0.0,0.37,,-0.04,0.1,1.03,-0,-0,-0,0.1,0,2100,0,0.0,0.0,0.0,0.0,0,0,0.0
885,0,0.0,0.38,,,,,,,,,,,,,,,,,,
887,0,0.0,0.37,,,,,,,,,,,,,,,,,,
889,0,0.0,0.37,,,,,,,,,,,,,,,,,,
891,0,0.0,0.37,,,,,,,,,,,,,,,,,,
893,0,0.0,0.37,,-0.21,0.1,0.95,0,-0,-0,0.23,,,,,,,,,,
895,0,0.0,0.37,,,,,,,,,,,,,,,,,,
897,0,0.0,0.37,,,,,,,,,,,,,,,,,,
899,0,0.0,0.37,,,,,,,,,,,,,,,,,,
901,0,0.0,0.38,,,,,,,,,,,,,,,,,,
903,0,0.0,0.38,,-0.02,0.08,1.06,0,-0,-0,0.08,0,2100,0,0.0,0.0,0.0,0.0,0,0,0.0
905,0,0.0,0.38,,,,,,,,,,,,,,,,,,
907,0,0.0,0.38,,,,,,,,,,,,,,,,,,
909,0,0.0,0.38,,,,,,,,,,,,,,,,,,
911,0,0.0,0.38,,,,,,,,,,,,,,,,,,
913,0,0.0,0.38,,-0.04,0.09,0.99,-0,-0,-0,0.1,,,,,,,,,,
915,0,0.0,0.38,,,,,,,,,,,,,,,,,,
917,0,0.0,0.38,,,,,,,,,,,,,,,,,,
919,0,0.0,0.38,,,,,,,,,,,,,,,,,,
921,0,0.0,0.38,,,,,,,,,,,,,,,,,,
923,0,0.0,0.38,,-0.15,0.11,0.99,0,-1,-1,0.18,0,2100,0,0.0,0.0,0.0,0.0,0,0,0.0
925,0,0.0,0.38,,,,,,,,,,,,,,,,,,
927,0,0.0,0.38,,,,,,,,,,,,,,,,,,
929,0,0.0,0.38,,,,,,,,,,,,,,,,,,
931,0,0.0,0.38,,,,,,,,,,,,,,,,,,
933,0,0.0,0.38,,-0.02,0.04,0.93,0,-1,-0,0.04,,,,,,,,,,
935,0,0.0,0.38,,,,,,,,,,,,,,,,,,
937,0,0.0,0.38,,,,,,,,,,,,,,,,,,
939,0,0.0,0.38,,,,,,,,,,,,,,,,,,
941,0,0.0,0.39,,,,,,,,,,,,,,,,,,
943,0,0.0,0.38,,-0.01,0.11,1.02,-0,0,-0,0.11,0,2100,0,0.0,0.0,0.0,0.0,0,0,0.0
945,0,0.0,0.38,,,,,,,,,,,,,,,,,,
947,0,0.0,0.38,,,,,,,,,,,,,,,,,,
949,0,0.0,0.38,,,,,,,,,,,,,,,,,,
951,0,0.0,0.38,,,,,,,,,,,,,,,,,,
953,0,0.0,0.38,,-0.17,0.13,1.04,0,-0,-1,0.22,,,,,,,,,,
955,0,0.0,0.38,,,,,,,,,,,,,,,,,,
957,0,0.0,0.39,,,,,,,,,,,,,,,,,,
959,0,0.0,0.38,,,,,,,,,,,,,,,,,,
961,0,0.0,0.38,,,,,,,,,,,,,,,,,,
963,0,0.0,0.39,,0.03,0.04,0.99,0,-0,-0,0.05,0,2100,0,0.0,0.0,0.0,0.0,0,0,0.0
965,0,0.0,0.39,,,,,,,,,,,,,,,,,,
967,0,0.0,0.39,,,,,,,,,,,,,,,,,,
969,0,0.0,0.4,,,,,,,,,,,,,,,,,,
971,0,0.0,0.39,,,,,,,,,,,,,,,,,,
973,0,0.0,0.39,,-0.11,0.05,0.97,-0,1,-0,0.12,,,,,,,,,,
975,0,0.0,0.39,,,,,,,,,,,,,,,,,,
977,0,0.0,0.39,,,,,,,,,,,,,,,,,,
979,0,0.0,0.39,,,,,,,,,,,,,,,,,,
981,0,0.0,0.39,,,,,,,,,,,,,,,,,,
983,0,0.0,0.39,,-0.18,0.09,1.07,0,-0,-1,0.2,0,2100,0,0.0,0.0,0.0,0.0,0,0,0.0
985,0,0.0,0.39,,,,,,,,,,,,,,,,,,
987,0,0.0,0.39,,,,,,,,,,,,,,,,,,
989,0,0.0,0.39,,,,,,,,,,,,,,,,,,
991,0,0.0,0.39,,,,,,,,,,,,,,,,,,
993,0,0.0,0.39,,-0.05,0.07,1.0,-0,-0,-0,0.09,,,,,,,,,,
995,0,0.0,0.39,,,,,,,,,,,,,,,,,,
997,0,0.0,0.4,,,,,,,,,,,,,,,,,,
999,0,0.0,0.39,,,,,,,,,,,,,,,,,,
1001,0,0.0,0.39,,,,,,,,,,,,,,,,,,
1003,0,0.0,0.39,,-0.09,0.08,0.94,-0,0,-1,0.12,0,2040,0,0.0,0.0,0.0,0.0,0,0,0.0
1005,0,0.0,0.39,,,,,,,,,,,,,,,,,,
1007,0,0.0,0.39,,,,,,,,,,,,,,,,,,
1009,0,0.0,0.39,,,,,,,,,,,,,,,,,,
1011,0,0.0,0.39,,,,,,,,,,,,,,,,,,
1013,0,0.0,0.39,,-0.07,0.09,1.03,0,1,-1,0.12,,,,,,,,,,
1015,0,0.0,0.39,,,,,,,,,,,,,,,,,,
1017,0,0.0,0.39,,,,,,,,,,,,,,,,,,
1019,0,0.0,0.39,,,,,,,,,,,,,,,,,,
1021,0,0.0,0.39,,,,,,,,,,,,,,,,,,
1023,0,0.0,0.39,,-0.02,0.03,0.97,-0,-0,-1,0.04,0,2040,0,0.0,0.0,0.0,0.0,0,0,0.0
1025,0,0.0,0.41,,,,,,,,,,,,,,,,,,
1027,0,0.0,0.4,,,,,,,,,,,,,,,,,,
1029,0,0.0,0.39,,,,,,,,,,,,,,,,,,
1031,0,0.0,0.39,,,,,,,,,,,,,,,,,,
1033,0,0.0,0.39,,-0.15,0.03,0.92,-0,1,-1,0.15,,,,,,,,,,
1035,0,0.0,0.39,,,,,,,,,,,,,,,,,,
1037,0,0.0,0.4,,,,,,,,,,,,,,,,,,
1039,0,0.0,0.39,,,,,,,,,,,,,,,,,,
1041,0,0.0,0.4,,,,,,,,,,,,,,,,,,
1043,0,0.0,0.4,13.42,-0.15,0.07,0.98,0,0,-1,0.17,0,2100,0,0.0,0.0,0.0,0.0,0,0,0.0
1045,0,0.0,0.4,,,,,,,,,,,,,,,,,,
1047,0,0.0,0.4,,,,,,,,,,,,,,,,,,
1049,0,0.0,0.4,,,,,,,,,,,,,,,,,,
1051,0,0.0,0.4,,,,,,,,,,,,,,,,,,
1053,0,0.0,0.41,,-0.07,0.1,1.02,-0,0,-0,0.12,,,,,,,,,,
1055,0,0.0,0.4,,,,,,,,,,,,,,,,,,
1057,0,0.0,0.4,,,,,,,,,,,,,,,,,,
1059,0,0.0,0.4,,,,,,,,,,,,,,,,,,
1061,0,0.0,0.4,,,,,,,,,,,,,,,,,,
1063,0,0.0,0.4,,-0.28,0.09,0.92,-0,1,-1,0.29,0,2040,0,0.0,0.0,0.0,0.0,0,0,0.0
1065,0,0.0,0.4,,,,,,,,,,,,,,,,,,
1067,0,0.0,0.4,,,,,,,,,,,,,,,,,,
1069,0,0.0,0.4,,,,,,,,,,,,,,,,,,
1071,0,0.0,0.4,,,,,,,,,,,,,,,,,,
1073,0,0.0,0.4,,-0.11,0.06,1.04,0,-0,-1,0.13,,,,,,,,,,
1075,0,0.0,0.4,,,,,,,,,,,,,,,,,,
1077,0,0.0,0.4,,,,,,,,,,,,,,,,,,
1079,0,0.0,0.4,,,,,,,,,,,,,,,,,,
1081,0,0.0,0.41,,,,,,,,,,,,,,,,,,
1083,0,0.0,0.4,,-0.08,0.04,0.94,-0,0,-0,0.09,0,2100,0,0.0,0.0,0.0,0.0,0,0,0.0
1085,0,0.0,0.41,,,,,,,,,,,,,,,,,,
1087,0,0.0,0.41,,,,,,,,,,,,,,,,,,
1089,0,0.0,0.4,,,,,,,,,,,,,,,,,,
1091,0,0.0,0.41,,,,,,,,,,,,,,,,,,
1093,0,0.0,0.41,,-0.22,0.09,0.99,-0,-0,-1,0.24,,,,,,,,,,
1095,0,0.0,0.4,,,,,,,,,,,,,,,,,,
1097,0,0.0,0.4,,,,,,,,,,,,,,,,,,
1099,0,0.0,0.41,,,,,,,,,,,,,,,,,,
1101,0,0.0,0.41,,,,,,,,,,,,,,,,,,
1103,0,0.0,0.4,,-0.12,0.04,0.9,0,-0,-0,0.12,0,2100,0,0.0,0.0,0.0,0.0,0,0,0.0
1105,0,0.0,0.41,,,,,,,,,,,,,,,,,,
1107,0,0.0,0.41,,,,,,,,,,,,,,,,,,
1109,0,0.0,0.41,,,,,,,,,,,,,,,,,,
1111,0,0.0,0.42,,,,,,,,,,,,,,,,,,
1113,0,0.0,0.41,,-0.04,0.12,0.99,-0,0,-1,0.12,,,,,,,,,,
1115,0,0.0,0.41,,,,,,,,,,,,,,,,,,
1117,0,0.0,0.41,,,,,,,,,,,,,,,,,,
1119,0,0.0,0.41,,,,,,,,,,,,,,,,,,
1121,0,0.0,0.41,,,,,,,,,,,,,,,,,,
1123,0,0.0,0.41,,-0.24,0.11,1.05,0,-1,-1,0.27,0,2040,0,0.0,0.0,0.0,0.0,0,0,0.0
1125,0,0.0,0.41,,,,,,,,,,,,,,,,,,
1127,0,0.0,0.41,,,,,,,,,,,,,,,,,,
1129,0,0.0,0.41,,,,,,,,,,,,,,,,,,
1131,0,0.0,0.41,,,,,,,,,,,,,,,,,,
1133,0,0.0,0.41,,-0.03,0.03,0.96,0,-1,-0,0.04,,,,,,,,,,
1135,0,0.0,0.41,,,,,,,,,,,,,,,,,,
1137,0,0.0,0.41,,,,,,,,,,,,,,,,,,
1139,0,0.0,0.43,,,,,,,,,,,,,,,,,,
1141,0,0.0,0.42,,,,,,,,,,,,,,,,,,
1143,0,0.0,0.41,,-0.13,0.04,0.98,-0,1,-0,0.14,0,2100,0,0.0,0.0,0.0,0.0,0,0,0.0
1145,0,0.0,0.41,,,,,,,,,,,,,,,,,,
1147,0,0.0,0.41,,,,,,,,,,,,,,,,,,
1149,0,0.0,0.41,,,,,,,,,,,,,,,,,,
1151,0,0.0,0.41,,,,,,,,,,,,,,,,,,
1153,0,0.0,0.41,,-0.22,0.12,1.07,0,-0,-1,0.25,,,,,,,,,,
1155,0,0.0,0.41,,,,,,,,,,,,,,,,,,
1157,0,0.0,0.42,,,,,,,,,,,,,,,,,,
1159,0,0.0,0.41,,,,,,,,,,,,,,,,,,
1161,0,0.0,0.41,,,,,,,,,,,,,,,,,,
1163,0,0.0,0.42,,-0.04,0.07,0.98,0,-1,-0,0.08,0,2100,0,0.0,0.0,0.0,0.0,0,0,0.0
1165,0,0.0,0.42,,,,,,,,,,,,,,,,,,
1167,0,0.0,0.43,,,,,,,,,,,,,,,,,,
1169,0,0.0,0.41,,,,,,,,,,,,,,,,,,
1171,0,0.0,0.42,,,,,,,,,,,,,,,,,,
1173,0,0.0,0.42,,-0.11,0.08,0.95,0,0,-1,0.14,,,,,,,,,,
1175,0,0.0,0.42,,,,,,,,,,,,,,,,,,
1177,0,0.0,0.42,,,,,,,,,,,,,,,,,,
1179,0,0.0,0.42,,,,,,,,,,,,,,,,,,
1181,0,0.0,0.42,,,,,,,,,,,,,,,,,,
1183,0,0.0,0.42,,-0.15,0.09,1.07,1,0,-1,0.17,0,2100,0,0.0,0.0,0.0,0.0,0,0,0.0
1185,0,0.0,0.42,,,,,,,,,,,,,,,,,,
1187,0,0.0,0.42,,,,,,,,,,,,,,,,,,
1189,0,0.0,0.42,,,,,,,,,,,,,,,,,,
1191,0,0.0,0.42,,,,,,,,,,,,,,,,,,
1193,0,0.0,0.42,,0.02,0.01,0.95,0,-0,-0,0.03,,,,,,,,,,
1195,0,0.0,0.43,,,,,,,,,,,,,,,,,,
1197,0,0.0,0.42,,,,,,,,,,,,,,,,,,
1199,0,0.0,0.43,,,,,,,,,,,,,,,,,,
1201,0,0.0,0.43,,,,,,,,,,,,,,,,,,
1203,0,0.0,0.43,,-0.16,0.11,0.93,-0,1,-1,0.19,0,2100,0,0.0,0.0,0.0,0.0,0,0,0.0
1205,0,0.0,0.42,,,,,,,,,,,,,,,,,,
1207,0,0.0,0.42,,,,,,,,,,,,,,,,,,
1209,0,0.0,0.42,,,,,,,,,,,,,,,,,,
1211,0,0.0,0.42,,,,,,,,,,,,,,,,,,
1213,0,0.0,0.42,,-0.2,0.08,0.97,1,0,-1,0.21,,,,,,,,,,
1215,0,0.0,0.42,,,,,,,,,,,,,,,,,,
1217,0,0.0,0.42,,,,,,,,,,,,,,,,,,
1219,0,0.0,0.42,,,,,,,,,,,,,,,,,,
1221,0,0.0,0.42,,,,,,,,,,,,,,,,,,
1223,0,0.0,0.44,,0.02,0.05,0.96,0,-0,-1,0.06,0,2040,0,0.0,0.0,0.0,0.0,0,0,0.0
1225,0,0.0,0.43,,,,,,,,,,,,,,,,,,
1227,0,0.0,0.43,,,,,,,,,,,,,,,,,,
1229,0,0.0,0.43,,,,,,,,,,,,,,,,,,
1231,0,0.0,0.42,,,,,,,,,,,,,,,,,,
1233,0,0.0,0.42,,-0.28,0.09,0.93,-0,0,-1,0.3,,,,,,,,,,
1235,0,0.0,0.42,,,,,,,,,,,,,,,,,,
1237,0,0.0,0.43,,,,,,,,,,,,,,,,,,
1239,0,0.0,0.43,,,,,,,,,,,,,,,,,,
1241,0,0.0,0.43,,,,,,,,,,,,,,,,,,
1243,0,0.0,0.43,,-0.14,0.04,1.04,0,-1,-1,0.15,0,2040,0,0.0,0.0,0.0,0.0,0,0,0.0
1245,0,0.0,0.43,,,,,,,,,,,,,,,,,,
1247,0,0.0,0.42,,,,,,,,,,,,,,,,,,
1249,0,0.0,0.43,,,,,,,,,,,,,,,,,,
1251,0,0.0,0.44,,,,,,,,,,,,,,,,,,
1253,0,0.0,0.43,,-0.02,0.04,0.92,-0,-0,-0,0.05,,,,,,,,,,
1255,0,0.0,0.43,,,,,,,,,,,,,,,,,,
1257,0,0.0,0.43,,,,,,,,,,,,,,,,,,
1259,0,0.0,0.43,,,,,,,,,,,,,,,,,,
1261,0,0.0,0.43,,,,,,,,,,,,,,,,,,
1263,0,0.0,0.43,,-0.24,0.13,1.0,-0,-0,-1,0.28,0,2100,0,0.0,0.0,0.0,0.0,0,0,0.0
1265,0,0.0,0.43,,,,,,,,,,,,,,,,,,
1267,0,0.0,0.43,,,,,,,,,,,,,,,,,,
1269,0,0.0,0.43,,,,,,,,,,,,,,,,,,
1271,0,0.0,0.43,,,,,,,,,,,,,,,,,,
1273,0,0.0,0.43,,-0.04,0.02,0.89,1,-1,-0,0.04,,,,,,,,,,
1275,0,0.0,0.43,,,,,,,,,,,,,,,,,,
1277,0,0.0,0.43,,,,,,,,,,,,,,,,,,
1279,0,0.0,0.43,,,,,,,,,,,,,,,,,,
1281,0,0.0,0.44,,,,,,,,,,,,,,,,,,
1283,0,0.0,0.43,,0.02,0.06,0.98,-0,0,-1,0.07,0,2040,0,0.0,0.0,0.0,0.0,0,0,0.0
1285,0,0.0,0.44,,,,,,,,,,,,,,,,,,
1287,0,0.0,0.44,,,,,,,,,,,,,,,,,,
1289,0,0.0,0.43,,,,,,,,,,,,,,,,,,
1291,0,0.0,0.43,,,,,,,,,,,,,,,,,,
1293,0,0.0,0.43,,-0.31,0.12,1.1,-0,-0,-1,0.34,,,,,,,,,,
1295,0,0.0,0.43,,,,,,,,,,,,,,,,,,
1297,0,0.0,0.42,,,,,,,,,,,,,,,,,,
1299,0,0.0,0.43,,,,,,,,,,,,,,,,,,
1301,0,0.0,0.43,,,,,,,,,,,,,,,,,,
1303,0,0.0,0.43,,0.01,0.01,0.98,0,-1,-0,0.01,0,2040,0,0.0,0.0,0.0,0.0,0,0,0.0
1305,0,0.0,0.43,,,,,,,,,,,,,,,,,,
1307,0,0.0,0.43,,,,,,,,,,,,,,,,,,
1309,0,0.0,0.44,,,,,,,,,,,,,,,,,,
1311,0,0.0,0.43,,,,,,,,,,,,,,,,,,
1313,0,0.0,0.43,,-0.09,0.07,0.94,-0,0,-0,0.11,,,,,,,,,,
1315,0,0.0,0.43,,,,,,,,,,,,,,,,,,
1317,0,0.0,0.42,,,,,,,,,,,,,,,,,,
1319,0,0.0,0.43,,,,,,,,,,,,,,,,,,
1321,0,0.0,0.43,,,,,,,,,,,,,,,,,,
1323,0,0.0,0.43,,-0.28,0.13,1.1,0,-0,-1,0.31,0,2100,0,0.0,0.0,0.0,0.0,0,0,0.0
1325,0,0.0,0.42,,,,,,,,,,,,,,,,,,
1327,0,0.0,0.43,,,,,,,,,,,,,,,,,,
1329,0,0.0,0.42,,,,,,,,,,,,,,,,,,
1331,0,0.0,0.42,,,,,,,,,,,,,,,,,,
1333,0,0.0,0.42,,0.02,0.01,0.91,0,-1,-0,0.02,,,,,,,,,,
1335,0,0.0,0.43,,,,,,,,,,,,,,,,,,
1337,0,0.0,0.43,,,,,,,,,,,,,,,,,,
1339,0,0.0,0.42,,,,,,,,,,,,,,,,,,
1341,0,0.0,0.42,,,,,,,,,,,,,,,,,,
1343,0,0.0,0.42,,-0.03,0.08,0.91,-0,0,-0,0.08,0,2040,0,0.0,0.0,0.0,0.0,0,0,0.0
1345,0,0.0,0.42,,,,,,,,,,,,,,,,,,
1347,0,0.0,0.42,,,,,,,,,,,,,,,,,,
1349,0,0.0,0.42,,,,,,,,,,,,,,,,,,
1351,0,0.0,0.42,,,,,,,,,,,,,,,,,,
1353,0,0.0,0.42,,-0.17,0.11,1.06,0,0,-0,0.21,,,,,,,,,,
1355,0,0.0,0.42,,,,,,,,,,,,,,,,,,
1357,0,0.0,0.42,,,,,,,,,,,,,,,,,,
1359,0,0.0,0.42,,,,,,,,,,,,,,,,,,
1361,0,0.0,0.42,,,,,,,,,,,,,,,,,,
1363,0,0.0,0.42,,0.06,0.02,0.95,0,-1,-0,0.06,0,2040,0,0.0,0.0,0.0,0.0,0,0,0.0
1365,0,0.0,0.43,,,,,,,,,,,,,,,,,,
1367,0,0.0,0.42,,,,,,,,,,,,,,,,,,
1369,0,0.0,0.42,,,,,,,,,,,,,,,,,,
1371,0,0.0,0.42,,,,,,,,,,,,,,,,,,
1373,0,0.0,0.42,,-0.14,0.08,0.93,-0,1,-0,0.16,,,,,,,,,,
1375,0,0.0,0.42,,,,,,,,,,,,,,,,,,
1377,0,0.0,0.42,,,,,,,,,,,,,,,,,,
1379,0,0.0,0.42,,,,,,,,,,,,,,,,,,
1381,0,0.0,0.42,,,,,,,,,,,,,,,,,,
1383,0,0.0,0.42,,-0.24,0.09,1.08,1,0,-1,0.25,0,2100,0,0.0,0.0,0.0,0.0,0,0,0.0
1385,0,0.0,0.42,,,,,,,,,,,,,,,,,,
1387,0,0.0,0.41,,,,,,,,,,,,,,,,,,
1389,0,0.0,0.42,,,,,,,,,,,,,,,,,,
1391,0,0.0,0.42,,,,,,,,,,,,,,,,,,
1393,0,0.0,0.41,,-0.02,0.04,1.03,-0,0,-0,0.05,,,,,,,,,,
1395,0,0.0,0.43,,,,,,,,,,,,,,,,,,
1397,0,0.0,0.42,,,,,,,,,,,,,,,,,,
1399,0,0.0,0.42,,,,,,,,,,,,,,,,,,
1401,0,0.0,0.42,,,,,,,,,,,,,,,,,,
1403,0,0.0,0.41,,-0.27,0.12,0.92,-0,1,-0,0.29,0,2040,0,0.0,0.0,0.0,0.0,0,0,0.0
1405,0,0.0,0.41,,,,,,,,,,,,,,,,,,
1407,0,0.0,0.41,,,,,,,,,,,,,,,,,,
1409,0,0.0,0.42,,,,,,,,,,,,,,,,,,
1411,0,0.0,0.42,,,,,,,,,,,,,,,,,,
1413,0,0.0,0.41,,-0.19,0.08,1.11,1,0,-1,0.21,,,,,,,,,,
1415,0,0.0,0.41,,,,,,,,,,,,,,,,,,
1417,0,0.0,0.42,,,,,,,,,,,,,,,,,,
1419,0,0.0,0.42,,,,,,,,,,,,,,,,,,
1421,0,0.0,0.41,,,,,,,,,,,,,,,,,,
1423,0,0.0,0.43,,0.01,0.03,0.88,0,0,-1,0.03,0,2100,0,0.0,0.0,0.0,0.0,0,0,0.0
1425,0,0.0,0.42,,,,,,,,,,,,,,,,,,
1427,0,0.0,0.42,,,,,,,,,,,,,,,,,,
1429,0,0.0,0.42,,,,,,,,,,,,,,,,,,
1431,0,0.0,0.42,,,,,,,,,,,,,,,,,,
1433,0,0.0,0.42,,-0.2,0.15,0.91,-0,0,-1,0.25,,,,,,,,,,
1435,0,0.0,0.42,,,,,,,,,,,,,,,,,,
1437,0,0.0,0.42,,,,,,,,,,,,,,,,,,
1439,0,0.0,0.42,,,,,,,,,,,,,,,,,,
1441,0,0.0,0.41,,,,,,,,,,,,,,,,,,
1443,0,0.0,0.41,,-0.13,0.03,0.89,1,-1,-1,0.14,0,2100,0,0.0,0.0,0.0,0.0,0,0,0.0
1445,0,0.0,0.41,,,,,,,,,,,,,,,,,,
1447,0,0.0,0.42,,,,,,,,,,,,,,,,,,
1449,0,0.0,0.42,,,,,,,,,,,,,,,,,,
1451,0,0.0,0.43,,,,,,,,,,,,,,,,,,
1453,0,0.0,0.42,,0.05,0.08,0.99,-0,-0,-1,0.09,,,,,,,,,,
1455,0,0.0,0.42,,,,,,,,,,,,,,,,,,
1457,0,0.0,0.42,,,,,,,,,,,,,,,,,,
1459,0,0.0,0.42,,,,,,,,,,,,,,,,,,
1461,0,0.0,0.42,,,,,,,,,,,,,,,,,,
1463,0,0.0,0.42,,-0.33,0.14,1.05,0,-1,-1,0.36,0,2040,0,0.0,0.0,0.0,0.0,0,0,0.0
1465,0,0.0,0.42,,,,,,,,,,,,,,,,,,
1467,0,0.0,0.42,,,,,,,,,,,,,,,,,,
1469,0,0.0,0.42,,,,,,,,,,,,,,,,,,
1471,0,0.0,0.42,,,,,,,,,,,,,,,,,,
1473,0,0.0,0.42,,-0.09,-0.02,1.05,1,-1,-1,0.09,,,,,,,,,,
1475,0,0.0,0.43,,,,,,,,,,,,,,,,,,
1477,0,0.0,0.43,,,,,,,,,,,,,,,,,,
1479,0,0.0,0.44,,,,,,,,,,,,,,,,,,
1481,0,0.0,0.43,,,,,,,,,,,,,,,,,,
1483,0,0.0,0.43,,-0.07,0.03,0.98,0,0,-0,0.08,0,2100,0,0.0,0.0,0.0,0.0,0,0,0.0
1485,0,0.0,0.43,,,,,,,,,,,,,,,,,,
1487,0,0.0,0.43,,,,,,,,,,,,,,,,,,
1489,0,0.0,0.43,,,,,,,,,,,,,,,,,,
1491,0,0.0,0.43,,,,,,,,,,,,,,,,,,
1493,0,0.0,0.43,,-0.26,0.15,1.05,0,-0,-1,0.3,,,,,,,,,,
1495,0,0.0,0.43,,,,,,,,,,,,,,,,,,
1497,0,0.0,0.43,,,,,,,,,,,,,,,,,,
1499,0,0.0,0.43,,,,,,,,,,,,,,,,,,
1501,0,0.0,0.43,,,,,,,,,,,,,,,,,,
1503,0,0.0,0.43,,0.01,0.04,0.88,1,-1,-1,0.04,0,2100,0,0.0,0.0,0.0,0.0,0,0,0.0
1505,0,0.0,0.43,,,,,,,,,,,,,,,,,,
1507,0,0.0,0.43,,,,,,,,,,,,,,,,,,
1509,0,0.0,0.43,,,,,,,,,,,,,,,,,,
1511,0,0.0,0.43,,,,,,,,,,,,,,,,,,
1513,0,0.0,0.43,,0.02,0.1,0.92,0,0,-1,0.1,,,,,,,,,,
1515,0,0.0,0.43,,,,,,,,,,,,,,,,,,
1517,0,0.0,0.43,,,,,,,,,,,,,,,,,,
1519,0,0.0,0.43,,,,,,,,,,,,,,,,,,
1521,0,0.0,0.43,,,,,,,,,,,,,,,,,,
1523,0,0.0,0.43,,-0.21,0.12,1.09,1,0,-1,0.24,0,2040,0,0.0,0.0,0.0,0.0,0,0,0.0
1525,0,0.0,0.43,,,,,,,,,,,,,,,,,,
1527,0,0.0,0.44,,,,,,,,,,,,,,,,,,
1529,0,0.0,0.43,,,,,,,,,,,,,,,,,,
1531,0,0.0,0.44,,,,,,,,,,,,,,,,,,
1533,0,0.0,0.44,,0.04,-0.0,0.96,1,-0,-1,0.04,,,,,,,,,,
1535,0,0.0,0.44,,,,,,,,,,,,,,,,,,
1537,0,0.0,0.45,,,,,,,,,,,,,,,,,,
1539,0,0.0,0.44,,,,,,,,,,,,,,,,,,
1541,0,0.0,0.44,,,,,,,,,,,,,,,,,,
1543,0,0.0,0.44,,-0.15,0.08,0.94,0,1,-1,0.17,0,2100,0,0.0,0.0,0.0,0.0,0,0,0.0
1545,0,0.0,0.44,,,,,,,,,,,,,,,,,,
1547,0,0.0,0.44,,,,,,,,,,,,,,,,,,
1549,0,0.0,0.44,,,,,,,,,,,,,,,,,,
1551,0,0.0,0.44,,,,,,,,,,,,,,,,,,
1553,0,0.0,0.44,,-0.24,0.11,1.02,1,-0,-1,0.26,,,,,,,,,,
1555,0,0.0,0.44,,,,,,,,,,,,,,,,,,
1557,0,0.0,0.44,,,,,,,,,,,,,,,,,,
1559,0,0.0,0.44,,,,,,,,,,,,,,,,,,
1561,0,0.0,0.44,,,,,,,,,,,,,,,,,,
1563,0,0.0,0.44,,0.06,0.02,0.95,1,-0,-0,0.06,0,2100,0,0.0,0.0,0.0,0.0,0,0,0.0
1565,0,0.0,0.46,,,,,,,,,,,,,,,,,,
1567,0,0.0,0.44,,,,,,,,,,,,,,,,,,
1569,0,0.0,0.44,,,,,,,,,,,,,,,,,,
1571,0,0.0,0.44,,,,,,,,,,,,,,,,,,
1573,0,0.0,0.44,,-0.19,0.09,0.91,-0,1,-1,0.21,,,,,,,,,,
1575,0,0.0,0.44,,,,,,,,,,,,,,,,,,
1577,0,0.0,0.44,,,,,,,,,,,,,,,,,,
1579,0,0.0,0.44,,,,,,,,,,,,,,,,,,
1581,0,0.0,0.44,,,,,,,,,,,,,,,,,,
1583,0,0.0,0.44,,-0.15,0.09,1.08,1,0,-0,0.18,2,2100,0,0.0,0.0,0.0,0.0,0,0,0.0
1585,0,0.0,0.44,,,,,,,,,,,,,,,,,,
1587,0,0.0,0.44,,,,,,,,,,,,,,,,,,
1589,0,0.0,0.44,,,,,,,,,,,,,,,,,,
1591,0,0.0,0.44,,,,,,,,,,,,,,,,,,
1593,0,0.0,0.45,,0.01,0.03,0.99,-0,1,-1,0.03,,,,,,,,,,
1595,0,0.0,0.44,,,,,,,,,,,,,,,,,,
1597,0,0.0,0.44,,,,,,,,,,,,,,,,,,
1599,0,0.0,0.44,,,,,,,,,,,,,,,,,,
1601,0,0.0,0.44,,,,,,,,,,,,,,,,,,
1603,0,0.0,0.43,,-0.32,0.13,1.04,-1,2,-1,0.34,2,2100,0,0.0,0.0,0.0,0.0,0,0,0.0
1605,0,0.0,0.43,,,,,,,,,,,,,,,,,,
1607,0,0.0,0.43,,,,,,,,,,,,,,,,,,
1609,0,0.0,0.43,,,,,,,,,,,,,,,,,,
1611,0,0.0,0.43,,,,,,,,,,,,,,,,,,
1613,0,0.0,0.43,,-0.32,0.03,1.01,0,2,-0,0.33,,,,,,,,,,
1615,0,0.0,0.43,,,,,,,,,,,,,,,,,,
1617,0,0.0,0.43,,,,,,,,,,,,,,,,,,
1619,0,0.0,0.43,,,,,,,,,,,,,,,,,,
1621,0,0.0,0.44,,,,,,,,,,,,,,,,,,
1623,0,0.0,0.44,,-0.12,0.04,1.04,-1,3,-1,0.13,2,2040,0,0.0,0.0,0.0,0.0,0,0,0.0
1625,0,0.0,0.43,,,,,,,,,,,,,,,,,,
1627,0,0.0,0.43,,,,,,,,,,,,,,,,,,
1629,0,0.0,0.43,,,,,,,,,,,,,,,,,,
1631,0,0.0,0.43,,,,,,,,,,,,,,,,,,
1633,0,0.0,0.43,,-0.47,0.19,1.01,-1,2,-1,0.51,,,,,,,,,,
1635,0,0.0,0.43,,,,,,,,,,,,,,,,,,
1637,0,0.0,0.43,,,,,,,,,,,,,,,,,,
1639,0,0.0,0.43,,,,,,,,,,,,,,,,,,
1641,0,0.0,0.43,,,,,,,,,,,,,,,,,,
1643,0,0.0,0.43,,-0.17,0.08,0.9,0,1,-2,0.19,2,2040,0,0.0,0.0,0.0,0.0,0,0,0.0
1645,0,0.0,0.43,,,,,,,,,,,,,,,,,,
1647,0,0.0,0.43,,,,,,,,,,,,,,,,,,
1649,0,0.0,0.43,,,,,,,,,,,,,,,,,,
1651,0,0.0,0.44,,,,,,,,,,,,,,,,,,
1653,0,0.0,0.43,,-0.09,0.07,0.81,-1,2,-2,0.11,,,,,,,,,,
1655,0,0.0,0.43,,,,,,,,,,,,,,,,,,
1657,0,0.0,0.43,,,,,,,,,,,,,,,,,,
1659,0,0.0,0.43,,,,,,,,,,,,,,,,,,
1661,0,0.0,0.43,,,,,,,,,,,,,,,,,,
1663,0,0.0,0.43,,-0.36,0.17,0.97,-1,1,-3,0.4,2,2100,0,0.0,0.0,0.0,0.0,0,0,0.0
1665,0,0.01,0.44,,,,,,,,,,,,,,,,,,
1667,0,0.0,0.44,,,,,,,,,,,,,,,,,,
1669,0,0.0,0.44,,,,,,,,,,,,,,,,,,
1671,0,0.0,0.44,,,,,,,,,,,,,,,,,,
1673,0,0.0,0.44,,-0.17,0.02,0.9,-1,-0,-2,0.17,,,,,,,,,,
1675,0,0.0,0.44,,,,,,,,,,,,,,,,,,
1677,0,0.0,0.44,,,,,,,,,,,,,,,,,,
1679,0,0.0,0.45,,,,,,,,,,,,,,,,,,
1681,0,0.0,0.44,,,,,,,,,,,,,,,,,,
1683,0,0.0,0.44,,-0.2,0.09,1.07,-1,2,-2,0.22,2,2040,0,0.0,0.0,0.0,0.0,0,0,0.0
1685,0,0.0,0.44,,,,,,,,,,,,,,,,,,
1687,0,0.0,0.44,,,,,,,,,,,,,,,,,,
1689,0,0.0,0.44,,,,,,,,,,,,,,,,,,
1691,0,0.0,0.44,,,,,,,,,,,,,,,,,,
1693,0,0.0,0.44,,-0.51,0.15,1.2,-0,1,-2,0.53,,,,,,,,,,
1695,0,0.0,0.44,,,,,,,,,,,,,,,,,,
1697,0,0.0,0.44,,,,,,,,,,,,,,,,,,
1699,0,0.0,0.44,,,,,,,,,,,,,,,,,,
1701,0,0.0,0.44,,,,,,,,,,,,,,,,,,
1703,0,0.0,0.45,,-0.11,-0.03,1.01,0,0,-1,0.12,2,2040,0,0.0,0.0,0.0,0.0,0,0,0.0
1705,0,0.0,0.44,,,,,,,,,,,,,,,,,,
1707,0,0.0,0.46,,,,,,,,,,,,,,,,,,
1709,0,0.0,0.45,,,,,,,,,,,,,,,,,,
1711,0,0.0,0.44,,,,,,,,,,,,,,,,,,
1713,0,0.0,0.45,,-0.25,0.03,0.89,-0,2,-1,0.25,,,,,,,,,,
1715,0,0.0,0.45,,,,,,,,,,,,,,,,,,
1717,0,0.0,0.45,,,,,,,,,,,,,,,,,,
1719,0,0.0,0.45,,,,,,,,,,,,,,,,,,
1721,0,0.0,0.45,,,,,,,,,,,,,,,,,,
1723,0,0.0,0.45,,-0.33,0.13,0.98,1,0,-1,0.36,2,2040,0,0.0,0.0,0.0,0.0,0,0,0.0
1725,0,0.0,0.45,,,,,,,,,,,,,,,,,,
1727,0,0.0,0.45,,,,,,,,,,,,,,,,,,
1729,0,0.0,0.45,,,,,,,,,,,,,,,,,,
1731,0,0.0,0.45,,,,,,,,,,,,,,,,,,
1733,0,0.0,0.45,,0.05,0.01,0.78,1,-1,-1,0.05,,,,,,,,,,
1735,0,0.0,0.45,,,,,,,,,,,,,,,,,,
1737,0,0.0,0.46,,,,,,,,,,,,,,,,,,
1739,0,0.0,0.45,,,,,,,,,,,,,,,,,,
1741,0,0.0,0.45,,,,,,,,,,,,,,,,,,
1743,0,0.0,0.45,,-0.09,0.05,0.82,0,0,-1,0.1,2,2040,0,0.0,0.0,0.0,0.0,0,0,0.0
1745,0,0.0,0.45,,,,,,,,,,,,,,,,,,
1747,0,0.0,0.45,,,,,,,,,,,,,,,,,,
1749,0,0.0,0.45,,,,,,,,,,,,,,,,,,
1751,0,0.0,0.44,,,,,,,,,,,,,,,,,,
1753,0,0.0,0.44,,-0.2,0.11,1.04,1,-0,-1,0.23,,,,,,,,,,
1755,0,0.0,0.44,,,,,,,,,,,,,,,,,,
1757,0,0.0,0.44,,,,,,,,,,,,,,,,,,
1759,0,0.0,0.44,,,,,,,,,,,,,,,,,,
1761,0,0.0,0.44,,,,,,,,,,,,,,,,,,
1763,0,0.0,0.44,,-0.05,-0.01,1.02,1,-1,-1,0.06,10,2040,0,0.0,0.0,0.0,0.0,0,0,0.0
1765,0,0.0,0.46,,,,,,,,,,,,,,,,,,
1767,0,0.0,0.44,,,,,,,,,,,,,,,,,,
1769,0,0.0,0.44,,,,,,,,,,,,,,,,,,
1771,0,0.0,0.44,,,,,,,,,,,,,,,,,,
1773,0,0.0,0.44,,-0.37,0.07,1.04,1,0,-1,0.37,,,,,,,,,,
1775,0,0.0,0.44,,,,,,,,,,,,,,,,,,
1777,0,0.0,0.44,,,,,,,,,,,,,,,,,,
1779,0,0.0,0.44,,,,,,,,,,,,,,,,,,
1781,0,0.0,0.44,,,,,,,,,,,,,,,,,,
1783,0,0.0,0.44,,-0.34,0.05,1.06,2,-1,-1,0.34,10,2100,0,0.0,0.0,0.0,0.0,0,0,0.0
1785,0,0.0,0.44,,,,,,,,,,,,,,,,,,
1787,0,0.0,0.44,,,,,,,,,,,,,,,,,,
1789,0,0.0,0.44,,,,,,,,,,,,,,,,,,
1791,0,0.0,0.44,,,,,,,,,,,,,,,,,,
1793,0,0.0,0.45,,-0.06,0.02,0.93,1,-1,-1,0.06,,,,,,,,,,
1795,0,0.0,0.44,,,,,,,,,,,,,,,,,,
1797,0,0.0,0.44,,,,,,,,,,,,,,,,,,
1799,0,0.0,0.44,,,,,,,,,,,,,,,,,,
1801,0,0.0,0.44,,,,,,,,,,,,,,,,,,
1803,0,0.01,0.44,,-0.31,0.11,0.85,1,-1,-1,0.32,10,2040,0,0.0,0.0,0.0,0.0,0,0,0.0
1805,0,0.0,0.44,,,,,,,,,,,,,,,,,,
1807,0,0.0,0.44,,,,,,,,,,,,,,,,,,
1809,0,0.0,0.44,,,,,,,,,,,,,,,,,,
1811,0,0.0,0.44,,,,,,,,,,,,,,,,,,
1813,0,0.0,0.44,,-0.04,0.08,0.98,1,-2,-1,0.09,,,,,,,,,,
1815,0,0.0,0.44,,,,,,,,,,,,,,,,,,
1817,0,0.0,0.44,,,,,,,,,,,,,,,,,,
1819,0,0.0,0.44,,,,,,,,,,,,,,,,,,
1821,0,0.0,0.45,,,,,,,,,,,,,,,,,,
1823,0,0.0,0.45,,0.08,0.05,0.92,0,-1,-1,0.09,10,2100,0,0.0,0.0,0.0,0.0,0,0,0.0
1825,0,0.0,0.45,,,,,,,,,,,,,,,,,,
1827,0,0.0,0.45,,,,,,,,,,,,,,,,,,
1829,0,0.0,0.45,,,,,,,,,,,,,,,,,,
1831,0,0.0,0.45,,,,,,,,,,,,,,,,,,
1833,0,0.0,0.45,,-0.22,0.15,1.01,-0,-1,-1,0.27,,,,,,,,,,
1835,0,0.0,0.45,,,,,,,,,,,,,,,,,,
1837,0,0.0,0.45,,,,,,,,,,,,,,,,,,
1839,0,0.0,0.45,,,,,,,,,,,,,,,,,,
1841,0,0.0,0.45,,,,,,,,,,,,,,,,,,
1843,0,0.0,0.45,,-0.09,-0.01,1.03,0,-1,-0,0.09,10,2100,0,0.0,0.0,0.0,0.0,0,0,0.0
1845,0,0.0,0.45,,,,,,,,,,,,,,,,,,
1847,0,0.0,0.45,,,,,,,,,,,,,,,,,,
1849,0,0.0,0.45,,,,,,,,,,,,,,,,,,
1851,0,0.0,0.46,,,,,,,,,,,,,,,,,,
1853,0,0.0,0.45,,-0.1,0.07,1.16,-1,1,-0,0.12,,,,,,,,,,
1855,0,0.0,0.45,,,,,,,,,,,,,,,,,,
1857,0,0.0,0.45,,,,,,,,,,,,,,,,,,
1859,0,0.0,0.44,,,,,,,,,,,,,,,,,,
1861,0,0.0,0.45,,,,,,,,,,,,,,,,,,
1863,0,0.0,0.44,,-0.47,0.13,1.22,-0,1,-0,0.49,15,2100,0,0.0,0.0,0.0,0.0,0,0,0.0
1865,0,0.0,0.44,,,,,,,,,,,,,,,,,,
1867,0,0.0,0.44,,,,,,,,,,,,,,,,,,
1869,0,0.0,0.44,,,,,,,,,,,,,,,,,,
1871,0,0.0,0.44,,,,,,,,,,,,,,,,,,
1873,0,0.0,0.45,,-0.09,-0.0,1.0,0,1,-0,0.09,,,,,,,,,,
1875,0,0.0,0.45,,,,,,,,,,,,,,,,,,
1877,0,0.0,0.44,,,,,,,,,,,,,,,,,,
1879,0,0.0,0.46,,,,,,,,,,,,,,,,,,
1881,0,0.0,0.45,,,,,,,,,,,,,,,,,,
1883,0,0.0,0.44,,-0.15,0.03,0.83,-0,2,0,0.15,15,2100,0,0.0,0.0,0.0,0.0,0,0,0.0
1885,0,0.0,0.44,,,,,,,,,,,,,,,,,,
1887,0,0.0,0.44,,,,,,,,,,,,,,,,,,
1889,0,0.0,0.45,,,,,,,,,,,,,,,,,,
1891,0,0.0,0.44,,,,,,,,,,,,,,,,,,
1893,0,0.0,0.44,,-0.26,0.15,0.91,-0,0,-1,0.3,,,,,,,,,,
1895,0,0.0,0.44,,,,,,,,,,,,,,,,,,
1897,0,0.0,0.44,,,,,,,,,,,,,,,,,,
1899,0,0.0,0.44,,,,,,,,,,,,,,,,,,
1901,0,0.0,0.44,,,,,,,,,,,,,,,,,,
1903,0,0.0,0.44,,0.05,0.03,0.71,-0,-1,-1,0.06,15,2100,0,0.0,0.0,0.0,0.0,0,0,0.0
1905,0,0.0,0.44,,,,,,,,,,,,,,,,,,
1907,0,0.0,0.45,,,,,,,,,,,,,,,,,,
1909,0,0.0,0.44,,,,,,,,,,,,,,,,,,
1911,0,0.0,0.45,,,,,,,,,,,,,,,,,,
1913,0,0.0,0.45,,-0.05,0.11,0.82,-1,-0,-2,0.12,,,,,,,,,,
1915,0,0.0,0.45,,,,,,,,,,,,,,,,,,
1917,0,0.0,0.45,,,,,,,,,,,,,,,,,,
1919,0,0.0,0.45,,,,,,,,,,,,,,,,,,
1921,0,0.0,0.45,,,,,,,,,,,,,,,,,,
1923,0,0.0,0.45,,-0.15,0.12,1.02,-0,-0,-2,0.19,15,2100,0,0.0,0.0,0.0,0.0,0,0,0.0
1925,0,0.0,0.45,,,,,,,,,,,,,,,,,,
1927,0,0.0,0.45,,,,,,,,,,,,,,,,,,
1929,0,0.0,0.45,,,,,,,,,,,,,,,,,,
1931,0,0.0,0.45,,,,,,,,,,,,,,,,,,
1933,0,0.0,0.45,,-0.04,-0.01,1.08,-0,-1,-1,0.04,,,,,,,,,,
1935,0,0.0,0.47,,,,,,,,,,,,,,,,,,
1937,0,0.0,0.45,,,,,,,,,,,,,,,,,,
1939,0,0.0,0.45,,,,,,,,,,,,,,,,,,
1941,0,0.0,0.45,,,,,,,,,,,,,,,,,,
1943,0,0.0,0.45,,-0.31,0.05,1.13,-0,1,-1,0.32,15,2100,0,0.0,0.0,0.0,0.0,0,0,0.0
1945,0,0.0,0.45,,,,,,,,,,,,,,,,,,
1947,0,0.0,0.46,,,,,,,,,,,,,,,,,,
1949,0,0.0,0.46,,,,,,,,,,,,,,,,,,
1951,0,0.0,0.46,,,,,,,,,,,,,,,,,,
1953,0,0.0,0.46,,-0.36,0.04,1.14,1,1,-0,0.36,,,,,,,,,,
1955,0,0.0,0.45,,,,,,,,,,,,,,,,,,
1957,0,0.0,0.46,,,,,,,,,,,,,,,,,,
1959,0,0.0,0.46,,,,,,,,,,,,,,,,,,
1961,0,0.0,0.46,,,,,,,,,,,,,,,,,,
1963,0,0.0,0.47,,-0.05,0.02,1.02,0,1,0,0.05,15,2040,0,0.0,0.0,0.0,0.0,0,0,0.0
1965,0,0.0,0.46,,,,,,,,,,,,,,,,,,
1967,0,0.0,0.46,,,,,,,,,,,,,,,,,,
1969,0,0.0,0.46,,,,,,,,,,,,,,,,,,
1971,0,0.0,0.46,,,,,,,,,,,,,,,,,,
1973,0,0.0,0.46,,-0.32,0.1,0.86,1,1,0,0.33,,,,,,,,,,
1975,0,0.0,0.46,,,,,,,,,,,,,,,,,,
1977,0,0.0,0.46,,,,,,,,,,,,,,,,,,
1979,0,0.0,0.46,,,,,,,,,,,,,,,,,,
1981,0,0.0,0.46,,,,,,,,,,,,,,,,,,
1983,0,0.0,0.46,,-0.07,0.08,0.93,1,-0,-0,0.1,25,2040,0,0.0,0.0,0.0,0.0,0,0,0.0
1985,0,0.0,0.46,,,,,,,,,,,,,,,,,,
1987,0,0.0,0.46,,,,,,,,,,,,,,,,,,
1989,0,0.0,0.46,,,,,,,,,,,,,,,,,,
1991,0,0.0,0.47,,,,,,,,,,,,,,,,,,
1993,0,0.0,0.46,,0.09,0.06,0.81,0,-0,-0,0.11,,,,,,,,,,
1995,0,0.0,0.46,,,,,,,,,,,,,,,,,,
1997,0,0.0,0.45,,,,,,,,,,,,,,,,,,
1999,0,0.0,0.45,,,,,,,,,,,,,,,,,,
2001,0,0.0,0.45,,,,,,,,,,,,,,,,,,
2003,0,0.0,0.46,,-0.21,0.16,0.94,0,-1,-1,0.27,25,2100,0,0.0,0.0,0.0,0.0,0,0,0.0
2005,0,0.0,0.46,,,,,,,,,,,,,,,,,,
2007,0,0.0,0.46,,,,,,,,,,,,,,,,,,
2009,0,0.0,0.46,,,,,,,,,,,,,,,,,,
2011,0,0.0,0.46,,,,,,,,,,,,,,,,,,
2013,0,0.0,0.46,,-0.11,0.03,0.94,1,-2,-1,0.11,,,,,,,,,,
2015,0,0.0,0.46,,,,,,,,,,,,,,,,,,
2017,0,0.0,0.46,,,,,,,,,,,,,,,,,,
2019,0,0.0,0.46,,,,,,,,,,,,,,,,,,
2021,0,0.0,0.46,,,,,,,,,,,,,,,,,,
2023,0,0.0,0.46,,-0.11,0.07,1.18,0,0,-2,0.13,25,2040,0,0.0,0.0,0.0,0.0,0,0,0.0
2025,0,0.0,0.46,,,,,,,,,,,,,,,,,,
2027,0,0.0,0.46,,,,,,,,,,,,,,,,,,
2029,0,0.0,0.46,,,,,,,,,,,,,,,,,,
2031,0,0.0,0.46,,,,,,,,,,,,,,,,,,
2033,0,0.0,0.46,,-0.45,0.13,1.24,1,-0,-1,0.47,,,,,,,,,,
2035,0,0.0,0.46,,,,,,,,,,,,,,,,,,
2037,0,0.0,0.46,,,,,,,,,,,,,,,,,,
2039,0,0.0,0.47,,,,,,,,,,,,,,,,,,
2041,0,0.0,0.47,,,,,,,,,,,,,,,,,,
2043,0,0.0,0.47,13.42,-0.19,0.02,1.08,1,1,-1,0.19,25,2040,0,0.0,0.0,0.0,0.0,0,0,0.0
2045,0,0.0,0.46,,,,,,,,,,,,,,,,,,
2047,0,0.0,0.47,,,,,,,,,,,,,,,,,,
2049,0,0.0,0.48,,,,,,,,,,,,,,,,,,
2051,0,0.0,0.47,,,,,,,,,,,,,,,,,,
2053,0,0.0,0.47,,-0.21,0.04,1.01,1,2,-0,0.21,,,,,,,,,,
2055,0,0.0,0.47,,,,,,,,,,,,,,,,,,
2057,0,0.0,0.47,,,,,,,,,,,,,,,,,,
2059,0,0.0,0.47,,,,,,,,,,,,,,,,,,
2061,0,0.0,0.46,,,,,,,,,,,,,,,,,,
2063,0,0.0,0.46,,-0.29,0.19,0.95,1,2,-0,0.35,25,2100,0,0.0,0.0,0.0,0.0,0,0,0.0
2065,0,0.0,0.47,,,,,,,,,,,,,,,,,,
2067,0,0.0,0.46,,,,,,,,,,,,,,,,,,
2069,0,0.0,0.46,,,,,,,,,,,,,,,,,,
2071,0,0.0,0.46,,,,,,,,,,,,,,,,,,
2073,0,0.0,0.46,,-0.03,0.08,0.77,1,0,-0,0.08,,,,,,,,,,
2075,0,0.0,0.46,,,,,,,,,,,,,,,,,,
2077,0,0.0,0.47,,,,,,,,,,,,,,,,,,
2079,0,0.0,0.46,,,,,,,,,,,,,,,,,,
2081,0,0.0,0.46,,,,,,,,,,,,,,,,,,
2083,0,0.0,0.46,,-0.03,0.11,0.77,-0,1,-1,0.11,25,2040,0,0.0,0.0,0.0,0.0,0,0,0.0
2085,0,0.0,0.46,,,,,,,,,,,,,,,,,,
2087,0,0.0,0.46,,,,,,,,,,,,,,,,,,
2089,0,0.0,0.46,,,,,,,,,,,,,,,,,,
2091,0,0.0,0.46,,,,,,,,,,,,,,,,,,
2093,0,0.0,0.46,,-0.1,0.2,0.94,-0,0,-1,0.23,,,,,,,,,,
2095,0,0.0,0.47,,,,,,,,,,,,,,,,,,
2097,0,0.0,0.47,,,,,,,,,,,,,,,,,,
2133,0,0.0,0.46,,-0.17,-0.04,1.07,-1,1,-1,0.17,,,,,,,,,,
2135,0,0.0,0.48,,,,,,,,,,,,,,,,,,
2137,0,0.0,0.46,,,,,,,,,,,,,,,,,,
2139,0,0.0,0.46,,,,,,,,,,,,,,,,,,
2141,0,0.0,0.46,,,,,,,,,,,,,,,,,,
2143,0,0.0,0.46,,-0.35,0.02,0.89,-1,1,-1,0.35,28,2040,0,0.0,0.0,0.0,0.0,0,0,0.0
2145,0,0.0,0.46,,,,,,,,,,,,,,,,,,
2147,0,0.0,0.46,,,,,,,,,,,,,,,,,,
2149,0,0.0,0.46,,,,,,,,,,,,,,,,,,
2151,0,0.0,0.46,,,,,,,,,,,,,,,,,,
2153,0,0.0,0.46,,-0.11,-0.04,0.91,1,-0,-0,0.11,,,,,,,,,,
2155,0,0.0,0.46,,,,,,,,,,,,,,,,,,
2157,0,0.0,0.46,,,,,,,,,,,,,,,,,,
2159,0,0.0,0.46,,,,,,,,,,,,,,,,,,
2161,0,0.0,0.46,,,,,,,,,,,,,,,,,,
2163,0,0.0,0.47,,0.12,-0.05,0.73,-0,-1,-0,0.13,28,2100,0,0.0,0.0,0.0,0.0,0,0,0.0
2165,0,0.0,0.46,,,,,,,,,,,,,,,,,,
2167,0,0.0,0.46,,,,,,,,,,,,,,,,,,
2169,0,0.0,0.46,,,,,,,,,,,,,,,,,,
2171,0,0.0,0.46,,,,,,,,,,,,,,,,,,
2173,0,0.0,0.46,,-0.12,0.15,0.78,-0,-2,-1,0.19,,,,,,,,,,
2175,0,0.0,0.47,,,,,,,,,,,,,,,,,,
2177,0,0.0,0.47,,,,,,,,,,,,,,,,,,
2179,0,0.0,0.47,,,,,,,,,,,,,,,,,,
2181,0,0.0,0.47,,,,,,,,,,,,,,,,,,
2183,0,0.0,0.47,,0.05,0.03,0.82,0,-3,-1,0.06,28,2100,0,0.0,0.0,0.0,0.0,0,0,0.0
2185,0,0.0,0.47,,,,,,,,,,,,,,,,,,
2187,0,0.0,0.47,,,,,,,,,,,,,,,,,,
2189,0,0.0,0.47,,,,,,,,,,,,,,,,,,
2191,0,0.0,0.48,,,,,,,,,,,,,,,,,,
2193,0,0.0,0.47,,0.07,-0.02,1.05,-0,-2,-1,0.08,,,,,,,,,,
2195,0,0.0,0.47,,,,,,,,,,,,,,,,,,
2197,0,0.0,0.47,,,,,,,,,,,,,,,,,,
2199,0,0.0,0.47,,,,,,,,,,,,,,,,,,
2201,0,0.0,0.47,,,,,,,,,,,,,,,,,,
2203,0,0.0,0.47,,-0.39,0.03,1.16,0,-3,-1,0.39,28,2040,0,0.0,0.0,0.0,0.0,0,0,0.0
2205,0,0.0,0.47,,,,,,,,,,,,,,,,,,
2207,0,0.0,0.46,,,,,,,,,,,,,,,,,,
2209,0,0.0,0.47,,,,,,,,,,,,,,,,,,
2211,0,0.0,0.47,,,,,,,,,,,,,,,,,,
2213,0,0.0,0.46,,-0.04,-0.03,1.18,1,-3,-0,0.05,,,,,,,,,,
2215,0,0.0,0.47,,,,,,,,,,,,,,,,,,
2217,0,0.0,0.46,,,,,,,,,,,,,,,,,,
2219,0,0.0,0.47,,,,,,,,,,,,,,,,,,
2221,0,0.0,0.47,,,,,,,,,,,,,,,,,,
2223,0,0.0,0.47,,-0.09,0.04,1.08,1,-0,0,0.1,28,2100,0,0.0,0.0,0.0,0.0,0,0,0.0
2225,0,0.0,0.46,,,,,,,,,,,,,,,,,,
2227,0,0.0,0.47,,,,,,,,,,,,,,,,,,
2229,0,0.0,0.46,,,,,,,,,,,,,,,,,,
2231,0,0.0,0.46,,,,,,,,,,,,,,,,,,
2233,0,0.0,0.46,,-0.31,0.1,1.1,1,-0,1,0.32,,,,,,,,,,
2235,0,0.0,0.46,,,,,,,,,,,,,,,,,,
2237,0,0.0,0.46,,,,,,,,,,,,,,,,,,
2239,0,0.0,0.46,,,,,,,,,,,,,,,,,,
2241,0,0.0,0.46,,,,,,,,,,,,,,,,,,
2243,0,0.0,0.46,,0.05,0.01,0.86,2,-1,1,0.05,28,2100,0,0.0,0.0,0.0,0.0,0,0,0.0
2245,0,0.0,0.46,,,,,,,,,,,,,,,,,,
2247,0,0.0,0.46,,,,,,,,,,,,,,,,,,
2249,0,0.0,0.47,,,,,,,,,,,,,,,,,,
2251,0,0.0,0.47,,,,,,,,,,,,,,,,,,
2253,0,0.0,0.47,,0.05,0.16,0.85,1,1,0,0.17,,,,,,,,,,
2255,0,0.0,0.47,,,,,,,,,,,,,,,,,,
2257,0,0.0,0.47,,,,,,,,,,,,,,,,,,
2259,0,0.0,0.47,,,,,,,,,,,,,,,,,,
2261,0,0.0,0.47,,,,,,,,,,,,,,,,,,
2263,0,0.0,0.47,,-0.16,0.21,0.97,1,-0,-1,0.26,28,2040,0,0.0,0.0,0.0,0.0,0,0,0.0
2265,0,0.0,0.47,,,,,,,,,,,,,,,,,,
2267,0,0.0,0.47,,,,,,,,,,,,,,,,,,
2269,0,0.0,0.47,,,,,,,,,,,,,,,,,,
2271,0,0.0,0.47,,,,,,,,,,,,,,,,,,
2273,0,0.0,0.48,,0.12,0.09,0.84,0,0,-1,0.15,,,,,,,,,,
2275,0,0.0,0.48,,,,,,,,,,,,,,,,,,
2277,0,0.0,0.49,,,,,,,,,,,,,,,,,,
2279,0,0.0,0.47,,,,,,,,,,,,,,,,,,
2281,0,0.0,0.47,,,,,,,,,,,,,,,,,,
2283,0,0.0,0.47,,-0.14,0.16,0.94,-1,1,-1,0.22,32,2100,0,0.0,0.0,0.0,0.0,0,0,0.0
2285,0,0.0,0.47,,,,,,,,,,,,,,,,,,
2287,0,0.0,0.47,,,,,,,,,,,,,,,,,,
2289,0,0.0,0.47,,,,,,,,,,,,,,,,,,
2291,0,0.0,0.47,,,,,,,,,,,,,,,,,,
2293,0,0.0,0.47,,-0.33,0.19,1.13,-0,1,-1,0.39,,,,,,,,,,
2295,0,0.0,0.47,,,,,,,,,,,,,,,,,,
2297,0,0.0,0.46,,,,,,,,,,,,,,,,,,
2299,0,0.0,0.47,,,,,,,,,,,,,,,,,,
2301,0,0.0,0.47,,,,,,,,,,,,,,,,,,
2303,0,0.0,0.47,,-0.1,0.03,1.05,-1,1,-1,0.1,32,2100,0,0.0,0.0,0.0,0.0,0,0,0.0
2305,0,0.0,0.48,,,,,,,,,,,,,,,,,,
2307,0,0.0,0.47,,,,,,,,,,,,,,,,,,
2309,0,0.0,0.47,,,,,,,,,,,,,,,,,,
2311,0,0.0,0.46,,,,,,,,,,,,,,,,,,
2313,0,0.0,0.47,,-0.31,0.07,0.95,-1,2,-0,0.32,,,,,,,,,,
2315,0,0.0,0.47,,,,,,,,,,,,,,,,,,
2317,0,0.0,0.46,,,,,,,,,,,,,,,,,,
2319,0,0.0,0.46,,,,,,,,,,,,,,,,,,
2321,0,0.0,0.46,,,,,,,,,,,,,,,,,,
2323,0,0.0,0.46,,-0.15,0.06,0.98,0,-0,-0,0.16,32,2040,0,0.0,0.0,0.0,0.0,0,0,0.0
2325,0,0.0,0.46,,,,,,,,,,,,,,,,,,
2327,0,0.0,0.46,,,,,,,,,,,,,,,,,,
2329,0,0.0,0.47,,,,,,,,,,,,,,,,,,
2331,0,0.0,0.46,,,,,,,,,,,,,,,,,,
2333,0,0.0,0.48,,0.14,0.02,0.75,-1,-1,0,0.14,,,,,,,,,,
2335,0,0.0,0.47,,,,,,,,,,,,,,,,,,
2337,0,0.0,0.47,,,,,,,,,,,,,,,,,,
2339,0,0.0,0.47,,,,,,,,,,,,,,,,,,
2341,0,0.0,0.47,,,,,,,,,,,,,,,,,,
2343,0,0.0,0.47,,-0.04,0.14,0.79,-1,-1,-0,0.15,32,2100,0,0.0,0.0,0.0,0.0,0,0,0.0
2345,0,0.0,0.47,,,,,,,,,,,,,,,,,,
2347,0,0.0,0.48,,,,,,,,,,,,,,,,,,
2349,0,0.0,0.48,,,,,,,,,,,,,,,,,,
2351,0,0.0,0.48,,,,,,,,,,,,,,,,,,
2353,0,0.0,0.48,,0.1,0.07,0.8,-0,-3,-1,0.13,,,,,,,,,,
2355,0,0.0,0.48,,,,,,,,,,,,,,,,,,
2357,0,0.0,0.48,,,,,,,,,,,,,,,,,,
2359,0,0.0,0.48,,,,,,,,,,,,,,,,,,
2361,0,0.0,0.48,,,,,,,,,,,,,,,,,,
2363,0,0.0,0.48,,0.18,-0.02,1.01,-1,-2,-1,0.18,32,2040,0,0.0,0.0,0.0,0.0,0,0,0.0
2365,0,0.0,0.47,,,,,,,,,,,,,,,,,,
2367,0,0.0,0.47,,,,,,,,,,,,,,,,,,
2369,0,0.0,0.47,,,,,,,,,,,,,,,,,,
2371,0,0.0,0.47,,,,,,,,,,,,,,,,,,
2373,0,0.0,0.47,,-0.32,0.05,1.16,-1,-2,-0,0.32,,,,,,,,,,
2375,0,0.0,0.47,,,,,,,,,,,,,,,,,,
2377,0,0.0,0.47,,,,,,,,,,,,,,,,,,
2379,0,0.0,0.47,,,,,,,,,,,,,,,,,,
2381,0,0.0,0.47,,,,,,,,,,,,,,,,,,
2383,0,0.0,0.47,,-0.06,-0.05,1.19,0,-3,0,0.08,28,2040,0,0.0,0.0,0.0,0.0,0,0,0.0
2385,0,0.0,0.47,,,,,,,,,,,,,,,,,,
2387,0,0.0,0.47,,,,,,,,,,,,,,,,,,
2389,0,0.0,0.47,,,,,,,,,,,,,,,,,,
2391,0,0.0,0.47,,,,,,,,,,,,,,,,,,
2393,0,0.0,0.47,,-0.04,-0.04,1.09,-0,-1,1,0.06,,,,,,,,,,
2395,0,0.0,0.47,,,,,,,,,,,,,,,,,,
2397,0,0.0,0.47,,,,,,,,,,,,,,,,,,
2399,0,0.0,0.47,,,,,,,,,,,,,,,,,,
2401,0,0.0,0.46,,,,,,,,,,,,,,,,,,
2403,0,0.0,0.47,,-0.18,0.04,1.04,1,-2,1,0.19,28,2100,0,0.0,0.0,0.0,0.0,0,0,0.0
2405,0,0.0,0.47,,,,,,,,,,,,,,,,,,
2407,0,0.0,0.47,,,,,,,,,,,,,,,,,,
2409,0,0.0,0.46,,,,,,,,,,,,,,,,,,
2411,0,0.0,0.47,,,,,,,,,,,,,,,,,,
2413,0,0.0,0.47,,0.18,-0.09,0.77,1,-4,2,0.2,,,,,,,,,,
2415,0,0.0,0.47,,,,,,,,,,,,,,,,,,
2417,0,0.0,0.47,,,,,,,,,,,,,,,,,,
2419,0,0.0,0.48,,,,,,,,,,,,,,,,,,
2421,0,0.0,0.47,,,,,,,,,,,,,,,,,,
2423,0,0.0,0.47,,0.27,0.06,0.81,0,-2,1,0.27,28,2100,0,0.0,0.0,0.0,0.0,0,0,0.0
2425,0,0.0,0.47,,,,,,,,,,,,,,,,,,
2427,0,0.0,0.47,,,,,,,,,,,,,,,,,,
2429,0,0.0,0.47,,,,,,,,,,,,,,,,,,
2431,0,0.0,0.47,,,,,,,,,,,,,,,,,,
2433,0,0.0,0.47,,0.05,0.18,0.95,1,-4,0,0.19,,,,,,,,,,
2435,0,0.0,0.47,,,,,,,,,,,,,,,,,,
2437,0,0.0,0.47,,,,,,,,,,,,,,,,,,
2439,0,0.0,0.48,,,,,,,,,,,,,,,,,,
2441,0,0.0,0.48,,,,,,,,,,,,,,,,,,
2443,0,0.0,0.48,,0.35,0.03,0.88,0,-4,0,0.35,28,2100,0,0.0,0.0,0.0,0.0,0,0,0.0
2445,0,0.0,0.48,,,,,,,,,,,,,,,,,,
2447,0,0.0,0.49,,,,,,,,,,,,,,,,,,
2449,0,0.0,0.47,,,,,,,,,,,,,,,,,,
2451,0,0.0,0.48,,,,,,,,,,,,,,,,,,
2453,0,0.0,0.47,,0.09,0.07,1.1,-0,-2,0,0.11,,,,,,,,,,
2455,0,0.0,0.47,,,,,,,,,,,,,,,,,,
2457,0,0.0,0.47,,,,,,,,,,,,,,,,,,
2459,0,0.0,0.47,,,,,,,,,,,,,,,,,,
2461,0,0.0,0.47,,,,,,,,,,,,,,,,,,
2463,0,0.0,0.46,,-0.18,0.09,1.33,1,-1,1,0.2,28,2100,0,0.0,0.0,0.0,0.0,0,0,0.0
2465,0,0.0,0.47,,,,,,,,,,,,,,,,,,
2467,0,0.0,0.47,,,,,,,,,,,,,,,,,,
2469,0,0.0,0.47,,,,,,,,,,,,,,,,,,
2471,0,0.0,0.47,,,,,,,,,,,,,,,,,,
2473,0,0.0,0.47,,0.1,-0.06,1.15,1,-1,2,0.11,,,,,,,,,,
2475,0,0.0,0.49,,,,,,,,,,,,,,,,,,
2477,0,0.0,0.48,,,,,,,,,,,,,,,,,,
2479,0,0.0,0.48,,,,,,,,,,,,,,,,,,
2481,0,0.0,0.48,,,,,,,,,,,,,,,,,,
2483,0,0.0,0.48,,-0.08,0.04,1.05,0,1,2,0.09,28,2040,0,0.0,0.0,0.0,0.0,0,0,0.0
2485,0,0.0,0.48,,,,,,,,,,,,,,,,,,
2487,0,0.0,0.48,,,,,,,,,,,,,,,,,,
2489,0,0.0,0.48,,,,,,,,,,,,,,,,,,
2491,0,0.0,0.48,,,,,,,,,,,,,,,,,,
2493,0,0.0,0.48,,-0.09,0.1,1.03,1,2,2,0.13,,,,,,,,,,
2495,0,0.0,0.48,,,,,,,,,,,,,,,,,,
2497,0,0.0,0.48,,,,,,,,,,,,,,,,,,
2499,0,0.0,0.48,,,,,,,,,,,,,,,,,,
2501,0,0.0,0.48,,,,,,,,,,,,,,,,,,
2503,0,0.0,0.5,,0.11,0.02,0.94,1,3,1,0.11,28,2100,0,0.0,0.0,0.0,0.0,0,0,0.0
2505,0,0.0,0.49,,,,,,,,,,,,,,,,,,
2507,0,0.0,0.49,,,,,,,,,,,,,,,,,,
2509,0,0.0,0.49,,,,,,,,,,,,,,,,,,
2511,0,0.0,0.48,,,,,,,,,,,,,,,,,,
2513,0,0.0,0.49,,-0.18,0.16,0.79,0,4,0,0.24,,,,,,,,,,
2515,0,0.0,0.49,,,,,,,,,,,,,,,,,,
2517,0,0.0,0.49,,,,,,,,,,,,,,,,,,
2519,0,0.0,0.49,,,,,,,,,,,,,,,,,,
2521,0,0.0,0.48,,,,,,,,,,,,,,,,,,
2523,0,0.0,0.49,,-0.18,0.21,0.9,1,3,-0,0.28,28,2100,0,0.0,0.0,0.0,0.0,0,0,0.0
2525,0,0.0,0.48,,,,,,,,,,,,,,,,,,
2527,0,0.0,0.49,,,,,,,,,,,,,,,,,,
2529,0,0.0,0.48,,,,,,,,,,,,,,,,,,
2531,0,0.0,0.48,,,,,,,,,,,,,,,,,,
2533,0,0.0,0.49,,0.04,0.18,0.81,0,3,-1,0.18,,,,,,,,,,
2535,0,0.0,0.48,,,,,,,,,,,,,,,,,,
2537,0,0.0,0.48,,,,,,,,,,,,,,,,,,
2539,0,0.0,0.48,,,,,,,,,,,,,,,,,,
2541,0,0.0,0.48,,,,,,,,,,,,,,,,,,
2543,0,0.0,0.48,,-0.29,0.33,0.79,-0,1,-1,0.44,52,2040,0,0.0,0.0,0.0,0.0,0,0,0.0
2545,0,0.0,0.48,,,,,,,,,,,,,,,,,,
2547,0,0.0,0.48,,,,,,,,,,,,,,,,,,
2549,0,0.0,0.48,,,,,,,,,,,,,,,,,,
2551,0,0.0,0.48,,,,,,,,,,,,,,,,,,
2553,0,0.0,0.48,,0.02,0.19,0.84,0,-2,-1,0.19,,,,,,,,,,
2555,0,0.0,0.48,,,,,,,,,,,,,,,,,,
2557,0,0.0,0.48,,,,,,,,,,,,,,,,,,
2559,0,0.0,0.48,,,,,,,,,,,,,,,,,,
2561,0,0.0,0.49,,,,,,,,,,,,,,,,,,
2563,0,0.0,0.48,,0.1,0.16,0.85,-1,-1,-0,0.19,52,2100,0,0.0,0.0,0.0,0.0,0,0,0.0
2565,0,0.0,0.48,,,,,,,,,,,,,,,,,,
2567,0,0.0,0.48,,,,,,,,,,,,,,,,,,
2569,0,0.0,0.48,,,,,,,,,,,,,,,,,,
2571,0,0.0,0.48,,,,,,,,,,,,,,,,,,
2573,0,0.0,0.48,,-0.17,0.27,1.03,-2,-3,-0,0.32,,,,,,,,,,
2575,0,0.0,0.48,,,,,,,,,,,,,,,,,,
2577,0,0.0,0.49,,,,,,,,,,,,,,,,,,
2579,0,0.0,0.49,,,,,,,,,,,,,,,,,,
2581,0,0.0,0.49,,,,,,,,,,,,,,,,,,
2583,0,0.0,0.49,,0.04,0.06,0.99,-2,-4,0,0.07,52,2100,0,0.0,0.0,0.0,0.0,0,0,0.0
2585,0,0.0,0.49,,,,,,,,,,,,,,,,,,
2587,0,0.0,0.49,,,,,,,,,,,,,,,,,,
2589,0,0.0,0.5,,,,,,,,,,,,,,,,,,
2591,0,0.0,0.49,,,,,,,,,,,,,,,,,,
2593,0,0.0,0.49,,0.0,0.1,1.19,-3,-3,0,0.1,,,,,,,,,,
2595,0,0.0,0.49,,,,,,,,,,,,,,,,,,
2597,0,0.0,0.49,,,,,,,,,,,,,,,,,,
2599,0,0.0,0.49,,,,,,,,,,,,,,,,,,
2601,0,0.0,0.49,,,,,,,,,,,,,,,,,,
2603,0,0.0,0.49,,-0.18,0.08,1.24,-2,-3,0,0.2,52,2040,0,0.0,0.0,0.0,0.0,0,0,0.0
2605,0,0.0,0.49,,,,,,,,,,,,,,,,,,
2607,0,0.0,0.49,,,,,,,,,,,,,,,,,,
2609,0,0.0,0.49,,,,,,,,,,,,,,,,,,
2611,0,0.0,0.49,,,,,,,,,,,,,,,,,,
2613,0,0.0,0.5,,0.2,-0.13,1.06,-2,-3,-0,0.24,,,,,,,,,,
2615,0,0.0,0.49,,,,,,,,,,,,,,,,,,
2617,0,0.0,0.51,,,,,,,,,,,,,,,,,,
2619,0,0.0,0.5,,,,,,,,,,,,,,,,,,
2621,0,0.0,0.5,,,,,,,,,,,,,,,,,,
2623,0,0.0,0.5,,0.1,-0.12,0.94,-2,-2,0,0.16,52,2100,0,0.0,0.0,0.0,0.0,0,0,0.0
2625,0,0.0,0.5,,,,,,,,,,,,,,,,,,
2627,0,0.0,0.5,,,,,,,,,,,,,,,,,,
2629,0,0.0,0.5,,,,,,,,,,,,,,,,,,
2631,0,0.0,0.5,,,,,,,,,,,,,,,,,,
2633,0,0.0,0.5,,0.01,-0.05,1.09,-1,-2,-0,0.05,,,,,,,,,,
2635,0,0.0,0.49,,,,,,,,,,,,,,,,,,
2637,0,0.0,0.49,,,,,,,,,,,,,,,,,,
2639,0,0.0,0.49,,,,,,,,,,,,,,,,,,
2641,0,0.0,0.49,,,,,,,,,,,,,,,,,,
2643,0,0.0,0.49,,0.27,-0.15,1.0,-1,-2,-0,0.31,25,2100,0,0.0,0.0,0.0,0.0,0,0,0.0
2645,0,0.0,0.5,,,,,,,,,,,,,,,,,,
2647,0,0.0,0.49,,,,,,,,,,,,,,,,,,
2649,0,0.0,0.49,,,,,,,,,,,,,,,,,,
2651,0,0.0,0.49,,,,,,,,,,,,,,,,,,
2653,0,0.0,0.49,,0.04,-0.13,1.06,-0,-0,-1,0.14,,,,,,,,,,
2655,0,0.0,0.49,,,,,,,,,,,,,,,,,,
2657,0,0.0,0.49,,,,,,,,,,,,,,,,,,
2659,0,0.0,0.49,,,,,,,,,,,,,,,,,,
2661,0,0.0,0.49,,,,,,,,,,,,,,,,,,
2663,0,0.0,0.49,,-0.07,-0.11,1.19,1,1,-0,0.13,25,2100,0,0.0,0.0,0.0,0.0,0,0,0.0
2665,0,0.0,0.49,,,,,,,,,,,,,,,,,,
2667,0,0.0,0.49,,,,,,,,,,,,,,,,,,
2669,0,0.0,0.5,,,,,,,,,,,,,,,,,,
2671,0,0.0,0.5,,,,,,,,,,,,,,,,,,
2673,0,0.0,0.51,,0.07,-0.16,1.13,2,2,0,0.17,,,,,,,,,,
2675,0,0.0,0.5,,,,,,,,,,,,,,,,,,
2677,0,0.0,0.5,,,,,,,,,,,,,,,,,,
2679,0,0.0,0.5,,,,,,,,,,,,,,,,,,
2681,0,0.0,0.5,,,,,,,,,,,,,,,,,,
2683,0,0.0,0.5,,-0.24,-0.0,1.03,2,3,1,0.24,25,2100,0,0.0,0.0,0.0,0.0,0,0,0.0
2685,0,0.0,0.5,,,,,,,,,,,,,,,,,,
2687,0,0.0,0.5,,,,,,,,,,,,,,,,,,
2689,0,0.0,0.5,,,,,,,,,,,,,,,,,,
2691,0,0.0,0.5,,,,,,,,,,,,,,,,,,
2693,0,0.0,0.5,,-0.15,-0.01,0.97,4,2,0,0.15,,,,,,,,,,
2695,0,0.0,0.5,,,,,,,,,,,,,,,,,,
2697,0,0.0,0.5,,,,,,,,,,,,,,,,,,
2699,0,0.0,0.5,,,,,,,,,,,,,,,,,,
2701,0,0.0,0.52,,,,,,,,,,,,,,,,,,
2703,0,0.0,0.51,,0.12,0.09,0.82,3,2,0,0.15,25,2100,0,0.0,0.0,0.0,0.0,0,0,0.0
2705,0,0.0,0.51,,,,,,,,,,,,,,,,,,
2707,0,0.0,0.51,,,,,,,,,,,,,,,,,,
2709,0,0.0,0.51,,,,,,,,,,,,,,,,,,
2711,0,0.0,0.51,,,,,,,,,,,,,,,,,,
2713,0,0.0,0.51,,-0.21,0.26,0.81,2,1,-1,0.34,,,,,,,,,,
2715,0,0.0,0.51,,,,,,,,,,,,,,,,,,
2717,0,0.0,0.51,,,,,,,,,,,,,,,,,,
2719,0,0.0,0.51,,,,,,,,,,,,,,,,,,
2721,0,0.0,0.51,,,,,,,,,,,,,,,,,,
2723,0,0.0,0.51,,0.08,0.15,0.79,3,-0,-1,0.16,25,2100,0,0.0,0.0,0.0,0.0,0,0,0.0
2725,0,0.0,0.51,,,,,,,,,,,,,,,,,,
2727,0,0.0,0.51,,,,,,,,,,,,,,,,,,
2729,0,0.0,0.52,,,,,,,,,,,,,,,,,,
2731,0,0.0,0.51,,,,,,,,,,,,,,,,,,
2733,0,0.0,0.5,,0.15,0.17,0.77,1,1,-0,0.22,,,,,,,,,,
2735,0,0.0,0.51,,,,,,,,,,,,,,,,,,
2737,0,0.0,0.5,,,,,,,,,,,,,,,,,,
2739,0,0.0,0.5,,,,,,,,,,,,,,,,,,
2741,0,0.0,0.5,,,,,,,,,,,,,,,,,,
2743,0,0.0,0.5,,-0.25,0.38,1.02,-0,1,-0,0.46,25,2100,0,0.0,0.0,0.0,0.0,0,0,0.0
2745,0,0.0,0.5,,,,,,,,,,,,,,,,,,
2747,0,0.0,0.5,,,,,,,,,,,,,,,,,,
2749,0,0.0,0.5,,,,,,,,,,,,,,,,,,
2751,0,0.0,0.5,,,,,,,,,,,,,,,,,,
2753,0,0.0,0.5,,-0.12,0.14,0.99,-0,-1,0,0.18,,,,,,,,,,
2755,0,0.0,0.5,,,,,,,,,,,,,,,,,,
2757,0,0.0,0.5,,,,,,,,,,,,,,,,,,
2759,0,0.0,0.51,,,,,,,,,,,,,,,,,,
2761,0,0.0,0.5,,,,,,,,,,,,,,,,,,
2763,0,0.0,0.5,,-0.15,0.16,1.1,-2,1,1,0.22,25,2040,0,0.0,0.0,0.0,0.0,0,0,0.0
2765,0,0.0,0.51,,,,,,,,,,,,,,,,,,
2767,0,0.0,0.5,,,,,,,,,,,,,,,,,,
2769,0,0.0,0.51,,,,,,,,,,,,,,,,,,
2771,0,0.0,0.5,,,,,,,,,,,,,,,,,,
2773,0,0.0,0.5,,-0.33,0.31,1.12,-2,-0,1,0.45,,,,,,,,,,
2775,0,0.0,0.51,,,,,,,,,,,,,,,,,,
2777,0,0.0,0.51,,,,,,,,,,,,,,,,,,
2779,0,0.0,0.51,,,,,,,,,,,,,,,,,,
2781,0,0.0,0.51,,,,,,,,,,,,,,,,,,
2783,0,0.0,0.51,,0.07,0.06,0.91,-1,-0,0,0.09,25,2040,0,0.0,0.0,0.0,0.0,0,0,0.0
2785,0,0.0,0.51,,,,,,,,,,,,,,,,,,
2787,0,0.0,0.52,,,,,,,,,,,,,,,,,,
2789,0,0.0,0.51,,,,,,,,,,,,,,,,,,
2791,0,0.0,0.51,,,,,,,,,,,,,,,,,,
2793,0,0.0,0.51,,-0.0,0.12,0.8,-3,0,-1,0.12,,,,,,,,,,
2795,0,0.0,0.51,,,,,,,,,,,,,,,,,,
2797,0,0.0,0.52,,,,,,,,,,,,,,,,,,
2799,0,0.0,0.52,,,,,,,,,,,,,,,,,,
2801,0,0.0,0.51,,,,,,,,,,,,,,,,,,
2803,0,0.0,0.51,,-0.1,0.26,0.94,-2,-1,-1,0.28,25,2100,0,0.0,0.0,0.0,0.0,0,0,0.0
2805,0,0.0,0.52,,,,,,,,,,,,,,,,,,
2807,0,0.0,0.52,,,,,,,,,,,,,,,,,,
2809,0,0.0,0.52,,,,,,,,,,,,,,,,,,
2811,0,0.0,0.52,,,,,,,,,,,,,,,,,,
2813,0,0.0,0.52,,0.21,0.0,0.89,-2,-3,-2,0.21,,,,,,,,,,
2815,0,0.0,0.53,,,,,,,,,,,,,,,,,,
2817,0,0.0,0.52,,,,,,,,,,,,,,,,,,
2819,0,0.0,0.52,,,,,,,,,,,,,,,,,,
2821,0,0.0,0.52,,,,,,,,,,,,,,,,,,
2823,0,0.0,0.52,,0.05,-0.02,0.92,-2,-2,-2,0.06,25,2040,0,0.0,0.0,0.0,0.0,0,0,0.0
2825,0,0.0,0.52,,,,,,,,,,,,,,,,,,
2827,0,0.0,0.52,,,,,,,,,,,,,,,,,,
2829,0,0.0,0.52,,,,,,,,,,,,,,,,,,
2831,0,0.0,0.51,,,,,,,,,,,,,,,,,,
2833,0,0.0,0.51,,0.0,-0.03,1.15,-1,-2,-1,0.03,,,,,,,,,,
2835,0,0.0,0.51,,,,,,,,,,,,,,,,,,
2837,0,0.0,0.51,,,,,,,,,,,,,,,,,,
2839,0,0.0,0.51,,,,,,,,,,,,,,,,,,
2841,0,0.0,0.51,,,,,,,,,,,,,,,,,,
2843,0,0.0,0.52,,0.1,-0.11,1.16,-0,-1,0,0.15,22,2100,0,0.0,0.0,0.0,0.0,0,0,0.0
2845,0,0.0,0.51,,,,,,,,,,,,,,,,,,
2847,0,0.0,0.51,,,,,,,,,,,,,,,,,,
2849,0,0.0,0.5,,,,,,,,,,,,,,,,,,
2851,0,0.0,0.51,,,,,,,,,,,,,,,,,,
2853,0,0.0,0.51,,-0.23,-0.03,1.18,0,0,0,0.23,,,,,,,,,,
2855,0,0.0,0.5,,,,,,,,,,,,,,,,,,
2857,0,0.0,0.51,,,,,,,,,,,,,,,,,,
2859,0,0.0,0.5,,,,,,,,,,,,,,,,,,
2861,0,0.0,0.5,,,,,,,,,,,,,,,,,,
2863,0,0.0,0.5,,-0.18,-0.1,1.09,2,1,1,0.21,22,2100,0,0.0,0.0,0.0,0.0,0,0,0.0
2865,0,0.0,0.51,,,,,,,,,,,,,,,,,,
2867,0,0.0,0.51,,,,,,,,,,,,,,,,,,
2869,0,0.0,0.51,,,,,,,,,,,,,,,,,,
2871,0,0.0,0.52,,,,,,,,,,,,,,,,,,
2873,0,0.0,0.51,,0.03,-0.09,1.06,2,2,0,0.1,,,,,,,,,,
2875,0,0.0,0.51,,,,,,,,,,,,,,,,,,
2877,0,0.0,0.51,,,,,,,,,,,,,,,,,,
2879,0,0.0,0.51,,,,,,,,,,,,,,,,,,
2881,0,0.0,0.5,,,,,,,,,,,,,,,,,,
2883,0,0.0,0.5,,-0.28,0.06,0.92,2,1,-1,0.29,22,2040,0,0.0,0.0,0.0,0.0,0,0,0.0
2885,0,0.0,0.51,,,,,,,,,,,,,,,,,,
2887,0,0.0,0.51,,,,,,,,,,,,,,,,,,
2889,0,0.0,0.5,,,,,,,,,,,,,,,,,,
2891,0,0.0,0.51,,,,,,,,,,,,,,,,,,
2893,0,0.0,0.5,,0.05,0.04,0.88,3,-0,-1,0.06,,,,,,,,,,
2895,0,0.0,0.5,,,,,,,,,,,,,,,,,,
2897,0,0.0,0.5,,,,,,,,,,,,,,,,,,
2899,0,0.0,0.52,,,,,,,,,,,,,,,,,,
2901,0,0.0,0.51,,,,,,,,,,,,,,,,,,
2903,0,0.0,0.51,,0.1,0.05,0.78,2,0,-1,0.11,22,2100,0,0.0,0.0,0.0,0.0,0,0,0.0
2905,0,0.0,0.51,,,,,,,,,,,,,,,,,,
2907,0,0.0,0.51,,,,,,,,,,,,,,,,,,
2909,0,0.0,0.51,,,,,,,,,,,,,,,,,,
2911,0,0.0,0.51,,,,,,,,,,,,,,,,,,
2913,0,0.0,0.51,,-0.12,0.22,0.91,2,-1,-2,0.24,,,,,,,,,,
2915,0,0.0,0.51,,,,,,,,,,,,,,,,,,
2917,0,0.0,0.51,,,,,,,,,,,,,,,,,,
2919,0,0.0,0.51,,,,,,,,,,,,,,,,,,
2921,0,0.0,0.51,,,,,,,,,,,,,,,,,,
2923,0,0.0,0.51,,0.06,0.06,0.88,1,-3,-1,0.08,22,2100,0,0.0,0.0,0.0,0.0,0,0,0.0
2925,0,0.0,0.51,,,,,,,,,,,,,,,,,,
2927,0,0.0,0.51,,,,,,,,,,,,,,,,,,
2929,0,0.0,0.52,,,,,,,,,,,,,,,,,,
2931,0,0.0,0.52,,,,,,,,,,,,,,,,,,
2933,0,0.0,0.52,,0.01,0.12,1.08,0,-1,-0,0.12,,,,,,,,,,
2935,0,0.0,0.52,,,,,,,,,,,,,,,,,,
2937,0,0.0,0.52,,,,,,,,,,,,,,,,,,
2939,0,0.0,0.51,,,,,,,,,,,,,,,,,,
2941,0,0.0,0.52,,,,,,,,,,,,,,,,,,
2943,0,0.0,0.52,,-0.21,0.15,1.18,1,-2,1,0.26,22,2100,0,0.0,0.0,0.0,0.0,0,0,0.0
2945,0,0.0,0.52,,,,,,,,,,,,,,,,,,
2947,0,0.0,0.52,,,,,,,,,,,,,,,,,,
2949,0,0.0,0.52,,,,,,,,,,,,,,,,,,
2951,0,0.0,0.52,,,,,,,,,,,,,,,,,,
2953,0,0.0,0.52,,0.13,0.08,0.98,0,-2,2,0.15,,,,,,,,,,
2955,0,0.0,0.52,,,,,,,,,,,,,,,,,,
2957,0,0.0,0.53,,,,,,,,,,,,,,,,,,
2959,0,0.0,0.52,,,,,,,,,,,,,,,,,,
2961,0,0.0,0.53,,,,,,,,,,,,,,,,,,
2963,0,0.0,0.53,,0.01,0.1,0.93,-1,-1,2,0.1,22,2100,0,0.0,0.0,0.0,0.0,0,0,0.0
2965,0,0.0,0.53,,,,,,,,,,,,,,,,,,
2967,0,0.0,0.53,,,,,,,,,,,,,,,,,,
2969,0,0.0,0.53,,,,,,,,,,,,,,,,,,
2971,0,0.0,0.52,,,,,,,,,,,,,,,,,,
2973,0,0.0,0.53,,-0.06,0.15,1.04,-0,-2,1,0.17,,,,,,,,,,
2975,0,0.0,0.53,,,,,,,,,,,,,,,,,,
2977,0,0.0,0.52,,,,,,,,,,,,,,,,,,
2979,0,0.0,0.52,,,,,,,,,,,,,,,,,,
2981,0,0.0,0.52,,,,,,,,,,,,,,,,,,
2983,0,0.0,0.52,,0.25,0.09,0.91,-1,-2,0,0.26,18,2100,0,0.0,0.0,0.0,0.0,0,0,0.0
2985,0,0.0,0.53,,,,,,,,,,,,,,,,,,
2987,0,0.0,0.52,,,,,,,,,,,,,,,,,,
2989,0,0.0,0.52,,,,,,,,,,,,,,,,,,
2991,0,0.0,0.52,,,,,,,,,,,,,,,,,,
2993,0,0.0,0.52,,0.0,0.11,0.89,-2,-1,-0,0.11,,,,,,,,,,
2995,0,0.0,0.51,,,,,,,,,,,,,,,,,,
2997,0,0.0,0.51,,,,,,,,,,,,,,,,,,
2999,0,0.0,0.51,,,,,,,,,,,,,,,,,,
3001,0,0.0,0.51,,,,,,,,,,,,,,,,,,
3003,0,0.0,0.51,,-0.0,0.02,1.11,-1,-2,-1,0.03,18,2100,0,0.0,0.0,0.0,0.0,0,0,0.0
3005,0,0.0,0.51,,,,,,,,,,,,,,,,,,
3007,0,0.0,0.51,,,,,,,,,,,,,,,,,,
3009,0,0.0,0.51,,,,,,,,,,,,,,,,,,
3011,0,0.0,0.51,,,,,,,,,,,,,,,,,,
3013,0,0.0,0.53,,0.16,-0.01,1.03,-1,-1,-0,0.16,,,,,,,,,,
3015,0,0.0,0.52,,,,,,,,,,,,,,,,,,
3017,0,0.0,0.52,,,,,,,,,,,,,,,,,,
3019,0,0.0,0.51,,,,,,,,,,,,,,,,,,
3021,0,0.0,0.51,,,,,,,,,,,,,,,,,,
3023,0,0.0,0.51,,-0.1,0.05,1.05,-1,-1,0,0.12,18,2160,0,0.0,0.0,0.0,0.0,0,0,0.0
3025,0,0.0,0.51,,,,,,,,,,,,,,,,,,
3027,0,0.0,0.51,,,,,,,,,,,,,,,,,,
3029,0,0.0,0.51,,,,,,,,,,,,,,,,,,
3031,0,0.0,0.51,,,,,,,,,,,,,,,,,,
3033,0,0.0,0.51,,0.04,-0.06,0.97,0,-1,0,0.07,,,,,,,,,,
3035,0,0.0,0.51,,,,,,,,,,,,,,,,,,
3037,0,0.0,0.51,,,,,,,,,,,,,,,,,,
3039,0,0.0,0.51,,,,,,,,,,,,,,,,,,
3041,0,0.0,0.53,,,,,,,,,,,,,,,,,,
3043,0,0.0,0.52,13.39,0.17,0.02,1.03,-0,0,0,0.17,18,2100,0,0.0,0.0,0.0,0.0,0,0,0.0
3045,0,0.0,0.52,,,,,,,,,,,,,,,,,,
3047,0,0.0,0.52,,,,,,,,,,,,,,,,,,
3049,0,0.0,0.52,,,,,,,,,,,,,,,,,,
3051,0,0.0,0.52,,,,,,,,,,,,,,,,,,
3053,0,0.0,0.52,,-0.19,0.08,1.09,1,-0,0,0.21,,,,,,,,,,
3055,0,0.0,0.52,,,,,,,,,,,,,,,,,,
3057,0,0.0,0.52,,,,,,,,,,,,,,,,,,
3059,0,0.0,0.52,,,,,,,,,,,,,,,,,,
3061,0,0.0,0.52,,,,,,,,,,,,,,,,,,
3063,0,0.0,0.52,,0.1,-0.02,1.0,1,-0,-0,0.1,18,2100,0,0.0,0.0,0.0,0.0,0,0,0.0
3065,0,0.0,0.52,,,,,,,,,,,,,,,,,,
3067,0,0.0,0.52,,,,,,,,,,,,,,,,,,
3069,0,0.0,0.54,,,,,,,,,,,,,,,,,,
3071,0,0.0,0.53,,,,,,,,,,,,,,,,,,
3073,0,0.0,0.52,,0.04,0.05,0.98,1,1,-0,0.06,,,,,,,,,,
3075,0,0.0,0.53,,,,,,,,,,,,,,,,,,
3077,0,0.0,0.53,,,,,,,,,,,,,,,,,,
3079,0,0.0,0.52,,,,,,,,,,,,,,,,,,
3081,0,0.0,0.52,,,,,,,,,,,,,,,,,,
3083,0,0.0,0.52,,-0.2,0.13,1.07,1,1,-1,0.24,18,2100,0,0.0,0.0,0.0,0.0,0,0,0.0
3085,0,0.0,0.53,,,,,,,,,,,,,,,,,,
3087,0,0.0,0.53,,,,,,,,,,,,,,,,,,
3089,0,0.0,0.53,,,,,,,,,,,,,,,,,,
3091,0,0.0,0.53,,,,,,,,,,,,,,,,,,
3093,0,0.0,0.53,,0.1,0.03,0.9,2,-1,-0,0.1,,,,,,,,,,
3095,0,0.0,0.53,,,,,,,,,,,,,,,,,,
3097,0,0.0,0.54,,,,,,,,,,,,,,,,,,
3099,0,0.0,0.53,,,,,,,,,,,,,,,,,,
3101,0,0.0,0.53,,,,,,,,,,,,,,,,,,
3103,0,0.0,0.53,,0.06,0.11,0.89,1,0,-0,0.13,18,2040,0,0.0,0.0,0.0,0.0,0,0,0.0
3105,0,0.0,0.53,,,,,,,,,,,,,,,,,,
3107,0,0.0,0.53,,,,,,,,,,,,,,,,,,
3109,0,0.0,0.53,,,,,,,,,,,,,,,,,,
3111,0,0.0,0.53,,,,,,,,,,,,,,,,,,
3113,0,0.0,0.53,,-0.04,0.11,0.98,2,-1,-0,0.12,,,,,,,,,,
3115,0,0.0,0.53,,,,,,,,,,,,,,,,,,
3117,0,0.0,0.53,,,,,,,,,,,,,,,,,,
3119,0,0.0,0.53,,,,,,,,,,,,,,,,,,
3121,0,0.0,0.53,,,,,,,,,,,,,,,,,,
