"Interval"|"ms"|0|0|1,"Utc"|"ms"|0|0|1,"Analog4"|"Volts"|0.0|5.0|500,"Analog5"|"Volts"|0.0|5.0|500,"Battery"|"Volts"|0.0|20.0|1,"AccelX"|"G"|-3.0|3.0|200,"AccelY"|"G"|-3.0|3.0|200,"AccelZ"|"G"|-3.0|3.0|200,"Yaw"|"Deg/Sec"|-120|120|200,"Pitch"|"Deg/Sec"|-120|120|200,"Roll"|"Deg/Sec"|-120|120|200,"Gsum"|"G"|0.0|3.0|200,"RPM2"|"rpm"|0|8000|50,"RPM3"|"rpm"|0|8000|50,"GPIO1"|""|0.0|1.0|50,"Latitude"|"Degrees"|-180.0|180.0|50,"Longitude"|"Degrees"|-180.0|180.0|50,"Speed"|"mph"|0.0|150.0|50,"Altitude"|"ft"|0.0|4000.0|50,"GPSSats"|""|0|20|50,"GPSQual"|""|0|5|50,"GPSDOP"|""|0.0|20.0|50
113,0,0.0,0.26,,-0.23,0.09,1.03,0,-1,-1,0.25,,,,,,,,,,
115,0,0.0,0.26,,,,,,,,,,,,,,,,,,
117,0,0.0,0.26,,,,,,,,,,,,,,,,,,
119,0,0.0,0.25,,,,,,,,,,,,,,,,,,
121,0,0.0,0.26,,,,,,,,,,,,,,,,,,
123,0,0.0,0.26,,0.03,0.01,0.99,0,-2,-0,0.04,0,1980,0,0.0,0.0,0.0,0.0,0,0,0.0
125,0,0.0,0.26,,,,,,,,,,,,,,,,,,
127,0,0.0,0.26,,,,,,,,,,,,,,,,,,
129,0,0.0,0.26,,,,,,,,,,,,,,,,,,
131,0,0.0,0.27,,,,,,,,,,,,,,,,,,
133,0,0.0,0.26,,-0.01,0.1,0.95,0,0,-0,0.11,,,,,,,,,,
135,0,0.0,0.26,,,,,,,,,,,,,,,,,,
137,0,0.0,0.26,,,,,,,,,,,,,,,,,,
139,0,0.0,0.26,,,,,,,,,,,,,,,,,,
141,0,0.0,0.26,,,,,,,,,,,,,,,,,,
143,0,0.0,0.26,,-0.23,0.1,1.08,0,-0,-1,0.25,0,2040,0,0.0,0.0,0.0,0.0,0,0,0.0
145,0,0.0,0.26,,,,,,,,,,,,,,,,,,
147,0,0.0,0.26,,,,,,,,,,,,,,,,,,
149,0,0.0,0.26,,,,,,,,,,,,,,,,,,
151,0,0.0,0.26,,,,,,,,,,,,,,,,,,
153,0,0.0,0.26,,-0.02,0.01,0.89,0,-1,0,0.02,,,,,,,,,,
155,0,0.0,0.27,,,,,,,,,,,,,,,,,,
157,0,0.0,0.26,,,,,,,,,,,,,,,,,,
159,0,0.0,0.26,,,,,,,,,,,,,,,,,,
161,0,0.0,0.28,,,,,,,,,,,,,,,,,,
163,0,0.0,0.27,,0.0,0.12,0.99,-0,0,-0,0.12,0,1980,0,0.0,0.0,0.0,0.0,0,0,0.0
165,0,0.0,0.27,,,,,,,,,,,,,,,,,,
167,0,0.0,0.27,,,,,,,,,,,,,,,,,,
169,0,0.0,0.27,,,,,,,,,,,,,,,,,,
171,0,0.0,0.26,,,,,,,,,,,,,,,,,,
173,0,0.0,0.27,,-0.23,0.1,1.07,0,-0,-1,0.26,,,,,,,,,,
175,0,0.0,0.26,,,,,,,,,,,,,,,,,,
177,0,0.0,0.26,,,,,,,,,,,,,,,,,,
179,0,0.0,0.26,,,,,,,,,,,,,,,,,,
181,0,0.0,0.27,,,,,,,,,,,,,,,,,,
183,0,0.0,0.27,,0.05,0.03,0.96,0,-1,-0,0.05,0,1980,0,0.0,0.0,0.0,0.0,0,0,0.0
185,0,0.0,0.27,,,,,,,,,,,,,,,,,,
187,0,0.0,0.27,,,,,,,,,,,,,,,,,,
189,0,0.0,0.28,,,,,,,,,,,,,,,,,,
191,0,0.0,0.27,,,,,,,,,,,,,,,,,,
193,0,0.0,0.27,,-0.05,0.08,0.96,-0,1,-0,0.09,,,,,,,,,,
195,0,0.0,0.27,,,,,,,,,,,,,,,,,,
197,0,0.0,0.27,,,,,,,,,,,,,,,,,,
199,0,0.0,0.27,,,,,,,,,,,,,,,,,,
201,0,0.0,0.27,,,,,,,,,,,,,,,,,,
203,0,0.0,0.27,,-0.23,0.08,1.11,0,0,-1,0.25,0,2040,0,0.0,0.0,0.0,0.0,0,0,0.0
205,0,0.0,0.27,,,,,,,,,,,,,,,,,,
207,0,0.0,0.27,,,,,,,,,,,,,,,,,,
209,0,0.0,0.27,,,,,,,,,,,,,,,,,,
211,0,0.0,0.27,,,,,,,,,,,,,,,,,,
213,0,0.0,0.27,,-0.01,0.02,0.92,0,-1,0,0.03,,,,,,,,,,
215,0,0.0,0.27,,,,,,,,,,,,,,,,,,
217,0,0.0,0.27,,,,,,,,,,,,,,,,,,
219,0,0.0,0.29,,,,,,,,,,,,,,,,,,
221,0,0.0,0.28,,,,,,,,,,,,,,,,,,
223,0,0.0,0.27,,-0.01,0.1,1.0,0,-0,-0,0.1,0,1980,0,0.0,0.0,0.0,0.0,0,0,0.0
225,0,0.0,0.27,,,,,,,,,,,,,,,,,,
227,0,0.0,0.27,,,,,,,,,,,,,,,,,,
229,0,0.0,0.28,,,,,,,,,,,,,,,,,,
231,0,0.0,0.28,,,,,,,,,,,,,,,,,,
233,0,0.0,0.27,,-0.21,0.09,1.09,0,-0,-1,0.22,,,,,,,,,,
235,0,0.0,0.27,,,,,,,,,,,,,,,,,,
237,0,0.0,0.27,,,,,,,,,,,,,,,,,,
239,0,0.0,0.27,,,,,,,,,,,,,,,,,,
241,0,0.0,0.28,,,,,,,,,,,,,,,,,,
243,0,0.0,0.28,,0.05,0.04,0.95,0,-1,-0,0.07,0,1980,0,0.0,0.0,0.0,0.0,0,0,0.0
245,0,0.0,0.27,,,,,,,,,,,,,,,,,,
247,0,0.0,0.28,,,,,,,,,,,,,,,,,,
249,0,0.0,0.29,,,,,,,,,,,,,,,,,,
251,0,0.0,0.28,,,,,,,,,,,,,,,,,,
253,0,0.0,0.28,,-0.07,0.06,1.0,-0,1,-0,0.09,,,,,,,,,,
255,0,0.0,0.28,,,,,,,,,,,,,,,,,,
257,0,0.0,0.28,,,,,,,,,,,,,,,,,,
259,0,0.0,0.28,,,,,,,,,,,,,,,,,,
261,0,0.0,0.28,,,,,,,,,,,,,,,,,,
263,0,0.0,0.28,,-0.23,0.08,1.11,0,0,-0,0.24,0,2040,0,0.0,0.0,0.0,0.0,0,0,0.0
265,0,0.0,0.28,,,,,,,,,,,,,,,,,,
267,0,0.0,0.27,,,,,,,,,,,,,,,,,,
269,0,0.0,0.28,,,,,,,,,,,,,,,,,,
271,0,0.0,0.28,,,,,,,,,,,,,,,,,,
273,0,0.0,0.28,,0.01,0.05,0.95,0,-1,-0,0.05,,,,,,,,,,
275,0,0.0,0.28,,,,,,,,,,,,,,,,,,
277,0,0.0,0.29,,,,,,,,,,,,,,,,,,
279,0,0.0,0.28,,,,,,,,,,,,,,,,,,
281,0,0.0,0.28,,,,,,,,,,,,,,,,,,
283,0,0.0,0.28,,-0.03,0.08,0.98,-0,0,-1,0.08,0,1980,0,0.0,0.0,0.0,0.0,0,0,0.0
285,0,0.0,0.28,,,,,,,,,,,,,,,,,,
287,0,0.0,0.28,,,,,,,,,,,,,,,,,,
289,0,0.0,0.28,,,,,,,,,,,,,,,,,,
291,0,0.0,0.28,,,,,,,,,,,,,,,,,,
293,0,0.0,0.28,,-0.17,0.07,1.08,0,0,-0,0.18,,,,,,,,,,
295,0,0.0,0.28,,,,,,,,,,,,,,,,,,
297,0,0.0,0.28,,,,,,,,,,,,,,,,,,
299,0,0.0,0.29,,,,,,,,,,,,,,,,,,
301,0,0.0,0.29,,,,,,,,,,,,,,,,,,
303,0,0.0,0.29,,0.05,0.06,0.96,0,-1,-0,0.07,0,1980,0,0.0,0.0,0.0,0.0,0,0,0.0
305,0,0.0,0.29,,,,,,,,,,,,,,,,,,
307,0,0.0,0.3,,,,,,,,,,,,,,,,,,
309,0,0.0,0.29,,,,,,,,,,,,,,,,,,
311,0,0.0,0.29,,,,,,,,,,,,,,,,,,
313,0,0.0,0.29,,-0.07,0.07,0.97,-0,1,-1,0.1,,,,,,,,,,
315,0,0.0,0.29,,,,,,,,,,,,,,,,,,
317,0,0.0,0.29,,,,,,,,,,,,,,,,,,
319,0,0.0,0.29,,,,,,,,,,,,,,,,,,
321,0,0.0,0.29,,,,,,,,,,,,,,,,,,
323,0,0.0,0.29,,-0.22,0.08,1.07,0,0,-0,0.23,0,2040,0,0.0,0.0,0.0,0.0,0,0,0.0
325,0,0.0,0.29,,,,,,,,,,,,,,,,,,
327,0,0.0,0.29,,,,,,,,,,,,,,,,,,
329,0,0.0,0.29,,,,,,,,,,,,,,,,,,
331,0,0.0,0.29,,,,,,,,,,,,,,,,,,
333,0,0.0,0.29,,0.01,0.06,0.96,0,-1,-0,0.06,,,,,,,,,,
335,0,0.0,0.29,,,,,,,,,,,,,,,,,,
337,0,0.0,0.3,,,,,,,,,,,,,,,,,,
339,0,0.0,0.29,,,,,,,,,,,,,,,,,,
341,0,0.0,0.29,,,,,,,,,,,,,,,,,,
343,0,0.0,0.29,,-0.06,0.06,0.95,-0,-0,-1,0.08,0,1980,0,0.0,0.0,0.0,0.0,0,0,0.0
345,0,0.0,0.29,,,,,,,,,,,,,,,,,,
347,0,0.0,0.29,,,,,,,,,,,,,,,,,,
349,0,0.0,0.29,,,,,,,,,,,,,,,,,,
351,0,0.0,0.29,,,,,,,,,,,,,,,,,,
353,0,0.0,0.29,,-0.14,0.05,1.06,1,-0,-0,0.15,,,,,,,,,,
355,0,0.0,0.29,,,,,,,,,,,,,,,,,,
357,0,0.0,0.29,,,,,,,,,,,,,,,,,,
359,0,0.0,0.29,,,,,,,,,,,,,,,,,,
361,0,0.0,0.29,,,,,,,,,,,,,,,,,,
363,0,0.0,0.3,,0.03,0.06,0.99,-0,-1,-0,0.06,0,1980,0,0.0,0.0,0.0,0.0,0,0,0.0
365,0,0.0,0.31,,,,,,,,,,,,,,,,,,
367,0,0.0,0.3,,,,,,,,,,,,,,,,,,
369,0,0.0,0.3,,,,,,,,,,,,,,,,,,
371,0,0.0,0.3,,,,,,,,,,,,,,,,,,
373,0,0.0,0.3,,-0.07,0.08,0.95,-0,0,-0,0.11,,,,,,,,,,
375,0,0.0,0.3,,,,,,,,,,,,,,,,,,
377,0,0.0,0.3,,,,,,,,,,,,,,,,,,
379,0,0.0,0.3,,,,,,,,,,,,,,,,,,
381,0,0.0,0.3,,,,,,,,,,,,,,,,,,
383,0,0.0,0.3,,-0.18,0.06,1.05,0,0,-0,0.19,0,2040,0,0.0,0.0,0.0,0.0,0,0,0.0
385,0,0.0,0.3,,,,,,,,,,,,,,,,,,
387,0,0.0,0.3,,,,,,,,,,,,,,,,,,
389,0,0.0,0.3,,,,,,,,,,,,,,,,,,
391,0,0.0,0.3,,,,,,,,,,,,,,,,,,
393,0,0.0,0.3,,0.02,0.08,1.0,0,-0,-0,0.08,,,,,,,,,,
395,0,0.0,0.31,,,,,,,,,,,,,,,,,,
397,0,0.0,0.3,,,,,,,,,,,,,,,,,,
399,0,0.0,0.3,,,,,,,,,,,,,,,,,,
401,0,0.0,0.3,,,,,,,,,,,,,,,,,,
403,0,0.0,0.3,,-0.09,0.06,0.95,-0,-0,-0,0.11,0,1980,0,0.0,0.0,0.0,0.0,0,0,0.0
405,0,0.0,0.3,,,,,,,,,,,,,,,,,,
407,0,0.0,0.3,,,,,,,,,,,,,,,,,,
409,0,0.0,0.3,,,,,,,,,,,,,,,,,,
411,0,0.0,0.3,,,,,,,,,,,,,,,,,,
413,0,0.0,0.3,,-0.12,0.03,1.05,1,-0,0,0.12,,,,,,,,,,
415,0,0.0,0.3,,,,,,,,,,,,,,,,,,
417,0,0.0,0.31,,,,,,,,,,,,,,,,,,
419,0,0.0,0.3,,,,,,,,,,,,,,,,,,
421,0,0.0,0.3,,,,,,,,,,,,,,,,,,
423,0,0.0,0.31,,0.04,0.08,0.97,-0,-0,-0,0.1,0,1980,0,0.0,0.0,0.0,0.0,0,0,0.0
425,0,0.0,0.32,,,,,,,,,,,,,,,,,,
427,0,0.0,0.31,,,,,,,,,,,,,,,,,,
429,0,0.0,0.31,,,,,,,,,,,,,,,,,,
431,0,0.0,0.31,,,,,,,,,,,,,,,,,,
433,0,0.0,0.31,,-0.1,0.09,0.96,-0,-0,-0,0.13,,,,,,,,,,
435,0,0.0,0.31,,,,,,,,,,,,,,,,,,
437,0,0.0,0.31,,,,,,,,,,,,,,,,,,
439,0,0.0,0.31,,,,,,,,,,,,,,,,,,
441,0,0.0,0.31,,,,,,,,,,,,,,,,,,
443,0,0.0,0.31,,-0.13,0.06,0.98,1,-0,-0,0.15,0,2040,0,0.0,0.0,0.0,0.0,0,0,0.0
445,0,0.0,0.31,,,,,,,,,,,,,,,,,,
447,0,0.0,0.31,,,,,,,,,,,,,,,,,,
449,0,0.0,0.31,,,,,,,,,,,,,,,,,,
451,0,0.0,0.31,,,,,,,,,,,,,,,,,,
453,0,0.0,0.31,,0.06,0.11,0.98,0,-0,-0,0.12,,,,,,,,,,
455,0,0.0,0.32,,,,,,,,,,,,,,,,,,
457,0,0.0,0.31,,,,,,,,,,,,,,,,,,
459,0,0.0,0.31,,,,,,,,,,,,,,,,,,
461,0,0.0,0.31,,,,,,,,,,,,,,,,,,
463,0,0.0,0.31,,-0.13,0.08,0.93,-0,0,-1,0.15,0,1980,0,0.0,0.0,0.0,0.0,0,0,0.0
465,0,0.0,0.31,,,,,,,,,,,,,,,,,,
467,0,0.0,0.31,,,,,,,,,,,,,,,,,,
469,0,0.0,0.31,,,,,,,,,,,,,,,,,,
471,0,0.0,0.31,,,,,,,,,,,,,,,,,,
473,0,0.0,0.31,,-0.07,0.02,1.05,1,-0,-0,0.07,,,,,,,,,,
475,0,0.0,0.32,,,,,,,,,,,,,,,,,,
477,0,0.0,0.32,,,,,,,,,,,,,,,,,,
479,0,0.0,0.32,,,,,,,,,,,,,,,,,,
481,0,0.0,0.31,,,,,,,,,,,,,,,,,,
483,0,0.0,0.33,,0.06,0.09,0.93,0,-0,-0,0.1,0,2040,0,0.0,0.0,0.0,0.0,0,0,0.0
485,0,0.0,0.32,,,,,,,,,,,,,,,,,,
487,0,0.0,0.32,,,,,,,,,,,,,,,,,,
489,0,0.0,0.32,,,,,,,,,,,,,,,,,,
491,0,0.0,0.32,,,,,,,,,,,,,,,,,,
493,0,0.0,0.32,,-0.13,0.1,0.94,-0,-0,-1,0.17,,,,,,,,,,
495,0,0.0,0.32,,,,,,,,,,,,,,,,,,
497,0,0.0,0.32,,,,,,,,,,,,,,,,,,
499,0,0.0,0.32,,,,,,,,,,,,,,,,,,
501,0,0.0,0.32,,,,,,,,,,,,,,,,,,
503,0,0.0,0.32,,-0.11,0.04,0.96,1,-1,-0,0.12,0,2040,0,0.0,0.0,0.0,0.0,0,0,0.0
505,0,0.0,0.32,,,,,,,,,,,,,,,,,,
507,0,0.0,0.32,,,,,,,,,,,,,,,,,,
509,0,0.0,0.31,,,,,,,,,,,,,,,,,,
511,0,0.0,0.32,,,,,,,,,,,,,,,,,,
513,0,0.0,0.33,,0.05,0.12,0.98,0,-0,-0,0.13,,,,,,,,,,
515,0,0.0,0.32,,,,,,,,,,,,,,,,,,
517,0,0.0,0.32,,,,,,,,,,,,,,,,,,
519,0,0.0,0.32,,,,,,,,,,,,,,,,,,
521,0,0.0,0.32,,,,,,,,,,,,,,,,,,
523,0,0.0,0.32,,-0.21,0.07,0.92,-0,0,-1,0.22,0,1980,0,0.0,0.0,0.0,0.0,0,0,0.0
525,0,0.0,0.32,,,,,,,,,,,,,,,,,,
527,0,0.0,0.32,,,,,,,,,,,,,,,,,,
529,0,0.0,0.32,,,,,,,,,,,,,,,,,,
531,0,0.0,0.32,,,,,,,,,,,,,,,,,,
533,0,0.0,0.32,,-0.07,0.02,1.05,0,-1,-0,0.07,,,,,,,,,,
535,0,0.0,0.32,,,,,,,,,,,,,,,,,,
537,0,0.0,0.32,,,,,,,,,,,,,,,,,,
539,0,0.0,0.32,,,,,,,,,,,,,,,,,,
541,0,0.0,0.32,,,,,,,,,,,,,,,,,,
543,0,0.0,0.34,,0.02,0.08,0.95,0,0,-0,0.08,0,2040,0,0.0,0.0,0.0,0.0,0,0,0.0
545,0,0.0,0.33,,,,,,,,,,,,,,,,,,
547,0,0.0,0.33,,,,,,,,,,,,,,,,,,
549,0,0.0,0.33,,,,,,,,,,,,,,,,,,
551,0,0.0,0.33,,,,,,,,,,,,,,,,,,
553,0,0.0,0.33,,-0.18,0.1,0.96,-0,-1,-1,0.2,,,,,,,,,,
555,0,0.0,0.32,,,,,,,,,,,,,,,,,,
557,0,0.0,0.32,,,,,,,,,,,,,,,,,,
559,0,0.0,0.32,,,,,,,,,,,,,,,,,,
561,0,0.0,0.32,,,,,,,,,,,,,,,,,,
563,0,0.0,0.32,,-0.09,0.05,0.92,1,-1,-0,0.1,0,2040,0,0.0,0.0,0.0,0.0,0,0,0.0
565,0,0.0,0.33,,,,,,,,,,,,,,,,,,
567,0,0.0,0.33,,,,,,,,,,,,,,,,,,
569,0,0.0,0.33,,,,,,,,,,,,,,,,,,
571,0,0.0,0.33,,,,,,,,,,,,,,,,,,
573,0,0.0,0.34,,0.04,0.13,0.97,0,0,-0,0.14,,,,,,,,,,
575,0,0.0,0.33,,,,,,,,,,,,,,,,,,
577,0,0.0,0.33,,,,,,,,,,,,,,,,,,
579,0,0.0,0.33,,,,,,,,,,,,,,,,,,
581,0,0.0,0.33,,,,,,,,,,,,,,,,,,
583,0,0.0,0.33,,-0.26,0.08,0.97,0,0,-1,0.27,0,1980,0,0.0,0.0,0.0,0.0,0,0,0.0
585,0,0.0,0.33,,,,,,,,,,,,,,,,,,
587,0,0.0,0.33,,,,,,,,,,,,,,,,,,
589,0,0.0,0.33,,,,,,,,,,,,,,,,,,
591,0,0.0,0.33,,,,,,,,,,,,,,,,,,
593,0,0.0,0.33,,-0.04,0.03,1.01,0,-1,-0,0.05,,,,,,,,,,
595,0,0.0,0.33,,,,,,,,,,,,,,,,,,
597,0,0.0,0.33,,,,,,,,,,,,,,,,,,
599,0,0.0,0.33,,,,,,,,,,,,,,,,,,
601,0,0.0,0.35,,,,,,,,,,,,,,,,,,
603,0,0.0,0.34,,-0.0,0.09,0.94,0,0,-0,0.09,0,2040,0,0.0,0.0,0.0,0.0,0,0,0.0
605,0,0.0,0.34,,,,,,,,,,,,,,,,,,
607,0,0.0,0.34,,,,,,,,,,,,,,,,,,
609,0,0.0,0.34,,,,,,,,,,,,,,,,,,
611,0,0.0,0.34,,,,,,,,,,,,,,,,,,
613,0,0.0,0.34,,-0.22,0.11,1.03,0,-1,-1,0.25,,,,,,,,,,
615,0,0.0,0.34,,,,,,,,,,,,,,,,,,
617,0,0.0,0.34,,,,,,,,,,,,,,,,,,
619,0,0.0,0.34,,,,,,,,,,,,,,,,,,
621,0,0.0,0.34,,,,,,,,,,,,,,,,,,
623,0,0.0,0.34,,-0.07,0.03,0.89,0,-1,-0,0.07,0,2040,0,0.0,0.0,0.0,0.0,0,0,0.0
625,0,0.0,0.34,,,,,,,,,,,,,,,,,,
627,0,0.0,0.34,,,,,,,,,,,,,,,,,,
629,0,0.0,0.34,,,,,,,,,,,,,,,,,,
631,0,0.0,0.35,,,,,,,,,,,,,,,,,,
633,0,0.0,0.34,,0.03,0.13,0.97,0,0,-0,0.13,,,,,,,,,,
635,0,0.0,0.34,,,,,,,,,,,,,,,,,,
637,0,0.0,0.34,,,,,,,,,,,,,,,,,,
639,0,0.0,0.34,,,,,,,,,,,,,,,,,,
641,0,0.0,0.34,,,,,,,,,,,,,,,,,,
643,0,0.0,0.34,,-0.26,0.1,1.03,0,-0,-1,0.28,0,1980,0,0.0,0.0,0.0,0.0,0,0,0.0
645,0,0.0,0.34,,,,,,,,,,,,,,,,,,
647,0,0.0,0.34,,,,,,,,,,,,,,,,,,
649,0,0.0,0.34,,,,,,,,,,,,,,,,,,
651,0,0.0,0.34,,,,,,,,,,,,,,,,,,
653,0,0.0,0.34,,0.0,0.01,0.97,0,-1,-0,0.01,,,,,,,,,,
655,0,0.0,0.34,,,,,,,,,,,,,,,,,,
657,0,0.0,0.35,,,,,,,,,,,,,,,,,,
659,0,0.0,0.34,,,,,,,,,,,,,,,,,,
661,0,0.0,0.35,,,,,,,,,,,,,,,,,,
663,0,0.0,0.35,,-0.02,0.1,0.95,-0,0,-0,0.1,0,2040,0,0.0,0.0,0.0,0.0,0,0,0.0
665,0,0.0,0.35,,,,,,,,,,,,,,,,,,
667,0,0.0,0.35,,,,,,,,,,,,,,,,,,
669,0,0.0,0.35,,,,,,,,,,,,,,,,,,
671,0,0.0,0.35,,,,,,,,,,,,,,,,,,
673,0,0.0,0.35,,-0.23,0.1,1.09,0,-0,-1,0.25,,,,,,,,,,
675,0,0.0,0.35,,,,,,,,,,,,,,,,,,
677,0,0.0,0.35,,,,,,,,,,,,,,,,,,
679,0,0.0,0.35,,,,,,,,,,,,,,,,,,
681,0,0.0,0.34,,,,,,,,,,,,,,,,,,
683,0,0.0,0.35,,-0.03,0.02,0.9,0,-1,0,0.03,0,2040,0,0.0,0.0,0.0,0.0,0,0,0.0
685,0,0.0,0.35,,,,,,,,,,,,,,,,,,
687,0,0.0,0.35,,,,,,,,,,,,,,,,,,
689,0,0.0,0.36,,,,,,,,,,,,,,,,,,
691,0,0.0,0.35,,,,,,,,,,,,,,,,,,
693,0,0.0,0.35,,0.0,0.11,0.98,0,0,-0,0.11,,,,,,,,,,
695,0,0.0,0.35,,,,,,,,,,,,,,,,,,
697,0,0.0,0.35,,,,,,,,,,,,,,,,,,
699,0,0.0,0.35,,,,,,,,,,,,,,,,,,
701,0,0.0,0.35,,,,,,,,,,,,,,,,,,
703,0,0.0,0.35,,-0.24,0.09,1.07,0,-0,-1,0.25,0,1980,0,0.0,0.0,0.0,0.0,0,0,0.0
705,0,0.0,0.35,,,,,,,,,,,,,,,,,,
707,0,0.0,0.35,,,,,,,,,,,,,,,,,,
709,0,0.0,0.35,,,,,,,,,,,,,,,,,,
711,0,0.0,0.35,,,,,,,,,,,,,,,,,,
713,0,0.0,0.35,,0.04,0.03,0.96,0,-1,-0,0.05,,,,,,,,,,
715,0,0.0,0.35,,,,,,,,,,,,,,,,,,
717,0,0.0,0.35,,,,,,,,,,,,,,,,,,
719,0,0.0,0.37,,,,,,,,,,,,,,,,,,
721,0,0.0,0.36,,,,,,,,,,,,,,,,,,
723,0,0.0,0.36,,-0.07,0.08,0.96,-0,0,-0,0.11,0,2040,0,0.0,0.0,0.0,0.0,0,0,0.0
725,0,0.0,0.36,,,,,,,,,,,,,,,,,,
727,0,0.0,0.36,,,,,,,,,,,,,,,,,,
729,0,0.0,0.35,,,,,,,,,,,,,,,,,,
731,0,0.0,0.36,,,,,,,,,,,,,,,,,,
733,0,0.0,0.36,,-0.25,0.08,1.15,0,-0,-0,0.26,,,,,,,,,,
735,0,0.0,0.36,,,,,,,,,,,,,,,,,,
737,0,0.0,0.36,,,,,,,,,,,,,,,,,,
739,0,0.0,0.36,,,,,,,,,,,,,,,,,,
741,0,0.0,0.36,,,,,,,,,,,,,,,,,,
743,0,0.0,0.36,,-0.02,0.03,0.94,0,-1,0,0.04,0,2040,0,0.0,0.0,0.0,0.0,0,0,0.0
745,0,0.0,0.36,,,,,,,,,,,,,,,,,,
747,0,0.0,0.36,,,,,,,,,,,,,,,,,,
749,0,0.0,0.37,,,,,,,,,,,,,,,,,,
751,0,0.0,0.36,,,,,,,,,,,,,,,,,,
753,0,0.0,0.36,,-0.04,0.07,1.03,-0,-0,-0,0.08,,,,,,,,,,
755,0,0.0,0.36,,,,,,,,,,,,,,,,,,
757,0,0.0,0.36,,,,,,,,,,,,,,,,,,
759,0,0.0,0.36,,,,,,,,,,,,,,,,,,
761,0,0.0,0.36,,,,,,,,,,,,,,,,,,
763,0,0.0,0.36,,-0.17,0.05,1.14,0,-0,-0,0.18,0,1980,0,0.0,0.0,0.0,0.0,0,0,0.0
765,0,0.0,0.36,,,,,,,,,,,,,,,,,,
767,0,0.0,0.36,,,,,,,,,,,,,,,,,,
769,0,0.0,0.36,,,,,,,,,,,,,,,,,,
771,0,0.0,0.36,,,,,,,,,,,,,,,,,,
773,0,0.0,0.36,,0.05,0.05,1.0,0,-1,-0,0.07,,,,,,,,,,
775,0,0.0,0.36,,,,,,,,,,,,,,,,,,
777,0,0.0,0.37,,,,,,,,,,,,,,,,,,
779,0,0.0,0.37,,,,,,,,,,,,,,,,,,
781,0,0.0,0.37,,,,,,,,,,,,,,,,,,
783,0,0.0,0.37,,-0.08,0.07,1.0,-0,1,-0,0.1,0,2040,0,0.0,0.0,0.0,0.0,0,0,0.0
785,0,0.0,0.37,,,,,,,,,,,,,,,,,,
787,0,0.0,0.36,,,,,,,,,,,,,,,,,,
789,0,0.0,0.37,,,,,,,,,,,,,,,,,,
791,0,0.0,0.36,,,,,,,,,,,,,,,,,,
793,0,0.0,0.37,,-0.21,0.07,1.08,0,-0,-0,0.22,,,,,,,,,,
795,0,0.0,0.36,,,,,,,,,,,,,,,,,,
797,0,0.0,0.37,,,,,,,,,,,,,,,,,,
799,0,0.0,0.37,,,,,,,,,,,,,,,,,,
801,0,0.0,0.37,,,,,,,,,,,,,,,,,,
803,0,0.0,0.36,,0.02,0.06,0.96,0,-1,-0,0.06,0,2040,0,0.0,0.0,0.0,0.0,0,0,0.0
805,0,0.0,0.37,,,,,,,,,,,,,,,,,,
807,0,0.0,0.38,,,,,,,,,,,,,,,,,,
809,0,0.0,0.37,,,,,,,,,,,,,,,,,,
811,0,0.0,0.37,,,,,,,,,,,,,,,,,,
813,0,0.0,0.37,,-0.05,0.05,0.96,-0,-0,-0,0.07,,,,,,,,,,
815,0,0.0,0.37,,,,,,,,,,,,,,,,,,
817,0,0.0,0.37,,,,,,,,,,,,,,,,,,
819,0,0.0,0.37,,,,,,,,,,,,,,,,,,
821,0,0.0,0.37,,,,,,,,,,,,,,,,,,
823,0,0.0,0.37,,-0.14,0.05,1.08,1,0,-0,0.15,0,1980,0,0.0,0.0,0.0,0.0,0,0,0.0
825,0,0.0,0.37,,,,,,,,,,,,,,,,,,
827,0,0.0,0.37,,,,,,,,,,,,,,,,,,
829,0,0.0,0.37,,,,,,,,,,,,,,,,,,
831,0,0.0,0.37,,,,,,,,,,,,,,,,,,
833,0,0.0,0.38,,0.05,0.06,0.99,0,-1,-0,0.08,,,,,,,,,,
835,0,0.0,0.37,,,,,,,,,,,,,,,,,,
837,0,0.0,0.39,,,,,,,,,,,,,,,,,,
839,0,0.0,0.38,,,,,,,,,,,,,,,,,,
841,0,0.0,0.38,,,,,,,,,,,,,,,,,,
843,0,0.0,0.38,,-0.08,0.07,0.94,-0,1,-1,0.11,0,2040,0,0.0,0.0,0.0,0.0,0,0,0.0
845,0,0.0,0.38,,,,,,,,,,,,,,,,,,
847,0,0.0,0.37,,,,,,,,,,,,,,,,,,
849,0,0.0,0.37,,,,,,,,,,,,,,,,,,
851,0,0.0,0.38,,,,,,,,,,,,,,,,,,
853,0,0.0,0.38,,-0.19,0.07,1.07,0,0,-0,0.21,,,,,,,,,,
855,0,0.0,0.38,,,,,,,,,,,,,,,,,,
857,0,0.0,0.38,,,,,,,,,,,,,,,,,,
859,0,0.0,0.37,,,,,,,,,,,,,,,,,,
861,0,0.0,0.38,,,,,,,,,,,,,,,,,,
863,0,0.0,0.38,,0.02,0.08,0.97,-0,-1,-0,0.08,0,2040,0,0.0,0.0,0.0,0.0,0,0,0.0
865,0,0.0,0.38,,,,,,,,,,,,,,,,,,
867,0,0.0,0.39,,,,,,,,,,,,,,,,,,
869,0,0.0,0.38,,,,,,,,,,,,,,,,,,
871,0,0.0,0.38,,,,,,,,,,,,,,,,,,
873,0,0.0,0.38,,-0.08,0.06,0.95,-0,-0,-1,0.1,,,,,,,,,,
875,0,0.0,0.38,,,,,,,,,,,,,,,,,,
877,0,0.0,0.38,,,,,,,,,,,,,,,,,,
879,0,0.0,0.38,,,,,,,,,,,,,,,,,,
881,0,0.0,0.38,,,,,,,,,,,,,,,,,,
883,0,0.0,0.38,,-0.13,0.03,1.05,1,0,-0,0.13,0,1980,0,0.0,0.0,0.0,0.0,0,0,0.0
885,0,0.0,0.38,,,,,,,,,,,,,,,,,,
887,0,0.0,0.38,,,,,,,,,,,,,,,,,,
889,0,0.0,0.38,,,,,,,,,,,,,,,,,,
891,0,0.0,0.38,,,,,,,,,,,,,,,,,,
893,0,0.0,0.38,,0.03,0.07,0.98,-0,-1,-0,0.08,,,,,,,,,,
895,0,0.0,0.39,,,,,,,,,,,,,,,,,,
897,0,0.0,0.39,,,,,,,,,,,,,,,,,,
899,0,0.0,0.39,,,,,,,,,,,,,,,,,,
901,0,0.0,0.39,,,,,,,,,,,,,,,,,,
903,0,0.0,0.39,,-0.09,0.08,0.95,-0,1,-1,0.12,0,2040,0,0.0,0.0,0.0,0.0,0,0,0.0
905,0,0.0,0.39,,,,,,,,,,,,,,,,,,
907,0,0.0,0.38,,,,,,,,,,,,,,,,,,
909,0,0.0,0.38,,,,,,,,,,,,,,,,,,
911,0,0.0,0.38,,,,,,,,,,,,,,,,,,
913,0,0.0,0.38,,-0.17,0.06,1.0,0,0,-0,0.18,,,,,,,,,,
915,0,0.0,0.38,,,,,,,,,,,,,,,,,,
917,0,0.0,0.39,,,,,,,,,,,,,,,,,,
919,0,0.0,0.39,,,,,,,,,,,,,,,,,,
921,0,0.0,0.39,,,,,,,,,,,,,,,,,,
923,0,0.0,0.38,,0.04,0.09,0.99,0,-1,-0,0.1,0,2040,0,0.0,0.0,0.0,0.0,0,0,0.0
925,0,0.0,0.39,,,,,,,,,,,,,,,,,,
927,0,0.0,0.39,,,,,,,,,,,,,,,,,,
929,0,0.0,0.39,,,,,,,,,,,,,,,,,,
931,0,0.0,0.39,,,,,,,,,,,,,,,,,,
933,0,0.0,0.39,,-0.12,0.07,0.94,0,-0,-0,0.14,,,,,,,,,,
935,0,0.0,0.39,,,,,,,,,,,,,,,,,,
937,0,0.0,0.39,,,,,,,,,,,,,,,,,,
939,0,0.0,0.39,,,,,,,,,,,,,,,,,,
941,0,0.0,0.39,,,,,,,,,,,,,,,,,,
943,0,0.0,0.39,,-0.11,0.01,1.04,1,-0,-0,0.11,0,1980,0,0.0,0.0,0.0,0.0,0,0,0.0
945,0,0.0,0.39,,,,,,,,,,,,,,,,,,
947,0,0.0,0.39,,,,,,,,,,,,,,,,,,
949,0,0.0,0.39,,,,,,,,,,,,,,,,,,
951,0,0.0,0.39,,,,,,,,,,,,,,,,,,
953,0,0.0,0.39,,0.05,0.09,0.95,0,-0,-0,0.1,,,,,,,,,,
955,0,0.0,0.41,,,,,,,,,,,,,,,,,,
957,0,0.0,0.39,,,,,,,,,,,,,,,,,,
959,0,0.0,0.4,,,,,,,,,,,,,,,,,,
961,0,0.0,0.39,,,,,,,,,,,,,,,,,,
963,0,0.0,0.4,,-0.11,0.1,0.95,-0,0,-0,0.15,0,2040,0,0.0,0.0,0.0,0.0,0,0,0.0
965,0,0.0,0.4,,,,,,,,,,,,,,,,,,
967,0,0.0,0.39,,,,,,,,,,,,,,,,,,
969,0,0.0,0.39,,,,,,,,,,,,,,,,,,
971,0,0.0,0.39,,,,,,,,,,,,,,,,,,
973,0,0.0,0.39,,-0.12,0.05,0.96,1,-1,-0,0.13,,,,,,,,,,
975,0,0.0,0.39,,,,,,,,,,,,,,,,,,
977,0,0.0,0.39,,,,,,,,,,,,,,,,,,
979,0,0.0,0.39,,,,,,,,,,,,,,,,,,
981,0,0.0,0.4,,,,,,,,,,,,,,,,,,
983,0,0.0,0.4,,0.05,0.11,0.96,-0,-0,-0,0.12,0,2040,0,0.0,0.0,0.0,0.0,0,0,0.0
985,0,0.0,0.41,,,,,,,,,,,,,,,,,,
987,0,0.0,0.4,,,,,,,,,,,,,,,,,,
989,0,0.0,0.4,,,,,,,,,,,,,,,,,,
991,0,0.0,0.4,,,,,,,,,,,,,,,,,,
993,0,0.0,0.4,,-0.18,0.07,0.93,-0,0,-0,0.19,,,,,,,,,,
995,0,0.0,0.4,,,,,,,,,,,,,,,,,,
997,0,0.0,0.4,,,,,,,,,,,,,,,,,,
999,0,0.0,0.4,,,,,,,,,,,,,,,,,,
1001,0,0.0,0.4,,,,,,,,,,,,,,,,,,
1003,0,0.0,0.4,,-0.07,0.0,1.04,0,-1,-0,0.07,0,1980,0,0.0,0.0,0.0,0.0,0,0,0.0
1005,0,0.0,0.4,,,,,,,,,,,,,,,,,,
1007,0,0.0,0.4,,,,,,,,,,,,,,,,,,
1009,0,0.0,0.4,,,,,,,,,,,,,,,,,,
1011,0,0.0,0.4,,,,,,,,,,,,,,,,,,
1013,0,0.0,0.41,,0.04,0.09,0.93,0,-0,-0,0.1,,,,,,,,,,
1015,0,0.0,0.41,,,,,,,,,,,,,,,,,,
1017,0,0.0,0.41,,,,,,,,,,,,,,,,,,
1019,0,0.0,0.4,,,,,,,,,,,,,,,,,,
1021,0,0.0,0.4,,,,,,,,,,,,,,,,,,
1023,0,0.0,0.4,,-0.14,0.12,0.95,-0,-0,-1,0.18,0,2040,0,0.0,0.0,0.0,0.0,0,0,0.0
1025,0,0.0,0.4,,,,,,,,,,,,,,,,,,
1027,0,0.0,0.4,,,,,,,,,,,,,,,,,,
1029,0,0.0,0.4,,,,,,,,,,,,,,,,,,
1031,0,0.0,0.41,,,,,,,,,,,,,,,,,,
1033,0,0.0,0.4,,-0.1,0.04,0.93,1,-1,-0,0.11,,,,,,,,,,
1035,0,0.0,0.4,,,,,,,,,,,,,,,,,,
1037,0,0.0,0.4,,,,,,,,,,,,,,,,,,
1039,0,0.0,0.41,,,,,,,,,,,,,,,,,,
1041,0,0.0,0.41,,,,,,,,,,,,,,,,,,
1043,0,0.0,0.42,13.42,0.05,0.13,0.97,0,-0,-0,0.14,0,1980,0,0.0,0.0,0.0,0.0,0,0,0.0
1045,0,0.0,0.41,,,,,,,,,,,,,,,,,,
1047,0,0.0,0.41,,,,,,,,,,,,,,,,,,
1049,0,0.0,0.41,,,,,,,,,,,,,,,,,,
1051,0,0.0,0.41,,,,,,,,,,,,,,,,,,
1053,0,0.0,0.41,,-0.22,0.08,0.96,-0,0,-1,0.23,,,,,,,,,,
1055,0,0.0,0.41,,,,,,,,,,,,,,,,,,
1057,0,0.0,0.41,,,,,,,,,,,,,,,,,,
1059,0,0.0,0.41,,,,,,,,,,,,,,,,,,
1061,0,0.0,0.41,,,,,,,,,,,,,,,,,,
1063,0,0.0,0.41,,-0.04,0.01,1.01,0,-1,0,0.04,0,1980,0,0.0,0.0,0.0,0.0,0,0,0.0
1065,0,0.0,0.41,,,,,,,,,,,,,,,,,,
1067,0,0.0,0.41,,,,,,,,,,,,,,,,,,
1069,0,0.0,0.41,,,,,,,,,,,,,,,,,,
1071,0,0.0,0.41,,,,,,,,,,,,,,,,,,
1073,0,0.0,0.42,,0.04,0.1,0.93,0,0,-0,0.11,,,,,,,,,,
1075,0,0.0,0.41,,,,,,,,,,,,,,,,,,
1077,0,0.0,0.41,,,,,,,,,,,,,,,,,,
1079,0,0.0,0.41,,,,,,,,,,,,,,,,,,
1081,0,0.0,0.41,,,,,,,,,,,,,,,,,,
1083,0,0.0,0.41,,-0.17,0.11,0.99,-0,-0,-1,0.2,0,2040,0,0.0,0.0,0.0,0.0,0,0,0.0
1085,0,0.0,0.41,,,,,,,,,,,,,,,,,,
1087,0,0.0,0.41,,,,,,,,,,,,,,,,,,
1089,0,0.0,0.41,,,,,,,,,,,,,,,,,,
1091,0,0.0,0.41,,,,,,,,,,,,,,,,,,
1093,0,0.0,0.41,,-0.07,0.03,0.9,1,-1,0,0.07,,,,,,,,,,
1095,0,0.0,0.41,,,,,,,,,,,,,,,,,,
1097,0,0.0,0.41,,,,,,,,,,,,,,,,,,
1099,0,0.0,0.41,,,,,,,,,,,,,,,,,,
1101,0,0.0,0.41,,,,,,,,,,,,,,,,,,
1103,0,0.0,0.43,,0.05,0.13,0.97,0,0,-0,0.14,0,1980,0,0.0,0.0,0.0,0.0,0,0,0.0
1105,0,0.0,0.42,,,,,,,,,,,,,,,,,,
1107,0,0.0,0.42,,,,,,,,,,,,,,,,,,
1109,0,0.0,0.42,,,,,,,,,,,,,,,,,,
1111,0,0.0,0.42,,,,,,,,,,,,,,,,,,
1113,0,0.0,0.42,,-0.25,0.09,1.0,-0,-0,-1,0.27,,,,,,,,,,
1115,0,0.0,0.42,,,,,,,,,,,,,,,,,,
1117,0,0.0,0.42,,,,,,,,,,,,,,,,,,
1119,0,0.0,0.42,,,,,,,,,,,,,,,,,,
1121,0,0.0,0.42,,,,,,,,,,,,,,,,,,
1123,0,0.0,0.42,,-0.02,0.02,1.0,0,-1,-0,0.03,0,1980,0,0.0,0.0,0.0,0.0,0,0,0.0
1125,0,0.0,0.42,,,,,,,,,,,,,,,,,,
1127,0,0.0,0.42,,,,,,,,,,,,,,,,,,
1129,0,0.0,0.42,,,,,,,,,,,,,,,,,,
1131,0,0.0,0.42,,,,,,,,,,,,,,,,,,
1133,0,0.0,0.44,,0.03,0.1,0.94,0,1,-0,0.1,,,,,,,,,,
1135,0,0.0,0.42,,,,,,,,,,,,,,,,,,
1137,0,0.0,0.43,,,,,,,,,,,,,,,,,,
1139,0,0.0,0.43,,,,,,,,,,,,,,,,,,
1141,0,0.0,0.43,,,,,,,,,,,,,,,,,,
1143,0,0.0,0.42,,-0.21,0.1,1.05,-0,-0,-1,0.23,0,2040,0,0.0,0.0,0.0,0.0,0,0,0.0
1145,0,0.0,0.42,,,,,,,,,,,,,,,,,,
1147,0,0.0,0.42,,,,,,,,,,,,,,,,,,
1149,0,0.0,0.42,,,,,,,,,,,,,,,,,,
1151,0,0.0,0.42,,,,,,,,,,,,,,,,,,
1153,0,0.0,0.42,,-0.05,0.03,0.9,0,-1,-0,0.06,,,,,,,,,,
1155,0,0.0,0.42,,,,,,,,,,,,,,,,,,
1157,0,0.0,0.42,,,,,,,,,,,,,,,,,,
1159,0,0.0,0.42,,,,,,,,,,,,,,,,,,
1161,0,0.0,0.42,,,,,,,,,,,,,,,,,,
1163,0,0.0,0.43,,0.03,0.12,0.98,0,0,-0,0.13,0,1980,0,0.0,0.0,0.0,0.0,0,0,0.0
1165,0,0.0,0.43,,,,,,,,,,,,,,,,,,
1167,0,0.0,0.43,,,,,,,,,,,,,,,,,,
1169,0,0.0,0.43,,,,,,,,,,,,,,,,,,
1171,0,0.0,0.43,,,,,,,,,,,,,,,,,,
1173,0,0.0,0.43,,-0.28,0.1,1.03,0,-0,-1,0.3,,,,,,,,,,
1175,0,0.0,0.43,,,,,,,,,,,,,,,,,,
1177,0,0.0,0.43,,,,,,,,,,,,,,,,,,
1179,0,0.0,0.43,,,,,,,,,,,,,,,,,,
1181,0,0.0,0.43,,,,,,,,,,,,,,,,,,
1183,0,0.0,0.43,,0.01,0.02,0.99,0,-1,-0,0.03,0,1980,0,0.0,0.0,0.0,0.0,0,0,0.0
1185,0,0.0,0.43,,,,,,,,,,,,,,,,,,
1187,0,0.0,0.43,,,,,,,,,,,,,,,,,,
1189,0,0.0,0.43,,,,,,,,,,,,,,,,,,
1191,0,0.0,0.44,,,,,,,,,,,,,,,,,,
1193,0,0.0,0.43,,-0.0,0.1,0.94,0,1,-0,0.1,,,,,,,,,,
1195,0,0.0,0.43,,,,,,,,,,,,,,,,,,
1197,0,0.0,0.43,,,,,,,,,,,,,,,,,,
1199,0,0.0,0.43,,,,,,,,,,,,,,,,,,
1201,0,0.0,0.43,,,,,,,,,,,,,,,,,,
1203,0,0.0,0.43,,-0.25,0.1,1.07,0,-1,-1,0.27,0,2040,0,0.0,0.0,0.0,0.0,0,0,0.0
1205,0,0.0,0.43,,,,,,,,,,,,,,,,,,
1207,0,0.0,0.43,,,,,,,,,,,,,,,,,,
1209,0,0.0,0.43,,,,,,,,,,,,,,,,,,
1211,0,0.0,0.43,,,,,,,,,,,,,,,,,,
1213,0,0.0,0.43,,-0.04,0.03,0.87,0,-1,-0,0.04,,,,,,,,,,
1215,0,0.0,0.43,,,,,,,,,,,,,,,,,,
1217,0,0.0,0.43,,,,,,,,,,,,,,,,,,
1219,0,0.0,0.43,,,,,,,,,,,,,,,,,,
1221,0,0.0,0.44,,,,,,,,,,,,,,,,,,
1223,0,0.0,0.43,,0.0,0.12,0.98,0,0,-0,0.12,0,1980,0,0.0,0.0,0.0,0.0,0,0,0.0
1225,0,0.0,0.43,,,,,,,,,,,,,,,,,,
1227,0,0.0,0.44,,,,,,,,,,,,,,,,,,
1229,0,0.0,0.43,,,,,,,,,,,,,,,,,,
1231,0,0.0,0.44,,,,,,,,,,,,,,,,,,
1233,0,0.0,0.43,,-0.26,0.1,1.03,0,-0,-1,0.28,,,,,,,,,,
1235,0,0.0,0.43,,,,,,,,,,,,,,,,,,
1237,0,0.0,0.44,,,,,,,,,,,,,,,,,,
1239,0,0.0,0.44,,,,,,,,,,,,,,,,,,
1241,0,0.0,0.44,,,,,,,,,,,,,,,,,,
1243,0,0.0,0.44,,0.04,0.02,0.97,0,-1,-0,0.04,0,1980,0,0.0,0.0,0.0,0.0,0,0,0.0
1245,0,0.0,0.44,,,,,,,,,,,,,,,,,,
1247,0,0.0,0.44,,,,,,,,,,,,,,,,,,
1249,0,0.0,0.44,,,,,,,,,,,,,,,,,,
1251,0,0.0,0.46,,,,,,,,,,,,,,,,,,
1253,0,0.0,0.44,,-0.04,0.09,0.95,-0,1,-0,0.1,,,,,,,,,,
1255,0,0.0,0.44,,,,,,,,,,,,,,,,,,
1257,0,0.0,0.44,,,,,,,,,,,,,,,,,,
1259,0,0.0,0.44,,,,,,,,,,,,,,,,,,
1261,0,0.0,0.44,,,,,,,,,,,,,,,,,,
1263,0,0.0,0.44,,-0.25,0.09,1.11,0,-1,-1,0.27,0,2040,0,0.0,0.0,0.0,0.0,0,0,0.0
1265,0,0.0,0.44,,,,,,,,,,,,,,,,,,
1267,0,0.0,0.44,,,,,,,,,,,,,,,,,,
1269,0,0.0,0.44,,,,,,,,,,,,,,,,,,
1271,0,0.0,0.44,,,,,,,,,,,,,,,,,,
1273,0,0.0,0.44,,-0.02,0.02,0.9,0,-2,0,0.03,,,,,,,,,,
1275,0,0.0,0.44,,,,,,,,,,,,,,,,,,
1277,0,0.0,0.44,,,,,,,,,,,,,,,,,,
1279,0,0.0,0.44,,,,,,,,,,,,,,,,,,
1281,0,0.0,0.45,,,,,,,,,,,,,,,,,,
1283,0,0.0,0.44,,-0.0,0.1,1.0,0,0,-0,0.1,0,1980,0,0.0,0.0,0.0,0.0,0,0,0.0
1285,0,0.0,0.45,,,,,,,,,,,,,,,,,,
1287,0,0.0,0.45,,,,,,,,,,,,,,,,,,
1289,0,0.0,0.44,,,,,,,,,,,,,,,,,,
1291,0,0.0,0.44,,,,,,,,,,,,,,,,,,
1293,0,0.0,0.44,,-0.22,0.09,1.06,0,-0,-1,0.24,,,,,,,,,,
1295,0,0.0,0.44,,,,,,,,,,,,,,,,,,
1297,0,0.0,0.45,,,,,,,,,,,,,,,,,,
1299,0,0.0,0.44,,,,,,,,,,,,,,,,,,
1301,0,0.0,0.45,,,,,,,,,,,,,,,,,,
1303,0,0.0,0.45,,0.06,0.03,0.96,0,-1,-0,0.07,0,1980,0,0.0,0.0,0.0,0.0,0,0,0.0
1305,0,0.0,0.45,,,,,,,,,,,,,,,,,,
1307,0,0.0,0.45,,,,,,,,,,,,,,,,,,
1309,0,0.0,0.46,,,,,,,,,,,,,,,,,,
1311,0,0.0,0.45,,,,,,,,,,,,,,,,,,
1313,0,0.0,0.45,,-0.06,0.08,0.97,-0,0,-0,0.1,,,,,,,,,,
1315,0,0.0,0.46,,,,,,,,,,,,,,,,,,
1317,0,0.0,0.45,,,,,,,,,,,,,,,,,,
1319,0,0.0,0.45,,,,,,,,,,,,,,,,,,
1321,0,0.0,0.45,,,,,,,,,,,,,,,,,,
1323,0,0.0,0.45,,-0.24,0.09,1.07,0,-0,-1,0.26,0,2040,0,0.0,0.0,0.0,0.0,0,0,0.0
1325,0,0.0,0.45,,,,,,,,,,,,,,,,,,
1327,0,0.0,0.45,,,,,,,,,,,,,,,,,,
1329,0,0.0,0.45,,,,,,,,,,,,,,,,,,
1331,0,0.0,0.45,,,,,,,,,,,,,,,,,,
1333,0,0.0,0.45,,0.01,0.04,0.89,0,-1,-0,0.04,,,,,,,,,,
1335,0,0.0,0.45,,,,,,,,,,,,,,,,,,
1337,0,0.0,0.46,,,,,,,,,,,,,,,,,,
1339,0,0.0,0.46,,,,,,,,,,,,,,,,,,
1341,0,0.0,0.45,,,,,,,,,,,,,,,,,,
1343,0,0.0,0.45,,-0.02,0.1,0.96,0,-0,-0,0.1,0,1980,0,0.0,0.0,0.0,0.0,0,0,0.0
1345,0,0.0,0.45,,,,,,,,,,,,,,,,,,
1347,0,0.0,0.46,,,,,,,,,,,,,,,,,,
1349,0,0.0,0.45,,,,,,,,,,,,,,,,,,
1351,0,0.0,0.46,,,,,,,,,,,,,,,,,,
1353,0,0.0,0.45,,-0.2,0.09,1.06,0,-0,-1,0.22,,,,,,,,,,
1355,0,0.0,0.45,,,,,,,,,,,,,,,,,,
1357,0,0.0,0.45,,,,,,,,,,,,,,,,,,
1359,0,0.0,0.46,,,,,,,,,,,,,,,,,,
1361,0,0.0,0.46,,,,,,,,,,,,,,,,,,
1363,0,0.0,0.46,,0.07,0.05,0.95,0,-1,-0,0.09,0,1980,0,0.0,0.0,0.0,0.0,0,0,0.0
1365,0,0.0,0.46,,,,,,,,,,,,,,,,,,
1367,0,0.0,0.46,,,,,,,,,,,,,,,,,,
1369,0,0.0,0.47,,,,,,,,,,,,,,,,,,
1371,0,0.0,0.46,,,,,,,,,,,,,,,,,,
1373,0,0.0,0.46,,-0.07,0.07,0.99,-0,0,-0,0.1,,,,,,,,,,
1375,0,0.0,0.46,,,,,,,,,,,,,,,,,,
1377,0,0.0,0.46,,,,,,,,,,,,,,,,,,
1379,0,0.0,0.46,,,,,,,,,,,,,,,,,,
1381,0,0.0,0.46,,,,,,,,,,,,,,,,,,
1383,0,0.0,0.46,,-0.22,0.07,1.08,0,-0,-0,0.23,0,2040,0,0.0,0.0,0.0,0.0,0,0,0.0
1385,0,0.0,0.46,,,,,,,,,,,,,,,,,,
1387,0,0.0,0.46,,,,,,,,,,,,,,,,,,
1389,0,0.0,0.46,,,,,,,,,,,,,,,,,,
1391,0,0.0,0.46,,,,,,,,,,,,,,,,,,
1393,0,0.0,0.46,,0.02,0.05,0.93,-0,-1,-0,0.06,,,,,,,,,,
1395,0,0.0,0.46,,,,,,,,,,,,,,,,,,
1397,0,0.0,0.46,,,,,,,,,,,,,,,,,,
1399,0,0.0,0.47,,,,,,,,,,,,,,,,,,
1401,0,0.0,0.46,,,,,,,,,,,,,,,,,,
1403,0,0.0,0.46,,-0.03,0.07,0.96,-0,-0,-0,0.07,0,1980,0,0.0,0.0,0.0,0.0,0,0,0.0
1405,0,0.0,0.46,,,,,,,,,,,,,,,,,,
1407,0,0.0,0.46,,,,,,,,,,,,,,,,,,
1409,0,0.0,0.46,,,,,,,,,,,,,,,,,,
1411,0,0.0,0.46,,,,,,,,,,,,,,,,,,
1413,0,0.0,0.46,,-0.15,0.07,1.08,1,-0,-0,0.17,,,,,,,,,,
1415,0,0.0,0.46,,,,,,,,,,,,,,,,,,
1417,0,0.0,0.46,,,,,,,,,,,,,,,,,,
1419,0,0.0,0.46,,,,,,,,,,,,,,,,,,
1421,0,0.0,0.46,,,,,,,,,,,,,,,,,,
1423,0,0.0,0.47,,0.05,0.06,0.99,-0,-1,-0,0.08,0,1980,0,0.0,0.0,0.0,0.0,0,0,0.0
1425,0,0.0,0.47,,,,,,,,,,,,,,,,,,
1427,0,0.0,0.48,,,,,,,,,,,,,,,,,,
1429,0,0.0,0.47,,,,,,,,,,,,,,,,,,
1431,0,0.0,0.47,,,,,,,,,,,,,,,,,,
1433,0,0.0,0.47,,-0.08,0.07,0.98,-0,1,-1,0.11,,,,,,,,,,
1435,0,0.0,0.47,,,,,,,,,,,,,,,,,,
1437,0,0.0,0.47,,,,,,,,,,,,,,,,,,
1439,0,0.0,0.47,,,,,,,,,,,,,,,,,,
1441,0,0.0,0.47,,,,,,,,,,,,,,,,,,
1443,0,0.0,0.47,,-0.2,0.07,1.04,0,0,-0,0.21,0,2040,0,0.0,0.0,0.0,0.0,0,0,0.0
1445,0,0.0,0.47,,,,,,,,,,,,,,,,,,
1447,0,0.0,0.47,,,,,,,,,,,,,,,,,,
1449,0,0.0,0.47,,,,,,,,,,,,,,,,,,
1451,0,0.0,0.47,,,,,,,,,,,,,,,,,,
1453,0,0.0,0.47,,0.04,0.07,0.93,0,-1,-0,0.08,,,,,,,,,,
1455,0,0.0,0.47,,,,,,,,,,,,,,,,,,
1457,0,0.0,0.48,,,,,,,,,,,,,,,,,,
1459,0,0.0,0.47,,,,,,,,,,,,,,,,,,
1461,0,0.0,0.47,,,,,,,,,,,,,,,,,,
1463,0,0.0,0.47,,-0.06,0.06,0.95,0,-0,-1,0.09,0,1980,0,0.0,0.0,0.0,0.0,0,0,0.0
1465,0,0.0,0.47,,,,,,,,,,,,,,,,,,
1467,0,0.0,0.47,,,,,,,,,,,,,,,,,,
1469,0,0.0,0.47,,,,,,,,,,,,,,,,,,
1471,0,0.0,0.47,,,,,,,,,,,,,,,,,,
1473,0,0.0,0.47,,-0.13,0.05,1.06,1,-0,-0,0.14,,,,,,,,,,
1475,0,0.0,0.47,,,,,,,,,,,,,,,,,,
1477,0,0.0,0.47,,,,,,,,,,,,,,,,,,
1479,0,0.0,0.47,,,,,,,,,,,,,,,,,,
1481,0,0.0,0.47,,,,,,,,,,,,,,,,,,
1483,0,0.0,0.48,,0.03,0.07,1.0,0,-1,-0,0.08,0,1980,0,0.0,0.0,0.0,0.0,0,0,0.0
1485,0,0.0,0.48,,,,,,,,,,,,,,,,,,
1487,0,0.0,0.48,,,,,,,,,,,,,,,,,,
1489,0,0.0,0.48,,,,,,,,,,,,,,,,,,
1491,0,0.0,0.48,,,,,,,,,,,,,,,,,,
1493,0,0.0,0.48,,-0.08,0.08,0.94,-0,0,-1,0.12,,,,,,,,,,
1495,0,0.0,0.48,,,,,,,,,,,,,,,,,,
1497,0,0.0,0.48,,,,,,,,,,,,,,,,,,
1499,0,0.0,0.48,,,,,,,,,,,,,,,,,,
1501,0,0.0,0.48,,,,,,,,,,,,,,,,,,
1503,0,0.0,0.48,,-0.16,0.07,1.02,0,0,-0,0.17,0,2040,0,0.0,0.0,0.0,0.0,0,0,0.0
1505,0,0.0,0.47,,,,,,,,,,,,,,,,,,
1507,0,0.0,0.48,,,,,,,,,,,,,,,,,,
1509,0,0.0,0.48,,,,,,,,,,,,,,,,,,
1511,0,0.0,0.48,,,,,,,,,,,,,,,,,,
1513,0,0.0,0.48,,0.03,0.1,0.98,-0,-0,-0,0.1,,,,,,,,,,
1515,0,0.0,0.49,,,,,,,,,,,,,,,,,,
1517,0,0.0,0.48,,,,,,,,,,,,,,,,,,
1519,0,0.0,0.48,,,,,,,,,,,,,,,,,,
1521,0,0.0,0.48,,,,,,,,,,,,,,,,,,
1523,0,0.0,0.48,,-0.1,0.07,0.94,-0,-0,-1,0.12,0,1980,0,0.0,0.0,0.0,0.0,0,0,0.0
1525,0,0.0,0.48,,,,,,,,,,,,,,,,,,
1527,0,0.0,0.48,,,,,,,,,,,,,,,,,,
1529,0,0.0,0.48,,,,,,,,,,,,,,,,,,
1531,0,0.0,0.48,,,,,,,,,,,,,,,,,,
1533,0,0.0,0.48,,-0.11,0.03,1.05,1,-0,-0,0.11,,,,,,,,,,
1535,0,0.0,0.48,,,,,,,,,,,,,,,,,,
1537,0,0.0,0.48,,,,,,,,,,,,,,,,,,
1539,0,0.0,0.48,,,,,,,,,,,,,,,,,,
1541,0,0.0,0.48,,,,,,,,,,,,,,,,,,
1543,0,0.0,0.49,,0.04,0.09,0.97,-0,-0,-0,0.1,0,1980,0,0.0,0.0,0.0,0.0,0,0,0.0
1545,0,0.0,0.5,,,,,,,,,,,,,,,,,,
1547,0,0.0,0.49,,,,,,,,,,,,,,,,,,
1549,0,0.0,0.49,,,,,,,,,,,,,,,,,,
1551,0,0.0,0.49,,,,,,,,,,,,,,,,,,
1553,0,0.0,0.49,,-0.1,0.09,0.95,-0,0,-1,0.13,,,,,,,,,,
1555,0,0.0,0.49,,,,,,,,,,,,,,,,,,
1557,0,0.0,0.48,,,,,,,,,,,,,,,,,,
1559,0,0.0,0.48,,,,,,,,,,,,,,,,,,
1561,0,0.0,0.48,,,,,,,,,,,,,,,,,,
1563,0,0.0,0.49,,-0.13,0.04,0.94,1,-0,-0,0.14,0,2040,0,0.0,0.0,0.0,0.0,0,0,0.0
1565,0,0.0,0.48,,,,,,,,,,,,,,,,,,
1567,0,0.0,0.49,,,,,,,,,,,,,,,,,,
1569,0,0.0,0.49,,,,,,,,,,,,,,,,,,
1571,0,0.0,0.49,,,,,,,,,,,,,,,,,,
1573,0,0.0,0.49,,0.05,0.11,0.96,0,-0,-0,0.12,,,,,,,,,,
1575,0,0.0,0.5,,,,,,,,,,,,,,,,,,
1577,0,0.0,0.49,,,,,,,,,,,,,,,,,,
1579,0,0.0,0.49,,,,,,,,,,,,,,,,,,
1581,0,0.0,0.49,,,,,,,,,,,,,,,,,,
1583,0,0.0,0.49,,-0.16,0.07,0.92,-0,-0,-1,0.18,0,1980,0,0.0,0.0,0.0,0.0,0,0,0.0
1585,0,0.0,0.49,,,,,,,,,,,,,,,,,,
1587,0,0.0,0.49,,,,,,,,,,,,,,,,,,
1589,0,0.0,0.49,,,,,,,,,,,,,,,,,,
1591,0,0.0,0.49,,,,,,,,,,,,,,,,,,
1593,0,0.0,0.49,,-0.09,0.01,1.05,1,-1,0,0.09,,,,,,,,,,
1595,0,0.0,0.49,,,,,,,,,,,,,,,,,,
1597,0,0.0,0.49,,,,,,,,,,,,,,,,,,
1599,0,0.0,0.49,,,,,,,,,,,,,,,,,,
1601,0,0.0,0.49,,,,,,,,,,,,,,,,,,
1603,0,0.0,0.5,,0.03,0.09,0.94,-0,0,-0,0.1,0,2040,0,0.0,0.0,0.0,0.0,0,0,0.0
1605,0,0.0,0.5,,,,,,,,,,,,,,,,,,
1607,0,0.0,0.5,,,,,,,,,,,,,,,,,,
1609,0,0.0,0.49,,,,,,,,,,,,,,,,,,
1611,0,0.0,0.5,,,,,,,,,,,,,,,,,,
1613,0,0.0,0.49,,-0.14,0.11,0.95,-0,0,-1,0.17,,,,,,,,,,
1615,0,0.0,0.49,,,,,,,,,,,,,,,,,,
1617,0,0.0,0.49,,,,,,,,,,,,,,,,,,
1619,0,0.0,0.49,,,,,,,,,,,,,,,,,,
1621,0,0.0,0.49,,,,,,,,,,,,,,,,,,
1623,0,0.0,0.49,,-0.1,0.04,0.96,1,-1,0,0.11,0,2040,0,0.0,0.0,0.0,0.0,0,0,0.0
1625,0,0.0,0.49,,,,,,,,,,,,,,,,,,
1627,0,0.0,0.49,,,,,,,,,,,,,,,,,,
1629,0,0.0,0.49,,,,,,,,,,,,,,,,,,
1631,0,0.0,0.5,,,,,,,,,,,,,,,,,,
1633,0,0.0,0.5,,0.04,0.13,1.0,-0,0,-0,0.14,,,,,,,,,,
1635,0,0.0,0.5,,,,,,,,,,,,,,,,,,
1637,0,0.0,0.5,,,,,,,,,,,,,,,,,,
1639,0,0.0,0.5,,,,,,,,,,,,,,,,,,
1641,0,0.0,0.5,,,,,,,,,,,,,,,,,,
1643,0,0.0,0.5,,-0.23,0.07,0.96,-0,0,-1,0.24,0,1980,0,0.0,0.0,0.0,0.0,0,0,0.0
1645,0,0.0,0.5,,,,,,,,,,,,,,,,,,
1647,0,0.0,0.49,,,,,,,,,,,,,,,,,,
1649,0,0.0,0.5,,,,,,,,,,,,,,,,,,
1651,0,0.0,0.5,,,,,,,,,,,,,,,,,,
1653,0,0.0,0.5,,-0.07,0.0,1.04,0,-1,-0,0.07,,,,,,,,,,
1655,0,0.0,0.5,,,,,,,,,,,,,,,,,,
1657,0,0.0,0.5,,,,,,,,,,,,,,,,,,
1659,0,0.0,0.5,,,,,,,,,,,,,,,,,,
1661,0,0.0,0.5,,,,,,,,,,,,,,,,,,
1663,0,0.0,0.51,,0.02,0.1,0.93,-0,0,-0,0.1,0,2040,0,0.0,0.0,0.0,0.0,0,0,0.0
1665,0,0.0,0.5,,,,,,,,,,,,,,,,,,
1667,0,0.0,0.5,,,,,,,,,,,,,,,,,,
1669,0,0.0,0.5,,,,,,,,,,,,,,,,,,
1671,0,0.0,0.5,,,,,,,,,,,,,,,,,,
1673,0,0.0,0.5,,-0.2,0.12,1.0,-0,-0,-1,0.23,,,,,,,,,,
1675,0,0.0,0.5,,,,,,,,,,,,,,,,,,
1677,0,0.0,0.5,,,,,,,,,,,,,,,,,,
1679,0,0.0,0.5,,,,,,,,,,,,,,,,,,
1681,0,0.0,0.5,,,,,,,,,,,,,,,,,,
1683,0,0.0,0.5,,-0.07,0.03,0.9,0,-1,-0,0.07,0,2040,0,0.0,0.0,0.0,0.0,0,0,0.0
1685,0,0.0,0.5,,,,,,,,,,,,,,,,,,
1687,0,0.0,0.5,,,,,,,,,,,,,,,,,,
1689,0,0.0,0.5,,,,,,,,,,,,,,,,,,
1691,0,0.0,0.5,,,,,,,,,,,,,,,,,,
1693,0,0.0,0.52,,0.03,0.13,0.97,-0,1,-0,0.13,,,,,,,,,,
1695,0,0.0,0.5,,,,,,,,,,,,,,,,,,
1697,0,0.0,0.5,,,,,,,,,,,,,,,,,,
1699,0,0.0,0.5,,,,,,,,,,,,,,,,,,
1701,0,0.0,0.5,,,,,,,,,,,,,,,,,,
1703,0,0.0,0.5,,-0.28,0.08,0.99,-0,0,-1,0.29,0,1980,0,0.0,0.0,0.0,0.0,0,0,0.0
1705,0,0.0,0.5,,,,,,,,,,,,,,,,,,
1707,0,0.0,0.51,,,,,,,,,,,,,,,,,,
1709,0,0.0,0.5,,,,,,,,,,,,,,,,,,
1711,0,0.0,0.5,,,,,,,,,,,,,,,,,,
1713,0,0.0,0.51,,-0.03,-0.0,0.99,0,-1,-0,0.03,,,,,,,,,,
1715,0,0.0,0.51,,,,,,,,,,,,,,,,,,
1717,0,0.0,0.51,,,,,,,,,,,,,,,,,,
1719,0,0.0,0.51,,,,,,,,,,,,,,,,,,
1721,0,0.0,0.52,,,,,,,,,,,,,,,,,,
1723,0,0.0,0.51,,-0.01,0.1,0.96,0,0,-0,0.11,0,2040,0,0.0,0.0,0.0,0.0,0,0,0.0
1725,0,0.0,0.51,,,,,,,,,,,,,,,,,,
1727,0,0.0,0.51,,,,,,,,,,,,,,,,,,
1729,0,0.0,0.51,,,,,,,,,,,,,,,,,,
1731,0,0.0,0.51,,,,,,,,,,,,,,,,,,
1733,0,0.0,0.51,,-0.23,0.1,1.07,0,-1,-1,0.25,,,,,,,,,,
1735,0,0.0,0.51,,,,,,,,,,,,,,,,,,
1737,0,0.0,0.51,,,,,,,,,,,,,,,,,,
1739,0,0.0,0.51,,,,,,,,,,,,,,,,,,
1741,0,0.0,0.51,,,,,,,,,,,,,,,,,,
1743,0,0.0,0.51,,-0.04,0.01,0.89,0,-1,-0,0.04,0,2040,0,0.0,0.0,0.0,0.0,0,0,0.0
1745,0,0.0,0.51,,,,,,,,,,,,,,,,,,
1747,0,0.0,0.51,,,,,,,,,,,,,,,,,,
1749,0,0.0,0.51,,,,,,,,,,,,,,,,,,
1751,0,0.0,0.52,,,,,,,,,,,,,,,,,,
1753,0,0.0,0.52,,0.01,0.13,1.0,-0,0,-0,0.13,,,,,,,,,,
1755,0,0.0,0.51,,,,,,,,,,,,,,,,,,
1757,0,0.0,0.51,,,,,,,,,,,,,,,,,,
1759,0,0.0,0.51,,,,,,,,,,,,,,,,,,
1761,0,0.0,0.51,,,,,,,,,,,,,,,,,,
1763,0,0.0,0.51,,-0.24,0.1,1.03,0,-0,-1,0.26,0,1980,0,0.0,0.0,0.0,0.0,0,0,0.0
1765,0,0.0,0.51,,,,,,,,,,,,,,,,,,
1767,0,0.0,0.51,,,,,,,,,,,,,,,,,,
1769,0,0.0,0.51,,,,,,,,,,,,,,,,,,
1771,0,0.0,0.51,,,,,,,,,,,,,,,,,,
1773,0,0.0,0.51,,0.03,0.01,0.99,0,-1,-0,0.03,,,,,,,,,,
1775,0,0.0,0.52,,,,,,,,,,,,,,,,,,
1777,0,0.0,0.52,,,,,,,,,,,,,,,,,,
1779,0,0.0,0.52,,,,,,,,,,,,,,,,,,
1781,0,0.0,0.53,,,,,,,,,,,,,,,,,,
1783,0,0.0,0.52,,-0.01,0.1,0.94,0,0,-0,0.1,0,2040,0,0.0,0.0,0.0,0.0,0,0,0.0
1785,0,0.0,0.52,,,,,,,,,,,,,,,,,,
1787,0,0.0,0.52,,,,,,,,,,,,,,,,,,
1789,0,0.0,0.52,,,,,,,,,,,,,,,,,,
1791,0,0.0,0.52,,,,,,,,,,,,,,,,,,
1793,0,0.0,0.52,,-0.22,0.09,1.1,0,-0,-0,0.24,,,,,,,,,,
1795,0,0.0,0.52,,,,,,,,,,,,,,,,,,
1797,0,0.0,0.52,,,,,,,,,,,,,,,,,,
1799,0,0.0,0.52,,,,,,,,,,,,,,,,,,
1801,0,0.0,0.52,,,,,,,,,,,,,,,,,,
1803,0,0.01,0.52,,-0.02,0.02,0.93,0,-2,0,0.03,0,2040,0,0.0,0.0,0.0,0.0,0,0,0.0
1805,0,0.0,0.52,,,,,,,,,,,,,,,,,,
1807,0,0.0,0.52,,,,,,,,,,,,,,,,,,
1809,0,0.0,0.52,,,,,,,,,,,,,,,,,,
1811,0,0.0,0.52,,,,,,,,,,,,,,,,,,
1813,0,0.0,0.52,,0.01,0.11,1.0,0,0,-0,0.11,,,,,,,,,,
1815,0,0.0,0.52,,,,,,,,,,,,,,,,,,
1817,0,0.0,0.52,,,,,,,,,,,,,,,,,,
1819,0,0.0,0.52,,,,,,,,,,,,,,,,,,
1821,0,0.0,0.52,,,,,,,,,,,,,,,,,,
1823,0,0.0,0.52,,-0.19,0.1,1.07,0,-0,-1,0.22,0,1980,0,0.0,0.0,0.0,0.0,0,0,0.0
1825,0,0.0,0.52,,,,,,,,,,,,,,,,,,
1827,0,0.0,0.52,,,,,,,,,,,,,,,,,,
1829,0,0.0,0.52,,,,,,,,,,,,,,,,,,
1831,0,0.0,0.52,,,,,,,,,,,,,,,,,,
1833,0,0.0,0.52,,0.06,0.02,0.95,0,-1,-0,0.07,,,,,,,,,,
1835,0,0.0,0.53,,,,,,,,,,,,,,,,,,
1837,0,0.0,0.52,,,,,,,,,,,,,,,,,,
1839,0,0.0,0.54,,,,,,,,,,,,,,,,,,
1841,0,0.0,0.53,,,,,,,,,,,,,,,,,,
1843,0,0.0,0.53,,-0.05,0.08,0.99,-0,1,-0,0.1,0,2040,0,0.0,0.0,0.0,0.0,0,0,0.0
1845,0,0.0,0.53,,,,,,,,,,,,,,,,,,
1847,0,0.0,0.53,,,,,,,,,,,,,,,,,,
1849,0,0.0,0.53,,,,,,,,,,,,,,,,,,
1851,0,0.0,0.52,,,,,,,,,,,,,,,,,,
1853,0,0.0,0.53,,-0.22,0.08,1.05,0,-0,-1,0.24,,,,,,,,,,
1855,0,0.0,0.53,,,,,,,,,,,,,,,,,,
1857,0,0.0,0.53,,,,,,,,,,,,,,,,,,
1859,0,0.0,0.53,,,,,,,,,,,,,,,,,,
1861,0,0.0,0.52,,,,,,,,,,,,,,,,,,
1863,0,0.0,0.53,,0.0,0.04,0.92,0,-1,-0,0.04,0,2040,0,0.0,0.0,0.0,0.0,0,0,0.0
1865,0,0.0,0.53,,,,,,,,,,,,,,,,,,
1867,0,0.0,0.53,,,,,,,,,,,,,,,,,,
1869,0,0.0,0.54,,,,,,,,,,,,,,,,,,
1871,0,0.0,0.53,,,,,,,,,,,,,,,,,,
1873,0,0.0,0.53,,-0.02,0.09,0.97,0,0,-0,0.09,,,,,,,,,,
1875,0,0.0,0.53,,,,,,,,,,,,,,,,,,
1877,0,0.0,0.53,,,,,,,,,,,,,,,,,,
1879,0,0.0,0.53,,,,,,,,,,,,,,,,,,
1881,0,0.0,0.53,,,,,,,,,,,,,,,,,,
1883,0,0.0,0.53,,-0.17,0.07,1.07,0,0,-0,0.18,0,1980,0,0.0,0.0,0.0,0.0,0,0,0.0
1885,0,0.0,0.53,,,,,,,,,,,,,,,,,,
1887,0,0.0,0.53,,,,,,,,,,,,,,,,,,
1889,0,0.0,0.53,,,,,,,,,,,,,,,,,,
1891,0,0.0,0.53,,,,,,,,,,,,,,,,,,
1893,0,0.0,0.53,,0.04,0.04,0.95,0,-1,-0,0.06,,,,,,,,,,
1895,0,0.0,0.53,,,,,,,,,,,,,,,,,,
1897,0,0.0,0.53,,,,,,,,,,,,,,,,,,
1899,0,0.0,0.54,,,,,,,,,,,,,,,,,,
1901,0,0.0,0.53,,,,,,,,,,,,,,,,,,
1903,0,0.0,0.54,,-0.07,0.07,0.99,-0,1,-0,0.1,0,2040,0,0.0,0.0,0.0,0.0,0,0,0.0
1905,0,0.0,0.53,,,,,,,,,,,,,,,,,,
1907,0,0.0,0.53,,,,,,,,,,,,,,,,,,
1909,0,0.0,0.53,,,,,,,,,,,,,,,,,,
1911,0,0.0,0.53,,,,,,,,,,,,,,,,,,
1913,0,0.0,0.53,,-0.22,0.08,1.07,0,0,-0,0.23,,,,,,,,,,
1915,0,0.0,0.53,,,,,,,,,,,,,,,,,,
1917,0,0.0,0.54,,,,,,,,,,,,,,,,,,
1919,0,0.0,0.53,,,,,,,,,,,,,,,,,,
1921,0,0.0,0.53,,,,,,,,,,,,,,,,,,
1923,0,0.0,0.53,,0.01,0.05,0.96,0,-1,-0,0.05,0,2040,0,0.0,0.0,0.0,0.0,0,0,0.0
1925,0,0.0,0.53,,,,,,,,,,,,,,,,,,
1927,0,0.0,0.55,,,,,,,,,,,,,,,,,,
1929,0,0.0,0.54,,,,,,,,,,,,,,,,,,
1931,0,0.0,0.54,,,,,,,,,,,,,,,,,,
1933,0,0.0,0.54,,-0.04,0.07,0.96,0,0,-0,0.08,,,,,,,,,,
1935,0,0.0,0.54,,,,,,,,,,,,,,,,,,
1937,0,0.0,0.54,,,,,,,,,,,,,,,,,,
1939,0,0.0,0.54,,,,,,,,,,,,,,,,,,
1941,0,0.0,0.54,,,,,,,,,,,,,,,,,,
1943,0,0.0,0.54,,-0.15,0.07,1.06,1,0,-0,0.16,0,1980,0,0.0,0.0,0.0,0.0,0,0,0.0
1945,0,0.0,0.53,,,,,,,,,,,,,,,,,,
1947,0,0.0,0.54,,,,,,,,,,,,,,,,,,
1949,0,0.0,0.54,,,,,,,,,,,,,,,,,,
1951,0,0.0,0.54,,,,,,,,,,,,,,,,,,
1953,0,0.0,0.54,,0.03,0.06,0.99,0,-1,-0,0.07,,,,,,,,,,
1955,0,0.0,0.54,,,,,,,,,,,,,,,,,,
1957,0,0.0,0.55,,,,,,,,,,,,,,,,,,
1959,0,0.0,0.54,,,,,,,,,,,,,,,,,,
1961,0,0.0,0.54,,,,,,,,,,,,,,,,,,
1963,0,0.0,0.54,,-0.08,0.08,0.95,-0,1,-1,0.11,0,2040,0,0.0,0.0,0.0,0.0,0,0,0.0
1965,0,0.0,0.54,,,,,,,,,,,,,,,,,,
1967,0,0.0,0.54,,,,,,,,,,,,,,,,,,
1969,0,0.0,0.54,,,,,,,,,,,,,,,,,,
1971,0,0.0,0.54,,,,,,,,,,,,,,,,,,
1973,0,0.0,0.54,,-0.2,0.07,1.09,0,-0,-0,0.21,,,,,,,,,,
1975,0,0.0,0.54,,,,,,,,,,,,,,,,,,
1977,0,0.0,0.54,,,,,,,,,,,,,,,,,,
1979,0,0.0,0.54,,,,,,,,,,,,,,,,,,
1981,0,0.0,0.54,,,,,,,,,,,,,,,,,,
1983,0,0.0,0.54,,0.02,0.07,0.97,-0,-1,-0,0.07,0,2040,0,0.0,0.0,0.0,0.0,0,0,0.0
1985,0,0.0,0.54,,,,,,,,,,,,,,,,,,
1987,0,0.0,0.56,,,,,,,,,,,,,,,,,,
1989,0,0.0,0.55,,,,,,,,,,,,,,,,,,
1991,0,0.0,0.55,,,,,,,,,,,,,,,,,,
1993,0,0.0,0.54,,-0.08,0.07,0.96,-0,-0,-1,0.1,,,,,,,,,,
1995,0,0.0,0.54,,,,,,,,,,,,,,,,,,
1997,0,0.0,0.54,,,,,,,,,,,,,,,,,,
1999,0,0.0,0.54,,,,,,,,,,,,,,,,,,
2001,0,0.0,0.54,,,,,,,,,,,,,,,,,,
2003,0,0.0,0.55,,-0.12,0.04,1.06,1,0,-0,0.13,0,1980,0,0.0,0.0,0.0,0.0,0,0,0.0
2005,0,0.0,0.54,,,,,,,,,,,,,,,,,,
2007,0,0.0,0.54,,,,,,,,,,,,,,,,,,
2009,0,0.0,0.55,,,,,,,,,,,,,,,,,,
2011,0,0.0,0.55,,,,,,,,,,,,,,,,,,
2013,0,0.0,0.55,,0.03,0.07,0.98,-0,-1,-0,0.08,,,,,,,,,,
2015,0,0.0,0.56,,,,,,,,,,,,,,,,,,
2017,0,0.0,0.55,,,,,,,,,,,,,,,,,,
2019,0,0.0,0.55,,,,,,,,,,,,,,,,,,
2021,0,0.0,0.55,,,,,,,,,,,,,,,,,,
2023,0,0.0,0.55,,-0.08,0.08,0.96,-0,0,-1,0.12,0,2040,0,0.0,0.0,0.0,0.0,0,0,0.0
2025,0,0.0,0.55,,,,,,,,,,,,,,,,,,
2027,0,0.0,0.55,,,,,,,,,,,,,,,,,,
2029,0,0.0,0.55,,,,,,,,,,,,,,,,,,
2031,0,0.0,0.55,,,,,,,,,,,,,,,,,,
2033,0,0.0,0.55,,-0.15,0.05,0.99,0,-0,-0,0.16,,,,,,,,,,
2035,0,0.0,0.55,,,,,,,,,,,,,,,,,,
2037,0,0.0,0.55,,,,,,,,,,,,,,,,,,
2039,0,0.0,0.55,,,,,,,,,,,,,,,,,,
2041,0,0.0,0.55,,,,,,,,,,,,,,,,,,
2043,0,0.0,0.55,13.42,0.04,0.09,0.99,0,-0,-0,0.1,0,2040,0,0.0,0.0,0.0,0.0,0,0,0.0
2045,0,0.0,0.56,,,,,,,,,,,,,,,,,,
2047,0,0.0,0.55,,,,,,,,,,,,,,,,,,
2049,0,0.0,0.55,,,,,,,,,,,,,,,,,,
2051,0,0.0,0.55,,,,,,,,,,,,,,,,,,
2053,0,0.0,0.55,,-0.11,0.07,0.94,0,-0,-1,0.13,,,,,,,,,,
2055,0,0.0,0.55,,,,,,,,,,,,,,,,,,
2057,0,0.0,0.55,,,,,,,,,,,,,,,,,,
2059,0,0.0,0.55,,,,,,,,,,,,,,,,,,
2061,0,0.0,0.55,,,,,,,,,,,,,,,,,,
2063,0,0.0,0.55,,-0.11,0.02,1.05,1,-0,0,0.11,0,1980,0,0.0,0.0,0.0,0.0,0,0,0.0
2065,0,0.0,0.55,,,,,,,,,,,,,,,,,,
2067,0,0.0,0.55,,,,,,,,,,,,,,,,,,
2069,0,0.0,0.56,,,,,,,,,,,,,,,,,,
2071,0,0.01,0.55,,,,,,,,,,,,,,,,,,
2073,0,0.0,0.56,,0.04,0.08,0.95,0,-0,-0,0.09,,,,,,,,,,
2075,0,0.0,0.55,,,,,,,,,,,,,,,,,,
2077,0,0.0,0.56,,,,,,,,,,,,,,,,,,
2079,0,0.0,0.56,,,,,,,,,,,,,,,,,,
2081,0,0.0,0.56,,,,,,,,,,,,,,,,,,
2083,0,0.0,0.56,,-0.12,0.09,0.97,-0,0,-0,0.15,0,2040,0,0.0,0.0,0.0,0.0,0,0,0.0
2085,0,0.0,0.55,,,,,,,,,,,,,,,,,,
2087,0,0.0,0.56,,,,,,,,,,,,,,,,,,
2089,0,0.0,0.56,,,,,,,,,,,,,,,,,,
2091,0,0.0,0.56,,,,,,,,,,,,,,,,,,
2093,0,0.0,0.56,,-0.12,0.05,0.99,1,-1,0,0.13,,,,,,,,,,
2095,0,0.0,0.55,,,,,,,,,,,,,,,,,,
2097,0,0.0,0.56,,,,,,,,,,,,,,,,,,
2099,0,0.0,0.56,,,,,,,,,,,,,,,,,,
2101,0,0.0,0.56,,,,,,,,,,,,,,,,,,
2103,0,0.0,0.57,,0.05,0.12,0.97,0,-0,-0,0.13,0,1980,0,0.0,0.0,0.0,0.0,0,0,0.0
2105,0,0.0,0.56,,,,,,,,,,,,,,,,,,
2107,0,0.0,0.56,,,,,,,,,,,,,,,,,,
2109,0,0.0,0.56,,,,,,,,,,,,,,,,,,
2111,0,0.0,0.56,,,,,,,,,,,,,,,,,,
2113,0,0.0,0.56,,-0.19,0.08,0.94,-0,0,-1,0.21,,,,,,,,,,
2115,0,0.0,0.56,,,,,,,,,,,,,,,,,,
2117,0,0.0,0.56,,,,,,,,,,,,,,,,,,
2119,0,0.0,0.56,,,,,,,,,,,,,,,,,,
2121,0,0.0,0.56,,,,,,,,,,,,,,,,,,
2123,0,0.0,0.56,,-0.07,0.01,1.04,0,-1,-0,0.07,0,1980,0,0.0,0.0,0.0,0.0,0,0,0.0
2125,0,0.0,0.56,,,,,,,,,,,,,,,,,,
2127,0,0.0,0.56,,,,,,,,,,,,,,,,,,
2129,0,0.0,0.56,,,,,,,,,,,,,,,,,,
2131,0,0.0,0.56,,,,,,,,,,,,,,,,,,
2133,0,0.0,0.58,,0.03,0.09,0.95,-0,-0,-0,0.09,,,,,,,,,,
2135,0,0.0,0.57,,,,,,,,,,,,,,,,,,
2137,0,0.0,0.57,,,,,,,,,,,,,,,,,,
2139,0,0.0,0.57,,,,,,,,,,,,,,,,,,
2141,0,0.0,0.57,,,,,,,,,,,,,,,,,,
2143,0,0.0,0.56,,-0.16,0.12,0.97,-0,-0,-1,0.2,0,2040,0,0.0,0.0,0.0,0.0,0,0,0.0
2145,0,0.0,0.56,,,,,,,,,,,,,,,,,,
2147,0,0.0,0.56,,,,,,,,,,,,,,,,,,
2149,0,0.0,0.56,,,,,,,,,,,,,,,,,,
2151,0,0.0,0.56,,,,,,,,,,,,,,,,,,
2153,0,0.0,0.56,,-0.09,0.04,0.94,1,-1,-0,0.09,,,,,,,,,,
2155,0,0.0,0.56,,,,,,,,,,,,,,,,,,
2157,0,0.0,0.56,,,,,,,,,,,,,,,,,,
2159,0,0.0,0.56,,,,,,,,,,,,,,,,,,
2161,0,0.0,0.56,,,,,,,,,,,,,,,,,,
2163,0,0.0,0.58,,0.04,0.12,0.98,0,-0,-0,0.13,0,1980,0,0.0,0.0,0.0,0.0,0,0,0.0
2165,0,0.0,0.57,,,,,,,,,,,,,,,,,,
2167,0,0.0,0.57,,,,,,,,,,,,,,,,,,
2169,0,0.0,0.57,,,,,,,,,,,,,,,,,,
2171,0,0.0,0.56,,,,,,,,,,,,,,,,,,
2173,0,0.0,0.57,,-0.25,0.08,0.98,0,-0,-1,0.26,,,,,,,,,,
2175,0,0.0,0.57,,,,,,,,,,,,,,,,,,
2177,0,0.0,0.57,,,,,,,,,,,,,,,,,,
2179,0,0.0,0.57,,,,,,,,,,,,,,,,,,
2181,0,0.0,0.57,,,,,,,,,,,,,,,,,,
2183,0,0.0,0.57,,-0.04,0.02,1.02,0,-1,-0,0.05,0,1980,0,0.0,0.0,0.0,0.0,0,0,0.0
2185,0,0.0,0.56,,,,,,,,,,,,,,,,,,
2187,0,0.0,0.57,,,,,,,,,,,,,,,,,,
2189,0,0.0,0.57,,,,,,,,,,,,,,,,,,
2191,0,0.0,0.57,,,,,,,,,,,,,,,,,,
2193,0,0.0,0.58,,-0.0,0.09,0.96,-0,0,-0,0.09,,,,,,,,,,
2195,0,0.0,0.57,,,,,,,,,,,,,,,,,,
2197,0,0.0,0.57,,,,,,,,,,,,,,,,,,
2199,0,0.0,0.57,,,,,,,,,,,,,,,,,,
2201,0,0.0,0.57,,,,,,,,,,,,,,,,,,
2203,0,0.0,0.57,,-0.2,0.1,1.04,0,-0,-1,0.22,0,2040,0,0.0,0.0,0.0,0.0,0,0,0.0
2205,0,0.0,0.57,,,,,,,,,,,,,,,,,,
2207,0,0.0,0.57,,,,,,,,,,,,,,,,,,
2209,0,0.0,0.57,,,,,,,,,,,,,,,,,,
2211,0,0.0,0.57,,,,,,,,,,,,,,,,,,
2213,0,0.0,0.57,,-0.06,0.03,0.9,0,-1,0,0.07,,,,,,,,,,
2215,0,0.0,0.57,,,,,,,,,,,,,,,,,,
2217,0,0.0,0.57,,,,,,,,,,,,,,,,,,
2219,0,0.0,0.57,,,,,,,,,,,,,,,,,,
2221,0,0.0,0.58,,,,,,,,,,,,,,,,,,
2223,0,0.0,0.58,,0.02,0.12,0.98,0,0,-0,0.13,0,1980,0,0.0,0.0,0.0,0.0,0,0,0.0
2225,0,0.0,0.57,,,,,,,,,,,,,,,,,,
2227,0,0.0,0.57,,,,,,,,,,,,,,,,,,
2229,0,0.0,0.57,,,,,,,,,,,,,,,,,,
2231,0,0.0,0.57,,,,,,,,,,,,,,,,,,
2233,0,0.0,0.57,,-0.28,0.09,1.02,0,-0,-1,0.29,,,,,,,,,,
2235,0,0.0,0.57,,,,,,,,,,,,,,,,,,
2237,0,0.0,0.57,,,,,,,,,,,,,,,,,,
2239,0,0.0,0.57,,,,,,,,,,,,,,,,,,
2241,0,0.0,0.57,,,,,,,,,,,,,,,,,,
2243,0,0.0,0.58,,-0.0,0.01,1.0,0,-1,-0,0.01,0,1980,0,0.0,0.0,0.0,0.0,0,0,0.0
2245,0,0.0,0.58,,,,,,,,,,,,,,,,,,
2247,0,0.0,0.58,,,,,,,,,,,,,,,,,,
2249,0,0.0,0.58,,,,,,,,,,,,,,,,,,
2251,0,0.0,0.59,,,,,,,,,,,,,,,,,,
2253,0,0.0,0.58,,-0.01,0.1,0.96,0,1,-0,0.1,,,,,,,,,,
2255,0,0.0,0.58,,,,,,,,,,,,,,,,,,
2257,0,0.0,0.58,,,,,,,,,,,,,,,,,,
2259,0,0.0,0.58,,,,,,,,,,,,,,,,,,
2261,0,0.0,0.58,,,,,,,,,,,,,,,,,,
2263,0,0.0,0.58,,-0.24,0.09,1.06,0,-1,-1,0.26,0,2040,0,0.0,0.0,0.0,0.0,0,0,0.0
2265,0,0.0,0.58,,,,,,,,,,,,,,,,,,
2267,0,0.0,0.58,,,,,,,,,,,,,,,,,,
2269,0,0.0,0.57,,,,,,,,,,,,,,,,,,
2271,0,0.0,0.58,,,,,,,,,,,,,,,,,,
2273,0,0.0,0.57,,-0.04,0.01,0.87,0,-1,-0,0.04,,,,,,,,,,
2275,0,0.0,0.58,,,,,,,,,,,,,,,,,,
2277,0,0.0,0.58,,,,,,,,,,,,,,,,,,
2279,0,0.0,0.58,,,,,,,,,,,,,,,,,,
2281,0,0.0,0.59,,,,,,,,,,,,,,,,,,
2283,0,0.0,0.58,,0.0,0.12,0.97,-0,0,-0,0.12,0,1980,0,0.0,0.0,0.0,0.0,0,0,0.0
2285,0,0.0,0.58,,,,,,,,,,,,,,,,,,
2287,0,0.0,0.58,,,,,,,,,,,,,,,,,,
2289,0,0.0,0.58,,,,,,,,,,,,,,,,,,
2291,0,0.0,0.58,,,,,,,,,,,,,,,,,,
2293,0,0.0,0.58,,-0.23,0.11,1.04,0,-0,-1,0.25,,,,,,,,,,
2295,0,0.0,0.58,,,,,,,,,,,,,,,,,,
2297,0,0.0,0.58,,,,,,,,,,,,,,,,,,
2299,0,0.0,0.58,,,,,,,,,,,,,,,,,,
2301,0,0.01,0.58,,,,,,,,,,,,,,,,,,
2303,0,0.0,0.58,,0.04,0.01,0.96,0,-1,-0,0.05,0,1980,0,0.0,0.0,0.0,0.0,0,0,0.0
2305,0,0.0,0.58,,,,,,,,,,,,,,,,,,
2307,0,0.0,0.58,,,,,,,,,,,,,,,,,,
2309,0,0.0,0.59,,,,,,,,,,,,,,,,,,
2311,0,0.0,0.59,,,,,,,,,,,,,,,,,,
2313,0,0.0,0.59,,-0.04,0.09,0.95,-0,1,-0,0.09,,,,,,,,,,
2315,0,0.0,0.59,,,,,,,,,,,,,,,,,,
2317,0,0.0,0.59,,,,,,,,,,,,,,,,,,
2319,0,0.0,0.59,,,,,,,,,,,,,,,,,,
2321,0,0.0,0.59,,,,,,,,,,,,,,,,,,
2323,0,0.0,0.58,,-0.24,0.09,1.09,0,-0,-1,0.25,0,2040,0,0.0,0.0,0.0,0.0,0,0,0.0
2325,0,0.0,0.58,,,,,,,,,,,,,,,,,,
2327,0,0.0,0.59,,,,,,,,,,,,,,,,,,
2329,0,0.0,0.58,,,,,,,,,,,,,,,,,,
2331,0,0.0,0.58,,,,,,,,,,,,,,,,,,
2333,0,0.0,0.59,,-0.01,0.03,0.91,0,-2,-0,0.03,,,,,,,,,,
2335,0,0.0,0.58,,,,,,,,,,,,,,,,,,
2337,0,0.0,0.59,,,,,,,,,,,,,,,,,,
2339,0,0.0,0.6,,,,,,,,,,,,,,,,,,
2341,0,0.0,0.59,,,,,,,,,,,,,,,,,,
2343,0,0.0,0.59,,-0.01,0.09,0.98,0,-0,-0,0.09,0,1980,0,0.0,0.0,0.0,0.0,0,0,0.0
2345,0,0.0,0.59,,,,,,,,,,,,,,,,,,
2347,0,0.0,0.59,,,,,,,,,,,,,,,,,,
2349,0,0.0,0.59,,,,,,,,,,,,,,,,,,
2351,0,0.0,0.59,,,,,,,,,,,,,,,,,,
2353,0,0.0,0.59,,-0.19,0.1,1.07,0,-0,-1,0.21,,,,,,,,,,
2355,0,0.0,0.59,,,,,,,,,,,,,,,,,,
2357,0,0.0,0.59,,,,,,,,,,,,,,,,,,
2359,0,0.0,0.59,,,,,,,,,,,,,,,,,,
2361,0,0.0,0.59,,,,,,,,,,,,,,,,,,
2363,0,0.0,0.59,,0.05,0.03,0.96,0,-1,-0,0.06,0,1980,0,0.0,0.0,0.0,0.0,0,0,0.0
2365,0,0.0,0.59,,,,,,,,,,,,,,,,,,
2367,0,0.0,0.59,,,,,,,,,,,,,,,,,,
2369,0,0.0,0.61,,,,,,,,,,,,,,,,,,
2371,0,0.0,0.59,,,,,,,,,,,,,,,,,,
2373,0,0.0,0.59,,-0.07,0.07,0.98,-0,0,-0,0.09,,,,,,,,,,
2375,0,0.0,0.59,,,,,,,,,,,,,,,,,,
2377,0,0.0,0.59,,,,,,,,,,,,,,,,,,
2379,0,0.0,0.59,,,,,,,,,,,,,,,,,,
2381,0,0.0,0.59,,,,,,,,,,,,,,,,,,
2383,0,0.0,0.59,,-0.21,0.08,1.08,0,-0,-0,0.23,0,2040,0,0.0,0.0,0.0,0.0,0,0,0.0
2385,0,0.0,0.59,,,,,,,,,,,,,,,,,,
2387,0,0.0,0.59,,,,,,,,,,,,,,,,,,
2389,0,0.0,0.59,,,,,,,,,,,,,,,,,,
2391,0,0.0,0.6,,,,,,,,,,,,,,,,,,
2393,0,0.0,0.59,,0.01,0.05,0.96,0,-1,-0,0.05,,,,,,,,,,
2395,0,0.0,0.59,,,,,,,,,,,,,,,,,,
2397,0,0.0,0.61,,,,,,,,,,,,,,,,,,
2399,0,0.0,0.6,,,,,,,,,,,,,,,,,,
2401,0,0.0,0.6,,,,,,,,,,,,,,,,,,
2403,0,0.0,0.6,,-0.03,0.08,0.97,0,-0,-0,0.08,0,1980,0,0.0,0.0,0.0,0.0,0,0,0.0
2405,0,0.0,0.6,,,,,,,,,,,,,,,,,,
2407,0,0.0,0.59,,,,,,,,,,,,,,,,,,
2409,0,0.0,0.59,,,,,,,,,,,,,,,,,,
2411,0,0.0,0.6,,,,,,,,,,,,,,,,,,
2413,0,0.0,0.6,,-0.15,0.08,1.07,1,0,-0,0.17,,,,,,,,,,
2415,0,0.0,0.6,,,,,,,,,,,,,,,,,,
2417,0,0.0,0.6,,,,,,,,,,,,,,,,,,
2419,0,0.0,0.6,,,,,,,,,,,,,,,,,,
2421,0,0.0,0.6,,,,,,,,,,,,,,,,,,
2423,0,0.0,0.6,,0.03,0.07,0.98,0,-1,-0,0.08,0,1980,0,0.0,0.0,0.0,0.0,0,0,0.0
2425,0,0.0,0.6,,,,,,,,,,,,,,,,,,
2427,0,0.0,0.61,,,,,,,,,,,,,,,,,,
2429,0,0.0,0.6,,,,,,,,,,,,,,,,,,
2431,0,0.0,0.6,,,,,,,,,,,,,,,,,,
2433,0,0.0,0.6,,-0.08,0.08,0.98,-0,0,-1,0.11,,,,,,,,,,
2435,0,0.0,0.6,,,,,,,,,,,,,,,,,,
2437,0,0.0,0.6,,,,,,,,,,,,,,,,,,
2439,0,0.0,0.6,,,,,,,,,,,,,,,,,,
2441,0,0.0,0.6,,,,,,,,,,,,,,,,,,
2443,0,0.0,0.6,,-0.2,0.07,1.09,0,0,-0,0.21,0,2040,0,0.0,0.0,0.0,0.0,0,0,0.0
2445,0,0.0,0.6,,,,,,,,,,,,,,,,,,
2447,0,0.0,0.6,,,,,,,,,,,,,,,,,,
2449,0,0.0,0.6,,,,,,,,,,,,,,,,,,
2451,0,0.0,0.6,,,,,,,,,,,,,,,,,,
2453,0,0.0,0.6,,0.02,0.07,0.96,-0,-1,-0,0.07,,,,,,,,,,
2455,0,0.0,0.6,,,,,,,,,,,,,,,,,,
2457,0,0.0,0.61,,,,,,,,,,,,,,,,,,
2459,0,0.0,0.6,,,,,,,,,,,,,,,,,,
2461,0,0.0,0.6,,,,,,,,,,,,,,,,,,
2463,0,0.0,0.6,,-0.06,0.06,0.95,-0,-0,-1,0.09,0,1980,0,0.0,0.0,0.0,0.0,0,0,0.0
2465,0,0.0,0.6,,,,,,,,,,,,,,,,,,
2467,0,0.0,0.6,,,,,,,,,,,,,,,,,,
2469,0,0.0,0.6,,,,,,,,,,,,,,,,,,
2471,0,0.0,0.6,,,,,,,,,,,,,,,,,,
2473,0,0.0,0.6,,-0.12,0.06,1.06,1,0,-0,0.14,,,,,,,,,,
2475,0,0.0,0.6,,,,,,,,,,,,,,,,,,
2477,0,0.0,0.6,,,,,,,,,,,,,,,,,,
2479,0,0.0,0.61,,,,,,,,,,,,,,,,,,
2481,0,0.0,0.6,,,,,,,,,,,,,,,,,,
2483,0,0.0,0.61,,0.03,0.06,0.98,-0,-0,-0,0.07,0,1980,0,0.0,0.0,0.0,0.0,0,0,0.0
2485,0,0.0,0.62,,,,,,,,,,,,,,,,,,
2487,0,0.0,0.61,,,,,,,,,,,,,,,,,,
2489,0,0.0,0.61,,,,,,,,,,,,,,,,,,
2491,0,0.0,0.61,,,,,,,,,,,,,,,,,,
2493,0,0.0,0.61,,-0.08,0.08,0.96,-0,1,-1,0.11,,,,,,,,,,
2495,0,0.0,0.61,,,,,,,,,,,,,,,,,,
2497,0,0.0,0.61,,,,,,,,,,,,,,,,,,
2499,0,0.0,0.61,,,,,,,,,,,,,,,,,,
2501,0,0.0,0.61,,,,,,,,,,,,,,,,,,
2503,0,0.0,0.61,,-0.16,0.06,1.03,0,0,-0,0.17,0,2040,0,0.0,0.0,0.0,0.0,0,0,0.0
2505,0,0.0,0.61,,,,,,,,,,,,,,,,,,
2507,0,0.0,0.61,,,,,,,,,,,,,,,,,,
2509,0,0.0,0.61,,,,,,,,,,,,,,,,,,
2511,0,0.0,0.61,,,,,,,,,,,,,,,,,,
2513,0,0.0,0.61,,0.03,0.09,0.99,-0,-0,-0,0.09,,,,,,,,,,
2515,0,0.0,0.62,,,,,,,,,,,,,,,,,,
2517,0,0.0,0.61,,,,,,,,,,,,,,,,,,
2519,0,0.0,0.61,,,,,,,,,,,,,,,,,,
2521,0,0.0,0.61,,,,,,,,,,,,,,,,,,
2523,0,0.0,0.61,,-0.1,0.06,0.94,-0,0,-1,0.12,0,1980,0,0.0,0.0,0.0,0.0,0,0,0.0
2525,0,0.0,0.61,,,,,,,,,,,,,,,,,,
2527,0,0.0,0.61,,,,,,,,,,,,,,,,,,
2529,0,0.0,0.61,,,,,,,,,,,,,,,,,,
2531,0,0.0,0.61,,,,,,,,,,,,,,,,,,
2533,0,0.0,0.61,,-0.11,0.03,1.05,1,-0,0,0.11,,,,,,,,,,
2535,0,0.0,0.61,,,,,,,,,,,,,,,,,,
2537,0,0.0,0.61,,,,,,,,,,,,,,,,,,
2539,0,0.01,0.61,,,,,,,,,,,,,,,,,,
2541,0,0.0,0.61,,,,,,,,,,,,,,,,,,
2543,0,0.0,0.61,,0.03,0.09,0.96,-0,-1,-0,0.09,0,1980,0,0.0,0.0,0.0,0.0,0,0,0.0
2545,0,0.0,0.63,,,,,,,,,,,,,,,,,,
2547,0,0.0,0.62,,,,,,,,,,,,,,,,,,
2549,0,0.0,0.62,,,,,,,,,,,,,,,,,,
2551,0,0.0,0.62,,,,,,,,,,,,,,,,,,
2553,0,0.0,0.62,,-0.11,0.09,0.95,-0,0,-1,0.14,,,,,,,,,,
2555,0,0.0,0.61,,,,,,,,,,,,,,,,,,
2557,0,0.0,0.61,,,,,,,,,,,,,,,,,,
2559,0,0.0,0.61,,,,,,,,,,,,,,,,,,
2561,0,0.0,0.61,,,,,,,,,,,,,,,,,,
2563,0,0.0,0.61,,-0.14,0.03,0.97,0,-0,-0,0.14,0,2040,0,0.0,0.0,0.0,0.0,0,0,0.0
2565,0,0.0,0.61,,,,,,,,,,,,,,,,,,
2567,0,0.0,0.61,,,,,,,,,,,,,,,,,,
2569,0,0.0,0.61,,,,,,,,,,,,,,,,,,
2571,0,0.0,0.61,,,,,,,,,,,,,,,,,,
2573,0,0.0,0.61,,0.04,0.11,0.99,-0,0,-0,0.12,,,,,,,,,,
2575,0,0.0,0.63,,,,,,,,,,,,,,,,,,
2577,0,0.0,0.61,,,,,,,,,,,,,,,,,,
2579,0,0.0,0.62,,,,,,,,,,,,,,,,,,
2581,0,0.0,0.62,,,,,,,,,,,,,,,,,,
2583,0,0.0,0.61,,-0.16,0.07,0.93,-0,-0,-1,0.18,0,1980,0,0.0,0.0,0.0,0.0,0,0,0.0
2585,0,0.0,0.62,,,,,,,,,,,,,,,,,,
2587,0,0.0,0.62,,,,,,,,,,,,,,,,,,
2589,0,0.0,0.61,,,,,,,,,,,,,,,,,,
2591,0,0.0,0.61,,,,,,,,,,,,,,,,,,
2593,0,0.0,0.62,,-0.09,0.01,1.04,0,-1,0,0.09,,,,,,,,,,
2595,0,0.0,0.62,,,,,,,,,,,,,,,,,,
2597,0,0.0,0.61,,,,,,,,,,,,,,,,,,
2599,0,0.0,0.62,,,,,,,,,,,,,,,,,,
2601,0,0.0,0.62,,,,,,,,,,,,,,,,,,
2603,0,0.0,0.63,,0.03,0.08,0.95,-0,-0,-0,0.09,0,2040,0,0.0,0.0,0.0,0.0,0,0,0.0
2605,0,0.0,0.62,,,,,,,,,,,,,,,,,,
2607,0,0.0,0.62,,,,,,,,,,,,,,,,,,
2609,0,0.0,0.62,,,,,,,,,,,,,,,,,,
2611,0,0.0,0.62,,,,,,,,,,,,,,,,,,
2613,0,0.0,0.62,,-0.14,0.1,0.96,-0,-0,-0,0.18,,,,,,,,,,
2615,0,0.0,0.62,,,,,,,,,,,,,,,,,,
2617,0,0.0,0.62,,,,,,,,,,,,,,,,,,
2619,0,0.0,0.62,,,,,,,,,,,,,,,,,,
2621,0,0.0,0.62,,,,,,,,,,,,,,,,,,
2623,0,0.0,0.62,,-0.1,0.03,0.96,0,-1,0,0.11,0,2040,0,0.0,0.0,0.0,0.0,0,0,0.0
2625,0,0.0,0.62,,,,,,,,,,,,,,,,,,
2627,0,0.0,0.62,,,,,,,,,,,,,,,,,,
2629,0,0.0,0.62,,,,,,,,,,,,,,,,,,
2631,0,0.0,0.62,,,,,,,,,,,,,,,,,,
2633,0,0.0,0.63,,0.04,0.13,0.98,-0,0,-0,0.13,,,,,,,,,,
2635,0,0.0,0.62,,,,,,,,,,,,,,,,,,
2637,0,0.0,0.62,,,,,,,,,,,,,,,,,,
2639,0,0.0,0.62,,,,,,,,,,,,,,,,,,
2641,0,0.0,0.62,,,,,,,,,,,,,,,,,,
2643,0,0.0,0.62,,-0.21,0.07,0.96,-0,-0,-1,0.22,0,1980,0,0.0,0.0,0.0,0.0,0,0,0.0
2645,0,0.0,0.62,,,,,,,,,,,,,,,,,,
2647,0,0.0,0.62,,,,,,,,,,,,,,,,,,
2649,0,0.0,0.62,,,,,,,,,,,,,,,,,,
2651,0,0.0,0.62,,,,,,,,,,,,,,,,,,
2653,0,0.0,0.62,,-0.05,-0.0,1.0,0,-1,0,0.06,,,,,,,,,,
2655,0,0.0,0.62,,,,,,,,,,,,,,,,,,
2657,0,0.0,0.62,,,,,,,,,,,,,,,,,,
2659,0,0.0,0.63,,,,,,,,,,,,,,,,,,
2661,0,0.0,0.63,,,,,,,,,,,,,,,,,,
2663,0,0.0,0.64,,0.01,0.09,0.95,-0,0,-0,0.09,0,2040,0,0.0,0.0,0.0,0.0,0,0,0.0
2665,0,0.0,0.63,,,,,,,,,,,,,,,,,,
2667,0,0.0,0.63,,,,,,,,,,,,,,,,,,
2669,0,0.0,0.63,,,,,,,,,,,,,,,,,,
2671,0,0.0,0.63,,,,,,,,,,,,,,,,,,
2673,0,0.0,0.63,,-0.18,0.11,1.0,-0,-0,-1,0.21,,,,,,,,,,
2675,0,0.0,0.62,,,,,,,,,,,,,,,,,,
2677,0,0.0,0.63,,,,,,,,,,,,,,,,,,
2679,0,0.0,0.63,,,,,,,,,,,,,,,,,,
2681,0,0.0,0.62,,,,,,,,,,,,,,,,,,
2683,0,0.0,0.62,,-0.08,0.03,0.91,0,-1,0,0.08,0,2040,0,0.0,0.0,0.0,0.0,0,0,0.0
2685,0,0.0,0.63,,,,,,,,,,,,,,,,,,
2687,0,0.0,0.63,,,,,,,,,,,,,,,,,,
2689,0,0.0,0.63,,,,,,,,,,,,,,,,,,
2691,0,0.0,0.63,,,,,,,,,,,,,,,,,,
2693,0,0.0,0.64,,0.03,0.13,0.99,-0,0,-0,0.13,,,,,,,,,,
2695,0,0.0,0.63,,,,,,,,,,,,,,,,,,
2697,0,0.0,0.63,,,,,,,,,,,,,,,,,,
2699,0,0.0,0.63,,,,,,,,,,,,,,,,,,
2701,0,0.0,0.63,,,,,,,,,,,,,,,,,,
2703,0,0.0,0.63,,-0.26,0.08,1.01,0,-0,-1,0.27,0,1980,0,0.0,0.0,0.0,0.0,0,0,0.0
2705,0,0.0,0.63,,,,,,,,,,,,,,,,,,
2707,0,0.0,0.63,,,,,,,,,,,,,,,,,,
2709,0,0.0,0.63,,,,,,,,,,,,,,,,,,
2711,0,0.0,0.63,,,,,,,,,,,,,,,,,,
2713,0,0.0,0.63,,-0.03,0.02,1.02,0,-1,-0,0.03,,,,,,,,,,
2715,0,0.0,0.63,,,,,,,,,,,,,,,,,,
2717,0,0.0,0.63,,,,,,,,,,,,,,,,,,
2719,0,0.0,0.63,,,,,,,,,,,,,,,,,,
2721,0,0.0,0.65,,,,,,,,,,,,,,,,,,
2723,0,0.0,0.63,,0.0,0.1,0.97,0,0,-0,0.1,0,2040,0,0.0,0.0,0.0,0.0,0,0,0.0
2725,0,0.0,0.64,,,,,,,,,,,,,,,,,,
2727,0,0.0,0.63,,,,,,,,,,,,,,,,,,
2729,0,0.0,0.63,,,,,,,,,,,,,,,,,,
2731,0,0.0,0.63,,,,,,,,,,,,,,,,,,
2733,0,0.0,0.63,,-0.21,0.11,1.06,0,-1,-1,0.24,,,,,,,,,,
2735,0,0.0,0.63,,,,,,,,,,,,,,,,,,
2737,0,0.0,0.63,,,,,,,,,,,,,,,,,,
2739,0,0.0,0.64,,,,,,,,,,,,,,,,,,
2741,0,0.0,0.63,,,,,,,,,,,,,,,,,,
2743,0,0.0,0.63,,-0.04,0.03,0.89,0,-1,0,0.05,0,2040,0,0.0,0.0,0.0,0.0,0,0,0.0
2745,0,0.0,0.63,,,,,,,,,,,,,,,,,,
2747,0,0.0,0.63,,,,,,,,,,,,,,,,,,
2749,0,0.0,0.64,,,,,,,,,,,,,,,,,,
2751,0,0.0,0.65,,,,,,,,,,,,,,,,,,
2753,0,0.0,0.64,,0.02,0.13,1.0,-0,0,-0,0.13,,,,,,,,,,
2755,0,0.0,0.64,,,,,,,,,,,,,,,,,,
2757,0,0.0,0.63,,,,,,,,,,,,,,,,,,
2759,0,0.0,0.64,,,,,,,,,,,,,,,,,,
2761,0,0.0,0.63,,,,,,,,,,,,,,,,,,
2763,0,0.0,0.64,,-0.24,0.11,1.03,0,-0,-1,0.26,0,1980,0,0.0,0.0,0.0,0.0,0,0,0.0
2765,0,0.0,0.64,,,,,,,,,,,,,,,,,,
2767,0,0.0,0.64,,,,,,,,,,,,,,,,,,
2769,0,0.0,0.64,,,,,,,,,,,,,,,,,,
2771,0,0.0,0.64,,,,,,,,,,,,,,,,,,
2773,0,0.0,0.64,,0.02,0.03,1.02,0,-1,-0,0.04,,,,,,,,,,
2775,0,0.0,0.64,,,,,,,,,,,,,,,,,,
2777,0,0.0,0.64,,,,,,,,,,,,,,,,,,
2779,0,0.0,0.64,,,,,,,,,,,,,,,,,,
2781,0,0.0,0.65,,,,,,,,,,,,,,,,,,
2783,0,0.0,0.64,,-0.03,0.11,0.97,-0,1,-0,0.12,0,2040,0,0.0,0.0,0.0,0.0,0,0,0.0
2785,0,0.0,0.64,,,,,,,,,,,,,,,,,,
2787,0,0.0,0.64,,,,,,,,,,,,,,,,,,
2789,0,0.0,0.64,,,,,,,,,,,,,,,,,,
2791,0,0.0,0.64,,,,,,,,,,,,,,,,,,
2793,0,0.0,0.64,,-0.24,0.11,1.09,0,-0,-1,0.26,,,,,,,,,,
2795,0,0.0,0.64,,,,,,,,,,,,,,,,,,
2797,0,0.0,0.64,,,,,,,,,,,,,,,,,,
2799,0,0.0,0.64,,,,,,,,,,,,,,,,,,
2801,0,0.0,0.64,,,,,,,,,,,,,,,,,,
2803,0,0.0,0.64,,-0.02,0.03,0.92,0,-1,0,0.04,0,2040,0,0.0,0.0,0.0,0.0,0,0,0.0
2805,0,0.0,0.64,,,,,,,,,,,,,,,,,,
2807,0,0.01,0.64,,,,,,,,,,,,,,,,,,
2809,0,0.0,0.64,,,,,,,,,,,,,,,,,,
2811,0,0.0,0.64,,,,,,,,,,,,,,,,,,
2813,0,0.0,0.64,,0.01,0.13,1.0,0,0,-0,0.13,,,,,,,,,,
2815,0,0.0,0.64,,,,,,,,,,,,,,,,,,
2817,0,0.0,0.64,,,,,,,,,,,,,,,,,,
2819,0,0.0,0.64,,,,,,,,,,,,,,,,,,
2821,0,0.0,0.64,,,,,,,,,,,,,,,,,,
2823,0,0.0,0.64,,-0.23,0.11,1.06,0,-0,-1,0.25,0,1980,0,0.0,0.0,0.0,0.0,0,0,0.0
2825,0,0.0,0.64,,,,,,,,,,,,,,,,,,
2827,0,0.0,0.64,,,,,,,,,,,,,,,,,,
2829,0,0.0,0.64,,,,,,,,,,,,,,,,,,
2831,0,0.0,0.64,,,,,,,,,,,,,,,,,,
2833,0,0.0,0.64,,0.05,0.03,0.99,0,-1,-0,0.06,,,,,,,,,,
2835,0,0.0,0.64,,,,,,,,,,,,,,,,,,
2837,0,0.0,0.65,,,,,,,,,,,,,,,,,,
2839,0,0.0,0.66,,,,,,,,,,,,,,,,,,
2841,0,0.0,0.65,,,,,,,,,,,,,,,,,,
2843,0,0.0,0.65,,-0.05,0.08,0.95,-0,1,-1,0.09,0,2040,0,0.0,0.0,0.0,0.0,0,0,0.0
2845,0,0.0,0.65,,,,,,,,,,,,,,,,,,
2847,0,0.0,0.65,,,,,,,,,,,,,,,,,,
2849,0,0.0,0.65,,,,,,,,,,,,,,,,,,
2851,0,0.0,0.64,,,,,,,,,,,,,,,,,,
2853,0,0.0,0.65,,-0.24,0.09,1.09,0,-0,-1,0.26,,,,,,,,,,
2855,0,0.0,0.65,,,,,,,,,,,,,,,,,,
2857,0,0.0,0.65,,,,,,,,,,,,,,,,,,
2859,0,0.0,0.64,,,,,,,,,,,,,,,,,,
2861,0,0.0,0.65,,,,,,,,,,,,,,,,,,
2863,0,0.0,0.65,,-0.0,0.04,0.92,0,-1,-0,0.04,0,2040,0,0.0,0.0,0.0,0.0,0,0,0.0
2865,0,0.0,0.65,,,,,,,,,,,,,,,,,,
2867,0,0.0,0.65,,,,,,,,,,,,,,,,,,
2869,0,0.0,0.67,,,,,,,,,,,,,,,,,,
2871,0,0.0,0.65,,,,,,,,,,,,,,,,,,
2873,0,0.0,0.65,,-0.01,0.09,0.98,-0,0,-1,0.09,,,,,,,,,,
2875,0,0.0,0.65,,,,,,,,,,,,,,,,,,
2877,0,0.0,0.65,,,,,,,,,,,,,,,,,,
2879,0,0.0,0.65,,,,,,,,,,,,,,,,,,
2881,0,0.0,0.65,,,,,,,,,,,,,,,,,,
2883,0,0.0,0.65,,-0.19,0.09,1.06,0,0,-1,0.21,0,1980,0,0.0,0.0,0.0,0.0,0,0,0.0
2885,0,0.0,0.65,,,,,,,,,,,,,,,,,,
2887,0,0.0,0.65,,,,,,,,,,,,,,,,,,
2889,0,0.0,0.65,,,,,,,,,,,,,,,,,,
2891,0,0.0,0.65,,,,,,,,,,,,,,,,,,
2893,0,0.0,0.65,,0.04,0.05,0.97,0,-1,-0,0.06,,,,,,,,,,
2895,0,0.0,0.65,,,,,,,,,,,,,,,,,,
2897,0,0.0,0.66,,,,,,,,,,,,,,,,,,
2899,0,0.0,0.65,,,,,,,,,,,,,,,,,,
2901,0,0.0,0.66,,,,,,,,,,,,,,,,,,
2903,0,0.0,0.65,,-0.07,0.06,0.99,-0,1,-1,0.09,0,2040,0,0.0,0.0,0.0,0.0,0,0,0.0
2905,0,0.0,0.65,,,,,,,,,,,,,,,,,,
2907,0,0.0,0.65,,,,,,,,,,,,,,,,,,
2909,0,0.0,0.65,,,,,,,,,,,,,,,,,,
2911,0,0.0,0.65,,,,,,,,,,,,,,,,,,
2913,0,0.0,0.65,,-0.22,0.08,1.07,0,-0,-0,0.23,,,,,,,,,,
2915,0,0.0,0.65,,,,,,,,,,,,,,,,,,
2917,0,0.0,0.65,,,,,,,,,,,,,,,,,,
2919,0,0.0,0.65,,,,,,,,,,,,,,,,,,
2921,0,0.0,0.65,,,,,,,,,,,,,,,,,,
2923,0,0.0,0.65,,0.0,0.05,0.96,-0,-1,-0,0.05,0,2040,0,0.0,0.0,0.0,0.0,0,0,0.0
2925,0,0.0,0.65,,,,,,,,,,,,,,,,,,
2927,0,0.0,0.67,,,,,,,,,,,,,,,,,,
2929,0,0.0,0.66,,,,,,,,,,,,,,,,,,
2931,0,0.0,0.66,,,,,,,,,,,,,,,,,,
2933,0,0.0,0.66,,-0.04,0.07,0.97,-0,-0,-1,0.08,,,,,,,,,,
2935,0,0.0,0.65,,,,,,,,,,,,,,,,,,
2937,0,0.0,0.65,,,,,,,,,,,,,,,,,,
2939,0,0.0,0.65,,,,,,,,,,,,,,,,,,
2941,0,0.0,0.66,,,,,,,,,,,,,,,,,,
2943,0,0.0,0.65,,-0.16,0.08,1.06,0,0,-0,0.18,0,1980,0,0.0,0.0,0.0,0.0,0,0,0.0
2945,0,0.0,0.65,,,,,,,,,,,,,,,,,,
2947,0,0.0,0.65,,,,,,,,,,,,,,,,,,
2949,0,0.0,0.66,,,,,,,,,,,,,,,,,,
2951,0,0.0,0.66,,,,,,,,,,,,,,,,,,
2953,0,0.0,0.66,,0.02,0.06,1.01,-0,-1,-0,0.06,,,,,,,,,,
2955,0,0.0,0.66,,,,,,,,,,,,,,,,,,
2957,0,0.0,0.67,,,,,,,,,,,,,,,,,,
2959,0,0.0,0.66,,,,,,,,,,,,,,,,,,
2961,0,0.0,0.66,,,,,,,,,,,,,,,,,,
2963,0,0.0,0.66,,-0.08,0.07,0.96,-0,0,-1,0.11,0,2040,0,0.0,0.0,0.0,0.0,0,0,0.0
2965,0,0.0,0.66,,,,,,,,,,,,,,,,,,
2967,0,0.0,0.66,,,,,,,,,,,,,,,,,,
2969,0,0.0,0.66,,,,,,,,,,,,,,,,,,
2971,0,0.0,0.66,,,,,,,,,,,,,,,,,,
2973,0,0.0,0.66,,-0.19,0.07,1.08,0,0,-0,0.2,,,,,,,,,,
2975,0,0.0,0.66,,,,,,,,,,,,,,,,,,
2977,0,0.0,0.66,,,,,,,,,,,,,,,,,,
2979,0,0.0,0.66,,,,,,,,,,,,,,,,,,
2981,0,0.0,0.66,,,,,,,,,,,,,,,,,,
2983,0,0.0,0.66,,0.01,0.06,0.97,-0,-1,-0,0.06,0,2040,0,0.0,0.0,0.0,0.0,0,0,0.0
2985,0,0.0,0.66,,,,,,,,,,,,,,,,,,
2987,0,0.0,0.67,,,,,,,,,,,,,,,,,,
2989,0,0.0,0.66,,,,,,,,,,,,,,,,,,
2991,0,0.0,0.66,,,,,,,,,,,,,,,,,,
2993,0,0.0,0.66,,-0.06,0.06,0.95,-0,-0,-1,0.09,,,,,,,,,,
2995,0,0.0,0.66,,,,,,,,,,,,,,,,,,
2997,0,0.0,0.66,,,,,,,,,,,,,,,,,,
2999,0,0.0,0.66,,,,,,,,,,,,,,,,,,
3001,0,0.0,0.66,,,,,,,,,,,,,,,,,,
3003,0,0.0,0.66,,-0.14,0.05,1.07,1,-0,-0,0.15,0,1980,0,0.0,0.0,0.0,0.0,0,0,0.0
3005,0,0.0,0.66,,,,,,,,,,,,,,,,,,
3007,0,0.0,0.66,,,,,,,,,,,,,,,,,,
3009,0,0.0,0.66,,,,,,,,,,,,,,,,,,
3011,0,0.0,0.66,,,,,,,,,,,,,,,,,,
3013,0,0.0,0.66,,0.03,0.07,0.99,-0,-1,-0,0.07,,,,,,,,,,
3015,0,0.0,0.68,,,,,,,,,,,,,,,,,,
3017,0,0.0,0.67,,,,,,,,,,,,,,,,,,
3019,0,0.0,0.67,,,,,,,,,,,,,,,,,,
3021,0,0.0,0.67,,,,,,,,,,,,,,,,,,
3023,0,0.0,0.67,,-0.09,0.08,0.93,-0,0,-1,0.12,0,2040,0,0.0,0.0,0.0,0.0,0,0,0.0
3025,0,0.0,0.67,,,,,,,,,,,,,,,,,,
3027,0,0.0,0.67,,,,,,,,,,,,,,,,,,
3029,0,0.0,0.66,,,,,,,,,,,,,,,,,,
3031,0,0.0,0.66,,,,,,,,,,,,,,,,,,
3033,0,0.0,0.66,,-0.17,0.06,1.06,0,-0,-0,0.18,,,,,,,,,,
3035,0,0.0,0.66,,,,,,,,,,,,,,,,,,
3037,0,0.0,0.66,,,,,,,,,,,,,,,,,,
3039,0,0.0,0.66,,,,,,,,,,,,,,,,,,
3041,0,0.0,0.66,,,,,,,,,,,,,,,,,,
3043,0,0.0,0.66,13.41,0.03,0.08,0.98,-0,-1,-0,0.09,0,2040,0,0.0,0.0,0.0,0.0,0,0,0.0
3045,0,0.0,0.67,,,,,,,,,,,,,,,,,,
3047,0,0.0,0.66,,,,,,,,,,,,,,,,,,
3049,0,0.0,0.67,,,,,,,,,,,,,,,,,,
3051,0,0.0,0.67,,,,,,,,,,,,,,,,,,
3053,0,0.0,0.67,,-0.09,0.07,0.95,-0,-1,-0,0.12,,,,,,,,,,
3055,0,0.0,0.67,,,,,,,,,,,,,,,,,,
3057,0,0.0,0.67,,,,,,,,,,,,,,,,,,
3059,0,0.0,0.67,,,,,,,,,,,,,,,,,,
3061,0,0.0,0.67,,,,,,,,,,,,,,,,,,
3063,0,0.0,0.67,,-0.11,0.03,1.06,0,-0,-0,0.11,0,1980,0,0.0,0.0,0.0,0.0,0,0,0.0
3065,0,0.0,0.67,,,,,,,,,,,,,,,,,,
3067,0,0.0,0.67,,,,,,,,,,,,,,,,,,
3069,0,0.0,0.67,,,,,,,,,,,,,,,,,,
