"Interval"|"ms"|0|0|1,"Utc"|"ms"|0|0|1,"Analog4"|"Volts"|0.0|5.0|500,"Analog5"|"Volts"|0.0|5.0|500,"Battery"|"Volts"|0.0|20.0|1,"AccelX"|"G"|-3.0|3.0|200,"AccelY"|"G"|-3.0|3.0|200,"AccelZ"|"G"|-3.0|3.0|200,"Yaw"|"Deg/Sec"|-120|120|200,"Pitch"|"Deg/Sec"|-120|120|200,"Roll"|"Deg/Sec"|-120|120|200,"Gsum"|"G"|0.0|3.0|200,"RPM2"|"rpm"|0|8000|50,"RPM3"|"rpm"|0|8000|50,"GPIO1"|""|0.0|1.0|50,"Latitude"|"Degrees"|-180.0|180.0|50,"Longitude"|"Degrees"|-180.0|180.0|50,"Speed"|"mph"|0.0|150.0|50,"Altitude"|"ft"|0.0|4000.0|50,"GPSSats"|""|0|20|50,"GPSQual"|""|0|5|50,"GPSDOP"|""|0.0|20.0|50
103,0,0.0,0.61,,-0.02,0.05,0.96,-0,-1,-0,0.05,0,1980,0,0.0,0.0,0.0,0.0,0,0,0.0
105,0,0.0,0.61,,,,,,,,,,,,,,,,,,
107,0,0.0,0.61,,,,,,,,,,,,,,,,,,
109,0,0.0,0.63,,,,,,,,,,,,,,,,,,
111,0,0.0,0.61,,,,,,,,,,,,,,,,,,
113,0,0.0,0.61,,-0.04,0.07,0.97,0,-0,-0,0.09,,,,,,,,,,
115,0,0.0,0.61,,,,,,,,,,,,,,,,,,
117,0,0.0,0.61,,,,,,,,,,,,,,,,,,
119,0,0.0,0.61,,,,,,,,,,,,,,,,,,
121,0,0.0,0.62,,,,,,,,,,,,,,,,,,
123,0,0.0,0.61,,-0.11,0.13,1.03,0,-0,-0,0.17,0,1980,0,0.0,0.0,0.0,0.0,0,0,0.0
125,0,0.0,0.61,,,,,,,,,,,,,,,,,,
127,0,0.0,0.61,,,,,,,,,,,,,,,,,,
129,0,0.0,0.61,,,,,,,,,,,,,,,,,,
131,0,0.0,0.62,,,,,,,,,,,,,,,,,,
133,0,0.0,0.61,,-0.0,0.06,1.02,-0,-1,-0,0.06,,,,,,,,,,
135,0,0.0,0.61,,,,,,,,,,,,,,,,,,
137,0,0.0,0.62,,,,,,,,,,,,,,,,,,
139,0,0.0,0.62,,,,,,,,,,,,,,,,,,
141,0,0.0,0.62,,,,,,,,,,,,,,,,,,
143,0,0.0,0.62,,-0.1,0.06,0.96,-0,1,-1,0.11,0,2040,0,0.0,0.0,0.0,0.0,0,0,0.0
145,0,0.0,0.62,,,,,,,,,,,,,,,,,,
147,0,0.0,0.61,,,,,,,,,,,,,,,,,,
149,0,0.0,0.61,,,,,,,,,,,,,,,,,,
151,0,0.0,0.62,,,,,,,,,,,,,,,,,,
153,0,0.0,0.61,,-0.14,0.12,1.04,0,-0,-0,0.18,,,,,,,,,,
155,0,0.0,0.61,,,,,,,,,,,,,,,,,,
157,0,0.0,0.62,,,,,,,,,,,,,,,,,,
159,0,0.0,0.61,,,,,,,,,,,,,,,,,,
161,0,0.0,0.61,,,,,,,,,,,,,,,,,,
163,0,0.0,0.61,,-0.03,0.05,0.95,-0,-1,-0,0.06,0,2040,0,0.0,0.0,0.0,0.0,0,0,0.0
165,0,0.0,0.62,,,,,,,,,,,,,,,,,,
167,0,0.0,0.63,,,,,,,,,,,,,,,,,,
169,0,0.0,0.62,,,,,,,,,,,,,,,,,,
171,0,0.0,0.62,,,,,,,,,,,,,,,,,,
173,0,0.0,0.62,,-0.09,0.07,0.97,0,-1,-0,0.11,,,,,,,,,,
175,0,0.0,0.62,,,,,,,,,,,,,,,,,,
177,0,0.0,0.62,,,,,,,,,,,,,,,,,,
179,0,0.0,0.62,,,,,,,,,,,,,,,,,,
181,0,0.0,0.62,,,,,,,,,,,,,,,,,,
183,0,0.0,0.62,,-0.13,0.13,0.95,1,-1,-0,0.18,0,1980,0,0.0,0.0,0.0,0.0,0,0,0.0
185,0,0.0,0.62,,,,,,,,,,,,,,,,,,
187,0,0.0,0.62,,,,,,,,,,,,,,,,,,
189,0,0.0,0.62,,,,,,,,,,,,,,,,,,
191,0,0.0,0.62,,,,,,,,,,,,,,,,,,
193,0,0.0,0.62,,-0.0,0.06,0.98,-0,-1,-0,0.06,,,,,,,,,,
195,0,0.0,0.62,,,,,,,,,,,,,,,,,,
197,0,0.0,0.63,,,,,,,,,,,,,,,,,,
199,0,0.0,0.62,,,,,,,,,,,,,,,,,,
201,0,0.0,0.62,,,,,,,,,,,,,,,,,,
203,0,0.0,0.62,,-0.12,0.08,0.95,-0,0,-1,0.14,0,2040,0,0.0,0.0,0.0,0.0,0,0,0.0
205,0,0.0,0.62,,,,,,,,,,,,,,,,,,
207,0,0.0,0.62,,,,,,,,,,,,,,,,,,
209,0,0.0,0.62,,,,,,,,,,,,,,,,,,
211,0,0.0,0.61,,,,,,,,,,,,,,,,,,
213,0,0.0,0.62,,-0.14,0.11,1.04,0,-0,-0,0.18,,,,,,,,,,
215,0,0.0,0.62,,,,,,,,,,,,,,,,,,
217,0,0.0,0.62,,,,,,,,,,,,,,,,,,
219,0,0.0,0.62,,,,,,,,,,,,,,,,,,
221,0,0.0,0.62,,,,,,,,,,,,,,,,,,
223,0,0.0,0.62,,-0.04,0.05,0.98,-0,-1,-0,0.07,0,2040,0,0.0,0.0,0.0,0.0,0,0,0.0
225,0,0.0,0.62,,,,,,,,,,,,,,,,,,
227,0,0.0,0.63,,,,,,,,,,,,,,,,,,
229,0,0.0,0.62,,,,,,,,,,,,,,,,,,
231,0,0.0,0.62,,,,,,,,,,,,,,,,,,
233,0,0.0,0.62,,-0.09,0.07,0.93,0,-0,-0,0.11,,,,,,,,,,
235,0,0.0,0.62,,,,,,,,,,,,,,,,,,
237,0,0.0,0.62,,,,,,,,,,,,,,,,,,
239,0,0.0,0.62,,,,,,,,,,,,,,,,,,
241,0,0.0,0.62,,,,,,,,,,,,,,,,,,
243,0,0.0,0.62,,-0.08,0.11,1.01,0,-0,-0,0.13,0,1980,0,0.0,0.0,0.0,0.0,0,0,0.0
245,0,0.0,0.62,,,,,,,,,,,,,,,,,,
247,0,0.0,0.62,,,,,,,,,,,,,,,,,,
249,0,0.0,0.62,,,,,,,,,,,,,,,,,,
251,0,0.0,0.62,,,,,,,,,,,,,,,,,,
253,0,0.0,0.62,,-0.02,0.07,0.99,-0,-1,-0,0.07,,,,,,,,,,
255,0,0.0,0.63,,,,,,,,,,,,,,,,,,
257,0,0.0,0.63,,,,,,,,,,,,,,,,,,
259,0,0.0,0.62,,,,,,,,,,,,,,,,,,
261,0,0.0,0.62,,,,,,,,,,,,,,,,,,
263,0,0.0,0.62,,-0.12,0.07,0.93,-0,-0,-1,0.14,0,2040,0,0.0,0.0,0.0,0.0,0,0,0.0
265,0,0.0,0.62,,,,,,,,,,,,,,,,,,
267,0,0.0,0.62,,,,,,,,,,,,,,,,,,
269,0,0.0,0.62,,,,,,,,,,,,,,,,,,
271,0,0.0,0.62,,,,,,,,,,,,,,,,,,
273,0,0.0,0.62,,-0.11,0.09,1.0,0,-0,-0,0.14,,,,,,,,,,
275,0,0.0,0.62,,,,,,,,,,,,,,,,,,
277,0,0.0,0.62,,,,,,,,,,,,,,,,,,
279,0,0.0,0.62,,,,,,,,,,,,,,,,,,
281,0,0.0,0.62,,,,,,,,,,,,,,,,,,
283,0,0.0,0.63,,-0.03,0.06,0.99,-0,-1,-0,0.06,0,2040,0,0.0,0.0,0.0,0.0,0,0,0.0
285,0,0.0,0.64,,,,,,,,,,,,,,,,,,
287,0,0.0,0.63,,,,,,,,,,,,,,,,,,
289,0,0.0,0.62,,,,,,,,,,,,,,,,,,
291,0,0.0,0.62,,,,,,,,,,,,,,,,,,
293,0,0.0,0.63,,-0.11,0.06,0.93,0,-1,-0,0.12,,,,,,,,,,
295,0,0.0,0.63,,,,,,,,,,,,,,,,,,
297,0,0.0,0.63,,,,,,,,,,,,,,,,,,
299,0,0.0,0.62,,,,,,,,,,,,,,,,,,
301,0,0.0,0.62,,,,,,,,,,,,,,,,,,
303,0,0.0,0.62,,-0.06,0.09,1.0,1,-0,-0,0.11,0,1980,0,0.0,0.0,0.0,0.0,0,0,0.0
305,0,0.0,0.62,,,,,,,,,,,,,,,,,,
307,0,0.0,0.63,,,,,,,,,,,,,,,,,,
309,0,0.0,0.63,,,,,,,,,,,,,,,,,,
311,0,0.0,0.63,,,,,,,,,,,,,,,,,,
313,0,0.0,0.63,,-0.02,0.07,1.01,-0,-0,-0,0.07,,,,,,,,,,
315,0,0.0,0.64,,,,,,,,,,,,,,,,,,
317,0,0.0,0.63,,,,,,,,,,,,,,,,,,
319,0,0.0,0.63,,,,,,,,,,,,,,,,,,
321,0,0.0,0.63,,,,,,,,,,,,,,,,,,
323,0,0.0,0.63,,-0.12,0.09,0.94,0,-0,-0,0.15,0,2040,0,0.0,0.0,0.0,0.0,0,0,0.0
325,0,0.0,0.63,,,,,,,,,,,,,,,,,,
327,0,0.0,0.63,,,,,,,,,,,,,,,,,,
329,0,0.0,0.63,,,,,,,,,,,,,,,,,,
331,0,0.0,0.63,,,,,,,,,,,,,,,,,,
333,0,0.0,0.63,,-0.08,0.09,1.0,0,-0,-0,0.12,,,,,,,,,,
335,0,0.0,0.63,,,,,,,,,,,,,,,,,,
337,0,0.0,0.63,,,,,,,,,,,,,,,,,,
339,0,0.0,0.63,,,,,,,,,,,,,,,,,,
341,0,0.0,0.63,,,,,,,,,,,,,,,,,,
343,0,0.0,0.63,,-0.03,0.09,1.01,-0,-0,-0,0.09,0,2040,0,0.0,0.0,0.0,0.0,0,0,0.0
345,0,0.0,0.64,,,,,,,,,,,,,,,,,,
347,0,0.0,0.63,,,,,,,,,,,,,,,,,,
349,0,0.0,0.63,,,,,,,,,,,,,,,,,,
351,0,0.0,0.63,,,,,,,,,,,,,,,,,,
353,0,0.0,0.63,,-0.14,0.08,0.94,-0,-0,-1,0.16,,,,,,,,,,
355,0,0.0,0.63,,,,,,,,,,,,,,,,,,
357,0,0.0,0.63,,,,,,,,,,,,,,,,,,
359,0,0.0,0.63,,,,,,,,,,,,,,,,,,
361,0,0.0,0.63,,,,,,,,,,,,,,,,,,
363,0,0.0,0.63,,-0.05,0.08,1.0,0,-0,-0,0.09,0,1980,0,0.0,0.0,0.0,0.0,0,0,0.0
365,0,0.0,0.63,,,,,,,,,,,,,,,,,,
367,0,0.0,0.63,,,,,,,,,,,,,,,,,,
369,0,0.0,0.63,,,,,,,,,,,,,,,,,,
371,0,0.0,0.63,,,,,,,,,,,,,,,,,,
373,0,0.0,0.63,,-0.03,0.08,0.99,-0,-0,-0,0.08,,,,,,,,,,
375,0,0.0,0.64,,,,,,,,,,,,,,,,,,
377,0,0.0,0.63,,,,,,,,,,,,,,,,,,
379,0,0.0,0.63,,,,,,,,,,,,,,,,,,
381,0,0.0,0.63,,,,,,,,,,,,,,,,,,
383,0,0.0,0.63,,-0.13,0.11,0.94,-0,-1,-1,0.17,0,2040,0,0.0,0.0,0.0,0.0,0,0,0.0
385,0,0.0,0.63,,,,,,,,,,,,,,,,,,
387,0,0.0,0.63,,,,,,,,,,,,,,,,,,
389,0,0.0,0.63,,,,,,,,,,,,,,,,,,
391,0,0.0,0.63,,,,,,,,,,,,,,,,,,
393,0,0.0,0.63,,-0.08,0.07,0.97,0,-1,-0,0.1,,,,,,,,,,
395,0,0.0,0.63,,,,,,,,,,,,,,,,,,
397,0,0.0,0.63,,,,,,,,,,,,,,,,,,
399,0,0.0,0.63,,,,,,,,,,,,,,,,,,
401,0,0.0,0.63,,,,,,,,,,,,,,,,,,
403,0,0.0,0.64,,-0.03,0.09,1.02,-0,-0,-0,0.1,0,1980,0,0.0,0.0,0.0,0.0,0,0,0.0
405,0,0.0,0.64,,,,,,,,,,,,,,,,,,
407,0,0.0,0.64,,,,,,,,,,,,,,,,,,
409,0,0.0,0.63,,,,,,,,,,,,,,,,,,
411,0,0.0,0.63,,,,,,,,,,,,,,,,,,
413,0,0.0,0.64,,-0.17,0.09,0.96,0,-1,-1,0.19,,,,,,,,,,
415,0,0.0,0.63,,,,,,,,,,,,,,,,,,
417,0,0.0,0.64,,,,,,,,,,,,,,,,,,
419,0,0.0,0.64,,,,,,,,,,,,,,,,,,
421,0,0.0,0.64,,,,,,,,,,,,,,,,,,
423,0,0.0,0.64,,-0.05,0.05,1.02,0,-1,-0,0.07,0,1980,0,0.0,0.0,0.0,0.0,0,0,0.0
425,0,0.0,0.63,,,,,,,,,,,,,,,,,,
427,0,0.0,0.64,,,,,,,,,,,,,,,,,,
429,0,0.0,0.63,,,,,,,,,,,,,,,,,,
431,0,0.0,0.64,,,,,,,,,,,,,,,,,,
433,0,0.0,0.65,,-0.05,0.08,1.0,-0,-0,-0,0.09,,,,,,,,,,
435,0,0.0,0.64,,,,,,,,,,,,,,,,,,
437,0,0.0,0.64,,,,,,,,,,,,,,,,,,
439,0,0.0,0.64,,,,,,,,,,,,,,,,,,
441,0,0.0,0.64,,,,,,,,,,,,,,,,,,
443,0,0.0,0.64,,-0.13,0.11,0.96,0,-1,-1,0.17,0,2040,0,0.0,0.0,0.0,0.0,0,0,0.0
445,0,0.0,0.64,,,,,,,,,,,,,,,,,,
447,0,0.0,0.64,,,,,,,,,,,,,,,,,,
449,0,0.0,0.64,,,,,,,,,,,,,,,,,,
451,0,0.0,0.64,,,,,,,,,,,,,,,,,,
453,0,0.0,0.64,,-0.06,0.07,0.97,0,-1,-0,0.09,,,,,,,,,,
455,0,0.0,0.64,,,,,,,,,,,,,,,,,,
457,0,0.0,0.64,,,,,,,,,,,,,,,,,,
459,0,0.0,0.64,,,,,,,,,,,,,,,,,,
461,0,0.0,0.64,,,,,,,,,,,,,,,,,,
463,0,0.0,0.65,,-0.03,0.11,1.04,-0,0,-0,0.11,0,1980,0,0.0,0.0,0.0,0.0,0,0,0.0
465,0,0.0,0.64,,,,,,,,,,,,,,,,,,
467,0,0.0,0.64,,,,,,,,,,,,,,,,,,
469,0,0.0,0.64,,,,,,,,,,,,,,,,,,
471,0,0.0,0.64,,,,,,,,,,,,,,,,,,
473,0,0.0,0.64,,-0.19,0.09,0.98,0,-0,-1,0.21,,,,,,,,,,
475,0,0.0,0.64,,,,,,,,,,,,,,,,,,
477,0,0.0,0.64,,,,,,,,,,,,,,,,,,
479,0,0.0,0.64,,,,,,,,,,,,,,,,,,
481,0,0.0,0.64,,,,,,,,,,,,,,,,,,
483,0,0.0,0.64,,-0.04,0.05,1.01,0,-1,-0,0.06,0,1980,0,0.0,0.0,0.0,0.0,0,0,0.0
485,0,0.0,0.64,,,,,,,,,,,,,,,,,,
487,0,0.0,0.64,,,,,,,,,,,,,,,,,,
489,0,0.0,0.64,,,,,,,,,,,,,,,,,,
491,0,0.0,0.64,,,,,,,,,,,,,,,,,,
493,0,0.0,0.65,,-0.05,0.08,0.99,-0,0,-0,0.1,,,,,,,,,,
495,0,0.0,0.64,,,,,,,,,,,,,,,,,,
497,0,0.0,0.65,,,,,,,,,,,,,,,,,,
499,0,0.0,0.64,,,,,,,,,,,,,,,,,,
501,0,0.0,0.64,,,,,,,,,,,,,,,,,,
503,0,0.0,0.64,,-0.15,0.11,0.97,0,-1,-1,0.18,0,2040,0,0.0,0.0,0.0,0.0,0,0,0.0
505,0,0.0,0.64,,,,,,,,,,,,,,,,,,
507,0,0.0,0.64,,,,,,,,,,,,,,,,,,
509,0,0.0,0.65,,,,,,,,,,,,,,,,,,
511,0,0.0,0.65,,,,,,,,,,,,,,,,,,
513,0,0.0,0.65,,-0.05,0.05,0.93,0,-1,-0,0.07,,,,,,,,,,
515,0,0.0,0.65,,,,,,,,,,,,,,,,,,
517,0,0.0,0.65,,,,,,,,,,,,,,,,,,
519,0,0.0,0.64,,,,,,,,,,,,,,,,,,
521,0,0.0,0.65,,,,,,,,,,,,,,,,,,
523,0,0.0,0.65,,-0.04,0.11,1.03,-0,0,-1,0.12,0,1980,0,0.0,0.0,0.0,0.0,0,0,0.0
525,0,0.0,0.65,,,,,,,,,,,,,,,,,,
527,0,0.0,0.65,,,,,,,,,,,,,,,,,,
529,0,0.0,0.65,,,,,,,,,,,,,,,,,,
531,0,0.0,0.65,,,,,,,,,,,,,,,,,,
533,0,0.0,0.65,,-0.19,0.1,0.98,0,-1,-1,0.21,,,,,,,,,,
535,0,0.0,0.65,,,,,,,,,,,,,,,,,,
537,0,0.0,0.65,,,,,,,,,,,,,,,,,,
539,0,0.0,0.65,,,,,,,,,,,,,,,,,,
541,0,0.0,0.65,,,,,,,,,,,,,,,,,,
543,0,0.0,0.65,,-0.03,0.04,1.01,0,-1,-1,0.05,0,1980,0,0.0,0.0,0.0,0.0,0,0,0.0
545,0,0.0,0.65,,,,,,,,,,,,,,,,,,
547,0,0.0,0.65,,,,,,,,,,,,,,,,,,
549,0,0.0,0.65,,,,,,,,,,,,,,,,,,
551,0,0.0,0.66,,,,,,,,,,,,,,,,,,
553,0,0.0,0.65,,-0.07,0.08,1.0,-0,0,-0,0.1,,,,,,,,,,
555,0,0.0,0.65,,,,,,,,,,,,,,,,,,
557,0,0.0,0.65,,,,,,,,,,,,,,,,,,
559,0,0.0,0.65,,,,,,,,,,,,,,,,,,
561,0,0.0,0.65,,,,,,,,,,,,,,,,,,
563,0,0.0,0.65,,-0.14,0.1,1.0,0,-1,-1,0.17,0,1980,0,0.0,0.0,0.0,0.0,0,0,0.0
565,0,0.0,0.65,,,,,,,,,,,,,,,,,,
567,0,0.0,0.65,,,,,,,,,,,,,,,,,,
569,0,0.0,0.65,,,,,,,,,,,,,,,,,,
571,0,0.0,0.65,,,,,,,,,,,,,,,,,,
573,0,0.0,0.65,,-0.04,0.06,0.94,0,-1,-0,0.07,,,,,,,,,,
575,0,0.0,0.65,,,,,,,,,,,,,,,,,,
577,0,0.0,0.65,,,,,,,,,,,,,,,,,,
579,0,0.0,0.65,,,,,,,,,,,,,,,,,,
581,0,0.0,0.66,,,,,,,,,,,,,,,,,,
583,0,0.0,0.65,,-0.04,0.1,1.02,-0,0,-0,0.11,0,1980,0,0.0,0.0,0.0,0.0,0,0,0.0
585,0,0.0,0.65,,,,,,,,,,,,,,,,,,
587,0,0.0,0.65,,,,,,,,,,,,,,,,,,
589,0,0.0,0.65,,,,,,,,,,,,,,,,,,
591,0,0.0,0.65,,,,,,,,,,,,,,,,,,
593,0,0.0,0.66,,-0.18,0.12,1.02,0,-0,-1,0.21,,,,,,,,,,
595,0,0.0,0.65,,,,,,,,,,,,,,,,,,
597,0,0.0,0.65,,,,,,,,,,,,,,,,,,
599,0,0.0,0.65,,,,,,,,,,,,,,,,,,
601,0,0.0,0.65,,,,,,,,,,,,,,,,,,
603,0,0.0,0.66,,-0.01,0.05,1.01,0,-1,-1,0.05,0,1980,0,0.0,0.0,0.0,0.0,0,0,0.0
605,0,0.0,0.66,,,,,,,,,,,,,,,,,,
607,0,0.0,0.65,,,,,,,,,,,,,,,,,,
609,0,0.0,0.66,,,,,,,,,,,,,,,,,,
611,0,0.0,0.67,,,,,,,,,,,,,,,,,,
613,0,0.0,0.66,,-0.07,0.08,1.0,-0,1,-1,0.1,,,,,,,,,,
615,0,0.0,0.65,,,,,,,,,,,,,,,,,,
617,0,0.0,0.66,,,,,,,,,,,,,,,,,,
619,0,0.0,0.66,,,,,,,,,,,,,,,,,,
621,0,0.0,0.66,,,,,,,,,,,,,,,,,,
623,0,0.0,0.66,,-0.14,0.11,1.03,0,-0,-1,0.17,0,1980,0,0.0,0.0,0.0,0.0,0,0,0.0
625,0,0.0,0.66,,,,,,,,,,,,,,,,,,
627,0,0.0,0.66,,,,,,,,,,,,,,,,,,
629,0,0.0,0.66,,,,,,,,,,,,,,,,,,
631,0,0.0,0.66,,,,,,,,,,,,,,,,,,
633,0,0.0,0.66,,-0.03,0.05,0.94,0,-1,-0,0.06,,,,,,,,,,
635,0,0.0,0.66,,,,,,,,,,,,,,,,,,
637,0,0.0,0.66,,,,,,,,,,,,,,,,,,
639,0,0.0,0.66,,,,,,,,,,,,,,,,,,
641,0,0.0,0.67,,,,,,,,,,,,,,,,,,
643,0,0.0,0.66,,-0.04,0.1,1.01,-0,0,-1,0.11,0,1980,0,0.0,0.0,0.0,0.0,0,0,0.0
645,0,0.0,0.66,,,,,,,,,,,,,,,,,,
647,0,0.0,0.66,,,,,,,,,,,,,,,,,,
649,0,0.0,0.66,,,,,,,,,,,,,,,,,,
651,0,0.0,0.66,,,,,,,,,,,,,,,,,,
653,0,0.0,0.66,,-0.17,0.12,1.02,0,-0,-1,0.21,,,,,,,,,,
655,0,0.0,0.66,,,,,,,,,,,,,,,,,,
657,0,0.0,0.66,,,,,,,,,,,,,,,,,,
659,0,0.0,0.66,,,,,,,,,,,,,,,,,,
661,0,0.0,0.66,,,,,,,,,,,,,,,,,,
663,0,0.0,0.66,,-0.01,0.04,1.02,0,-1,-1,0.04,0,1980,0,0.0,0.0,0.0,0.0,0,0,0.0
665,0,0.0,0.66,,,,,,,,,,,,,,,,,,
667,0,0.0,0.66,,,,,,,,,,,,,,,,,,
669,0,0.0,0.66,,,,,,,,,,,,,,,,,,
671,0,0.0,0.68,,,,,,,,,,,,,,,,,,
673,0,0.0,0.66,,-0.09,0.07,0.99,-0,1,-1,0.11,,,,,,,,,,
675,0,0.0,0.66,,,,,,,,,,,,,,,,,,
677,0,0.0,0.66,,,,,,,,,,,,,,,,,,
679,0,0.0,0.66,,,,,,,,,,,,,,,,,,
681,0,0.0,0.67,,,,,,,,,,,,,,,,,,
683,0,0.0,0.67,,-0.14,0.11,1.03,0,-0,-1,0.18,0,1980,0,0.0,0.0,0.0,0.0,0,0,0.0
685,0,0.0,0.67,,,,,,,,,,,,,,,,,,
687,0,0.0,0.66,,,,,,,,,,,,,,,,,,
689,0,0.0,0.66,,,,,,,,,,,,,,,,,,
691,0,0.0,0.67,,,,,,,,,,,,,,,,,,
693,0,0.0,0.66,,-0.04,0.04,0.94,0,-1,-0,0.05,,,,,,,,,,
695,0,0.0,0.67,,,,,,,,,,,,,,,,,,
697,0,0.0,0.67,,,,,,,,,,,,,,,,,,
699,0,0.0,0.67,,,,,,,,,,,,,,,,,,
701,0,0.0,0.67,,,,,,,,,,,,,,,,,,
703,0,0.0,0.67,,-0.05,0.1,1.0,0,0,-0,0.11,0,1980,0,0.0,0.0,0.0,0.0,0,0,0.0
705,0,0.0,0.66,,,,,,,,,,,,,,,,,,
707,0,0.0,0.67,,,,,,,,,,,,,,,,,,
709,0,0.0,0.67,,,,,,,,,,,,,,,,,,
711,0,0.0,0.67,,,,,,,,,,,,,,,,,,
713,0,0.0,0.67,,-0.17,0.12,1.04,0,-0,-1,0.21,,,,,,,,,,
715,0,0.0,0.67,,,,,,,,,,,,,,,,,,
717,0,0.0,0.67,,,,,,,,,,,,,,,,,,
719,0,0.0,0.67,,,,,,,,,,,,,,,,,,
721,0,0.0,0.67,,,,,,,,,,,,,,,,,,
723,0,0.0,0.67,,-0.01,0.04,1.01,0,-1,-1,0.04,0,1980,0,0.0,0.0,0.0,0.0,0,0,0.0
725,0,0.0,0.67,,,,,,,,,,,,,,,,,,
727,0,0.0,0.67,,,,,,,,,,,,,,,,,,
729,0,0.0,0.68,,,,,,,,,,,,,,,,,,
731,0,0.0,0.67,,,,,,,,,,,,,,,,,,
733,0,0.0,0.67,,-0.1,0.06,0.99,-0,1,-1,0.12,,,,,,,,,,
735,0,0.0,0.67,,,,,,,,,,,,,,,,,,
737,0,0.0,0.67,,,,,,,,,,,,,,,,,,
739,0,0.0,0.67,,,,,,,,,,,,,,,,,,
741,0,0.0,0.67,,,,,,,,,,,,,,,,,,
743,0,0.0,0.67,,-0.16,0.12,1.05,0,-0,-1,0.2,0,1980,0,0.0,0.0,0.0,0.0,0,0,0.0
745,0,0.0,0.67,,,,,,,,,,,,,,,,,,
747,0,0.0,0.67,,,,,,,,,,,,,,,,,,
749,0,0.0,0.67,,,,,,,,,,,,,,,,,,
751,0,0.0,0.67,,,,,,,,,,,,,,,,,,
753,0,0.0,0.67,,-0.04,0.04,0.94,0,-1,-0,0.06,,,,,,,,,,
755,0,0.0,0.67,,,,,,,,,,,,,,,,,,
757,0,0.0,0.67,,,,,,,,,,,,,,,,,,
759,0,0.0,0.69,,,,,,,,,,,,,,,,,,
761,0,0.0,0.68,,,,,,,,,,,,,,,,,,
763,0,0.0,0.67,,-0.05,0.09,0.99,-0,0,-0,0.11,0,1980,0,0.0,0.0,0.0,0.0,0,0,0.0
765,0,0.0,0.67,,,,,,,,,,,,,,,,,,
767,0,0.0,0.67,,,,,,,,,,,,,,,,,,
769,0,0.0,0.68,,,,,,,,,,,,,,,,,,
771,0,0.0,0.67,,,,,,,,,,,,,,,,,,
773,0,0.0,0.68,,-0.16,0.13,1.04,0,-0,-1,0.21,,,,,,,,,,
775,0,0.0,0.68,,,,,,,,,,,,,,,,,,
777,0,0.0,0.68,,,,,,,,,,,,,,,,,,
779,0,0.0,0.67,,,,,,,,,,,,,,,,,,
781,0,0.0,0.67,,,,,,,,,,,,,,,,,,
783,0,0.0,0.68,,-0.0,0.05,1.02,-0,-1,-0,0.05,0,1980,0,0.0,0.0,0.0,0.0,0,0,0.0
785,0,0.0,0.68,,,,,,,,,,,,,,,,,,
787,0,0.0,0.67,,,,,,,,,,,,,,,,,,
789,0,0.0,0.69,,,,,,,,,,,,,,,,,,
791,0,0.0,0.68,,,,,,,,,,,,,,,,,,
793,0,0.0,0.68,,-0.11,0.06,0.98,-0,1,-1,0.12,,,,,,,,,,
795,0,0.0,0.68,,,,,,,,,,,,,,,,,,
797,0,0.0,0.68,,,,,,,,,,,,,,,,,,
799,0,0.0,0.68,,,,,,,,,,,,,,,,,,
801,0,0.0,0.68,,,,,,,,,,,,,,,,,,
803,0,0.0,0.68,,-0.15,0.11,1.04,0,-0,-1,0.18,0,2040,0,0.0,0.0,0.0,0.0,0,0,0.0
805,0,0.0,0.68,,,,,,,,,,,,,,,,,,
807,0,0.0,0.68,,,,,,,,,,,,,,,,,,
809,0,0.0,0.68,,,,,,,,,,,,,,,,,,
811,0,0.0,0.68,,,,,,,,,,,,,,,,,,
813,0,0.0,0.68,,-0.04,0.04,0.96,-0,-1,-0,0.06,,,,,,,,,,
815,0,0.0,0.68,,,,,,,,,,,,,,,,,,
817,0,0.0,0.68,,,,,,,,,,,,,,,,,,
819,0,0.0,0.7,,,,,,,,,,,,,,,,,,
821,0,0.0,0.69,,,,,,,,,,,,,,,,,,
823,0,0.0,0.68,,-0.06,0.07,0.99,-0,0,-0,0.09,0,1980,0,0.0,0.0,0.0,0.0,0,0,0.0
825,0,0.0,0.68,,,,,,,,,,,,,,,,,,
827,0,0.0,0.68,,,,,,,,,,,,,,,,,,
829,0,0.0,0.68,,,,,,,,,,,,,,,,,,
831,0,0.0,0.68,,,,,,,,,,,,,,,,,,
833,0,0.0,0.68,,-0.14,0.12,1.04,0,-0,-0,0.19,,,,,,,,,,
835,0,0.0,0.69,,,,,,,,,,,,,,,,,,
837,0,0.0,0.68,,,,,,,,,,,,,,,,,,
839,0,0.0,0.68,,,,,,,,,,,,,,,,,,
841,0,0.0,0.68,,,,,,,,,,,,,,,,,,
843,0,0.0,0.68,,-0.01,0.06,1.02,-0,-1,-0,0.06,0,1980,0,0.0,0.0,0.0,0.0,0,0,0.0
845,0,0.0,0.68,,,,,,,,,,,,,,,,,,
847,0,0.0,0.69,,,,,,,,,,,,,,,,,,
849,0,0.0,0.69,,,,,,,,,,,,,,,,,,
851,0,0.0,0.69,,,,,,,,,,,,,,,,,,
853,0,0.0,0.69,,-0.11,0.05,0.97,-0,0,-1,0.12,,,,,,,,,,
855,0,0.0,0.68,,,,,,,,,,,,,,,,,,
857,0,0.0,0.68,,,,,,,,,,,,,,,,,,
859,0,0.0,0.69,,,,,,,,,,,,,,,,,,
861,0,0.0,0.69,,,,,,,,,,,,,,,,,,
863,0,0.0,0.68,,-0.14,0.11,1.05,0,-0,-1,0.18,0,1980,0,0.0,0.0,0.0,0.0,0,0,0.0
865,0,0.0,0.69,,,,,,,,,,,,,,,,,,
867,0,0.0,0.69,,,,,,,,,,,,,,,,,,
869,0,0.0,0.69,,,,,,,,,,,,,,,,,,
871,0,0.0,0.69,,,,,,,,,,,,,,,,,,
873,0,0.0,0.69,,-0.04,0.06,0.97,0,-1,-0,0.07,,,,,,,,,,
875,0,0.0,0.69,,,,,,,,,,,,,,,,,,
877,0,0.0,0.69,,,,,,,,,,,,,,,,,,
879,0,0.0,0.69,,,,,,,,,,,,,,,,,,
881,0,0.0,0.69,,,,,,,,,,,,,,,,,,
883,0,0.0,0.69,,-0.07,0.07,0.97,0,-0,-1,0.1,0,1980,0,0.0,0.0,0.0,0.0,0,0,0.0
885,0,0.0,0.69,,,,,,,,,,,,,,,,,,
887,0,0.0,0.69,,,,,,,,,,,,,,,,,,
889,0,0.0,0.69,,,,,,,,,,,,,,,,,,
891,0,0.0,0.69,,,,,,,,,,,,,,,,,,
893,0,0.0,0.69,,-0.1,0.11,1.04,0,0,-0,0.15,,,,,,,,,,
895,0,0.0,0.69,,,,,,,,,,,,,,,,,,
897,0,0.0,0.69,,,,,,,,,,,,,,,,,,
899,0,0.0,0.69,,,,,,,,,,,,,,,,,,
901,0,0.0,0.69,,,,,,,,,,,,,,,,,,
903,0,0.0,0.69,,0.0,0.07,1.01,-0,-0,-0,0.07,0,1980,0,0.0,0.0,0.0,0.0,0,0,0.0
905,0,0.0,0.69,,,,,,,,,,,,,,,,,,
907,0,0.0,0.7,,,,,,,,,,,,,,,,,,
909,0,0.0,0.69,,,,,,,,,,,,,,,,,,
911,0,0.0,0.69,,,,,,,,,,,,,,,,,,
913,0,0.0,0.69,,-0.11,0.06,0.97,-0,0,-1,0.12,,,,,,,,,,
915,0,0.0,0.69,,,,,,,,,,,,,,,,,,
917,0,0.0,0.69,,,,,,,,,,,,,,,,,,
919,0,0.0,0.69,,,,,,,,,,,,,,,,,,
921,0,0.0,0.69,,,,,,,,,,,,,,,,,,
923,0,0.0,0.69,,-0.13,0.11,1.04,0,0,-1,0.17,0,2040,0,0.0,0.0,0.0,0.0,0,0,0.0
925,0,0.0,0.69,,,,,,,,,,,,,,,,,,
927,0,0.0,0.69,,,,,,,,,,,,,,,,,,
929,0,0.0,0.7,,,,,,,,,,,,,,,,,,
931,0,0.0,0.7,,,,,,,,,,,,,,,,,,
933,0,0.0,0.7,,-0.04,0.05,0.98,-0,-1,-0,0.06,,,,,,,,,,
935,0,0.0,0.7,,,,,,,,,,,,,,,,,,
937,0,0.0,0.71,,,,,,,,,,,,,,,,,,
939,0,0.0,0.7,,,,,,,,,,,,,,,,,,
941,0,0.0,0.7,,,,,,,,,,,,,,,,,,
943,0,0.0,0.7,,-0.08,0.06,0.94,-0,-0,-0,0.09,0,1980,0,0.0,0.0,0.0,0.0,0,0,0.0
945,0,0.0,0.7,,,,,,,,,,,,,,,,,,
947,0,0.0,0.7,,,,,,,,,,,,,,,,,,
949,0,0.0,0.7,,,,,,,,,,,,,,,,,,
951,0,0.0,0.7,,,,,,,,,,,,,,,,,,
953,0,0.0,0.7,,-0.09,0.12,1.03,0,0,-0,0.14,,,,,,,,,,
955,0,0.0,0.7,,,,,,,,,,,,,,,,,,
957,0,0.0,0.7,,,,,,,,,,,,,,,,,,
959,0,0.0,0.7,,,,,,,,,,,,,,,,,,
961,0,0.0,0.7,,,,,,,,,,,,,,,,,,
963,0,0.0,0.7,,-0.01,0.07,1.01,-0,-0,-0,0.07,0,1980,0,0.0,0.0,0.0,0.0,0,0,0.0
965,0,0.0,0.7,,,,,,,,,,,,,,,,,,
967,0,0.0,0.71,,,,,,,,,,,,,,,,,,
969,0,0.0,0.7,,,,,,,,,,,,,,,,,,
971,0,0.0,0.7,,,,,,,,,,,,,,,,,,
973,0,0.0,0.7,,-0.11,0.07,0.94,-0,0,-1,0.13,,,,,,,,,,
975,0,0.0,0.7,,,,,,,,,,,,,,,,,,
977,0,0.0,0.7,,,,,,,,,,,,,,,,,,
991,0,0.0,0.7,,,,,,,,,,,,,,,,,,
993,0,0.0,0.7,,-0.04,0.06,1.0,-0,-0,-0,0.07,,,,,,,,,,
995,0,0.0,0.7,,,,,,,,,,,,,,,,,,
997,0,0.0,0.72,,,,,,,,,,,,,,,,,,
1009,0,0.0,0.7,,,,,,,,,,,,,,,,,,
1011,0,0.0,0.7,,,,,,,,,,,,,,,,,,
1013,0,0.0,0.7,,-0.06,0.11,1.01,1,-0,-0,0.12,,,,,,,,,,
1015,0,0.0,0.7,,,,,,,,,,,,,,,,,,
1017,0,0.0,0.7,,,,,,,,,,,,,,,,,,
1019,0,0.0,0.71,,,,,,,,,,,,,,,,,,
1021,0,0.0,0.71,,,,,,,,,,,,,,,,,,
1023,0,0.0,0.71,,-0.02,0.07,1.0,-0,-0,-0,0.08,0,1980,0,0.0,0.0,0.0,0.0,0,0,0.0
1025,0,0.0,0.72,,,,,,,,,,,,,,,,,,
1027,0,0.0,0.71,,,,,,,,,,,,,,,,,,
1029,0,0.0,0.71,,,,,,,,,,,,,,,,,,
1031,0,0.0,0.7,,,,,,,,,,,,,,,,,,
1033,0,0.0,0.71,,-0.11,0.08,0.9,0,-0,-1,0.14,,,,,,,,,,
1035,0,0.0,0.71,,,,,,,,,,,,,,,,,,
1037,0,0.0,0.71,,,,,,,,,,,,,,,,,,
1039,0,0.0,0.71,,,,,,,,,,,,,,,,,,
1041,0,0.0,0.71,,,,,,,,,,,,,,,,,,
1043,0,0.0,0.71,13.43,-0.08,0.1,0.96,0,-0,-0,0.13,0,2040,0,0.0,0.0,0.0,0.0,0,0,0.0
1045,0,0.0,0.71,,,,,,,,,,,,,,,,,,
1047,0,0.0,0.71,,,,,,,,,,,,,,,,,,
1049,0,0.0,0.71,,,,,,,,,,,,,,,,,,
1051,0,0.0,0.71,,,,,,,,,,,,,,,,,,
1053,0,0.0,0.71,,-0.04,0.08,0.97,-0,-0,-0,0.09,,,,,,,,,,
1055,0,0.0,0.72,,,,,,,,,,,,,,,,,,
1057,0,0.0,0.71,,,,,,,,,,,,,,,,,,
1059,0,0.0,0.71,,,,,,,,,,,,,,,,,,
1061,0,0.0,0.71,,,,,,,,,,,,,,,,,,
1063,0,0.0,0.71,,-0.12,0.07,0.93,0,-1,-1,0.14,0,1980,0,0.0,0.0,0.0,0.0,0,0,0.0
1065,0,0.0,0.71,,,,,,,,,,,,,,,,,,
1067,0,0.0,0.71,,,,,,,,,,,,,,,,,,
1069,0,0.0,0.71,,,,,,,,,,,,,,,,,,
1071,0,0.0,0.71,,,,,,,,,,,,,,,,,,
1073,0,0.0,0.71,,-0.05,0.08,0.99,0,-0,-0,0.1,,,,,,,,,,
1075,0,0.0,0.71,,,,,,,,,,,,,,,,,,
1077,0,0.0,0.71,,,,,,,,,,,,,,,,,,
1079,0,0.0,0.71,,,,,,,,,,,,,,,,,,
1081,0,0.0,0.71,,,,,,,,,,,,,,,,,,
1083,0,0.0,0.72,,-0.02,0.08,0.98,-0,-0,-0,0.08,0,1980,0,0.0,0.0,0.0,0.0,0,0,0.0
1085,0,0.0,0.73,,,,,,,,,,,,,,,,,,
1087,0,0.0,0.71,,,,,,,,,,,,,,,,,,
1089,0,0.0,0.71,,,,,,,,,,,,,,,,,,
1091,0,0.0,0.71,,,,,,,,,,,,,,,,,,
1093,0,0.0,0.71,,-0.12,0.1,0.92,0,-1,-1,0.16,,,,,,,,,,
1095,0,0.0,0.72,,,,,,,,,,,,,,,,,,
1097,0,0.0,0.72,,,,,,,,,,,,,,,,,,
1099,0,0.0,0.72,,,,,,,,,,,,,,,,,,
1101,0,0.0,0.71,,,,,,,,,,,,,,,,,,
1103,0,0.0,0.71,,-0.08,0.08,0.99,0,-0,-0,0.12,0,1980,0,0.0,0.0,0.0,0.0,0,0,0.0
1105,0,0.0,0.72,,,,,,,,,,,,,,,,,,
1107,0,0.0,0.72,,,,,,,,,,,,,,,,,,
1109,0,0.0,0.72,,,,,,,,,,,,,,,,,,
1111,0,0.0,0.72,,,,,,,,,,,,,,,,,,
1113,0,0.0,0.72,,-0.02,0.09,1.0,-0,-0,-0,0.09,,,,,,,,,,
1115,0,0.0,0.73,,,,,,,,,,,,,,,,,,
1117,0,0.0,0.72,,,,,,,,,,,,,,,,,,
1119,0,0.0,0.72,,,,,,,,,,,,,,,,,,
1121,0,0.0,0.72,,,,,,,,,,,,,,,,,,
1123,0,0.0,0.72,,-0.14,0.07,0.92,-0,-1,-1,0.16,0,1980,0,0.0,0.0,0.0,0.0,0,0,0.0
1125,0,0.0,0.72,,,,,,,,,,,,,,,,,,
1127,0,0.0,0.72,,,,,,,,,,,,,,,,,,
1129,0,0.0,0.72,,,,,,,,,,,,,,,,,,
1131,0,0.0,0.72,,,,,,,,,,,,,,,,,,
1133,0,0.0,0.72,,-0.04,0.05,0.98,0,-1,-0,0.07,,,,,,,,,,
1135,0,0.0,0.72,,,,,,,,,,,,,,,,,,
1137,0,0.0,0.72,,,,,,,,,,,,,,,,,,
1139,0,0.0,0.72,,,,,,,,,,,,,,,,,,
1141,0,0.0,0.72,,,,,,,,,,,,,,,,,,
1143,0,0.0,0.72,,-0.04,0.08,0.97,-0,-0,-0,0.09,0,1980,0,0.0,0.0,0.0,0.0,0,0,0.0
1145,0,0.0,0.73,,,,,,,,,,,,,,,,,,
1147,0,0.0,0.72,,,,,,,,,,,,,,,,,,
1149,0,0.0,0.72,,,,,,,,,,,,,,,,,,
1151,0,0.0,0.72,,,,,,,,,,,,,,,,,,
1153,0,0.0,0.72,,-0.13,0.1,0.94,0,-1,-1,0.16,,,,,,,,,,
1155,0,0.0,0.72,,,,,,,,,,,,,,,,,,
1157,0,0.0,0.72,,,,,,,,,,,,,,,,,,
1159,0,0.0,0.72,,,,,,,,,,,,,,,,,,
1161,0,0.0,0.72,,,,,,,,,,,,,,,,,,
1163,0,0.0,0.72,,-0.06,0.06,0.94,0,-1,-0,0.08,0,1980,0,0.0,0.0,0.0,0.0,0,0,0.0
1165,0,0.0,0.72,,,,,,,,,,,,,,,,,,
1167,0,0.0,0.72,,,,,,,,,,,,,,,,,,
1169,0,0.0,0.72,,,,,,,,,,,,,,,,,,
1171,0,0.0,0.73,,,,,,,,,,,,,,,,,,
1173,0,0.0,0.73,,-0.03,0.1,1.03,-0,-0,-0,0.11,,,,,,,,,,
1175,0,0.0,0.73,,,,,,,,,,,,,,,,,,
1177,0,0.0,0.73,,,,,,,,,,,,,,,,,,
1179,0,0.0,0.73,,,,,,,,,,,,,,,,,,
1181,0,0.0,0.73,,,,,,,,,,,,,,,,,,
1183,0,0.0,0.73,,-0.18,0.08,0.95,0,-1,-1,0.2,0,1980,0,0.0,0.0,0.0,0.0,0,0,0.0
1185,0,0.0,0.73,,,,,,,,,,,,,,,,,,
1187,0,0.0,0.73,,,,,,,,,,,,,,,,,,
1189,0,0.0,0.73,,,,,,,,,,,,,,,,,,
1191,0,0.0,0.73,,,,,,,,,,,,,,,,,,
1193,0,0.0,0.73,,-0.04,0.04,1.0,0,-1,-0,0.05,,,,,,,,,,
1195,0,0.0,0.73,,,,,,,,,,,,,,,,,,
1197,0,0.0,0.73,,,,,,,,,,,,,,,,,,
1199,0,0.0,0.73,,,,,,,,,,,,,,,,,,
1201,0,0.0,0.73,,,,,,,,,,,,,,,,,,
1203,0,0.0,0.74,,-0.05,0.08,1.0,-0,0,-0,0.09,0,1980,0,0.0,0.0,0.0,0.0,0,0,0.0
1205,0,0.0,0.73,,,,,,,,,,,,,,,,,,
1207,0,0.0,0.73,,,,,,,,,,,,,,,,,,
1209,0,0.0,0.73,,,,,,,,,,,,,,,,,,
1211,0,0.0,0.73,,,,,,,,,,,,,,,,,,
1213,0,0.0,0.73,,-0.14,0.11,0.96,0,-1,-1,0.17,,,,,,,,,,
1215,0,0.0,0.73,,,,,,,,,,,,,,,,,,
1217,0,0.0,0.73,,,,,,,,,,,,,,,,,,
1219,0,0.0,0.73,,,,,,,,,,,,,,,,,,
1221,0,0.0,0.73,,,,,,,,,,,,,,,,,,
1223,0,0.0,0.73,,-0.05,0.05,0.94,0,-1,-0,0.07,0,1980,0,0.0,0.0,0.0,0.0,0,0,0.0
1225,0,0.0,0.73,,,,,,,,,,,,,,,,,,
1227,0,0.0,0.73,,,,,,,,,,,,,,,,,,
1229,0,0.0,0.73,,,,,,,,,,,,,,,,,,
1231,0,0.0,0.73,,,,,,,,,,,,,,,,,,
1233,0,0.0,0.74,,-0.04,0.11,1.03,-0,0,-0,0.11,,,,,,,,,,
1235,0,0.0,0.73,,,,,,,,,,,,,,,,,,
1237,0,0.0,0.73,,,,,,,,,,,,,,,,,,
1239,0,0.0,0.73,,,,,,,,,,,,,,,,,,
1241,0,0.0,0.73,,,,,,,,,,,,,,,,,,
1243,0,0.0,0.73,,-0.19,0.1,0.97,0,-1,-1,0.22,0,1980,0,0.0,0.0,0.0,0.0,0,0,0.0
1245,0,0.0,0.73,,,,,,,,,,,,,,,,,,
1247,0,0.0,0.73,,,,,,,,,,,,,,,,,,
1249,0,0.0,0.73,,,,,,,,,,,,,,,,,,
1251,0,0.0,0.73,,,,,,,,,,,,,,,,,,
1253,0,0.0,0.73,,-0.02,0.04,1.0,0,-1,-0,0.04,,,,,,,,,,
1255,0,0.0,0.73,,,,,,,,,,,,,,,,,,
1257,0,0.0,0.73,,,,,,,,,,,,,,,,,,
1259,0,0.0,0.73,,,,,,,,,,,,,,,,,,
1261,0,0.0,0.74,,,,,,,,,,,,,,,,,,
1263,0,0.0,0.74,,-0.06,0.08,0.99,-0,0,-0,0.1,0,1980,0,0.0,0.0,0.0,0.0,0,0,0.0
1265,0,0.0,0.74,,,,,,,,,,,,,,,,,,
1267,0,0.0,0.74,,,,,,,,,,,,,,,,,,
1269,0,0.0,0.74,,,,,,,,,,,,,,,,,,
1271,0,0.0,0.74,,,,,,,,,,,,,,,,,,
1273,0,0.0,0.73,,-0.14,0.1,0.98,0,-1,-1,0.17,,,,,,,,,,
1275,0,0.0,0.73,,,,,,,,,,,,,,,,,,
1277,0,0.0,0.74,,,,,,,,,,,,,,,,,,
1279,0,0.0,0.74,,,,,,,,,,,,,,,,,,
1281,0,0.0,0.74,,,,,,,,,,,,,,,,,,
1283,0,0.0,0.74,,-0.04,0.05,0.93,0,-1,-0,0.06,0,1980,0,0.0,0.0,0.0,0.0,0,0,0.0
1285,0,0.0,0.74,,,,,,,,,,,,,,,,,,
1287,0,0.0,0.74,,,,,,,,,,,,,,,,,,
1289,0,0.0,0.74,,,,,,,,,,,,,,,,,,
1291,0,0.0,0.74,,,,,,,,,,,,,,,,,,
1293,0,0.0,0.75,,-0.03,0.11,1.02,-0,0,-0,0.11,,,,,,,,,,
1295,0,0.0,0.74,,,,,,,,,,,,,,,,,,
1297,0,0.0,0.74,,,,,,,,,,,,,,,,,,
1299,0,0.0,0.74,,,,,,,,,,,,,,,,,,
1301,0,0.0,0.74,,,,,,,,,,,,,,,,,,
1303,0,0.0,0.74,,-0.2,0.11,1.0,0,-0,-1,0.23,0,1980,0,0.0,0.0,0.0,0.0,0,0,0.0
1305,0,0.0,0.74,,,,,,,,,,,,,,,,,,
1307,0,0.0,0.74,,,,,,,,,,,,,,,,,,
1309,0,0.0,0.74,,,,,,,,,,,,,,,,,,
1311,0,0.0,0.74,,,,,,,,,,,,,,,,,,
1313,0,0.0,0.74,,-0.02,0.05,1.0,0,-1,-0,0.05,,,,,,,,,,
1315,0,0.0,0.74,,,,,,,,,,,,,,,,,,
1317,0,0.0,0.74,,,,,,,,,,,,,,,,,,
1319,0,0.0,0.74,,,,,,,,,,,,,,,,,,
1321,0,0.0,0.74,,,,,,,,,,,,,,,,,,
1323,0,0.0,0.74,,-0.07,0.08,0.98,-0,0,-0,0.1,0,2040,0,0.0,0.0,0.0,0.0,0,0,0.0
1325,0,0.0,0.74,,,,,,,,,,,,,,,,,,
1327,0,0.0,0.74,,,,,,,,,,,,,,,,,,
1329,0,0.0,0.74,,,,,,,,,,,,,,,,,,
1331,0,0.0,0.74,,,,,,,,,,,,,,,,,,
1333,0,0.0,0.74,,-0.15,0.11,1.02,0,-1,-1,0.18,,,,,,,,,,
1335,0,0.0,0.74,,,,,,,,,,,,,,,,,,
1337,0,0.0,0.74,,,,,,,,,,,,,,,,,,
1339,0,0.0,0.74,,,,,,,,,,,,,,,,,,
1341,0,0.0,0.74,,,,,,,,,,,,,,,,,,
1343,0,0.0,0.74,,-0.03,0.03,0.91,0,-1,-0,0.04,0,2040,0,0.0,0.0,0.0,0.0,0,0,0.0
1345,0,0.0,0.74,,,,,,,,,,,,,,,,,,
1347,0,0.0,0.74,,,,,,,,,,,,,,,,,,
1349,0,0.0,0.74,,,,,,,,,,,,,,,,,,
1351,0,0.0,0.76,,,,,,,,,,,,,,,,,,
1353,0,0.0,0.75,,-0.04,0.11,1.01,-0,0,-0,0.12,,,,,,,,,,
1355,0,0.0,0.75,,,,,,,,,,,,,,,,,,
1357,0,0.0,0.75,,,,,,,,,,,,,,,,,,
1359,0,0.0,0.75,,,,,,,,,,,,,,,,,,
1361,0,0.0,0.74,,,,,,,,,,,,,,,,,,
1363,0,0.0,0.75,,-0.18,0.12,1.02,0,-1,-1,0.22,0,1980,0,0.0,0.0,0.0,0.0,0,0,0.0
1365,0,0.0,0.75,,,,,,,,,,,,,,,,,,
1367,0,0.0,0.74,,,,,,,,,,,,,,,,,,
1369,0,0.0,0.75,,,,,,,,,,,,,,,,,,
1371,0,0.0,0.75,,,,,,,,,,,,,,,,,,
1373,0,0.0,0.75,,-0.01,0.04,1.02,0,-1,-0,0.04,,,,,,,,,,
1375,0,0.0,0.75,,,,,,,,,,,,,,,,,,
1377,0,0.0,0.74,,,,,,,,,,,,,,,,,,
1379,0,0.0,0.75,,,,,,,,,,,,,,,,,,
1381,0,0.0,0.76,,,,,,,,,,,,,,,,,,
1383,0,0.0,0.75,,-0.09,0.07,0.99,-0,0,-0,0.11,0,2040,0,0.0,0.0,0.0,0.0,0,0,0.0
1385,0,0.0,0.75,,,,,,,,,,,,,,,,,,
1387,0,0.0,0.75,,,,,,,,,,,,,,,,,,
1389,0,0.0,0.75,,,,,,,,,,,,,,,,,,
1391,0,0.0,0.75,,,,,,,,,,,,,,,,,,
1393,0,0.0,0.75,,-0.14,0.11,1.05,0,-1,-1,0.18,,,,,,,,,,
1395,0,0.0,0.75,,,,,,,,,,,,,,,,,,
1397,0,0.0,0.75,,,,,,,,,,,,,,,,,,
1399,0,0.0,0.75,,,,,,,,,,,,,,,,,,
1401,0,0.0,0.75,,,,,,,,,,,,,,,,,,
1403,0,0.0,0.75,,-0.03,0.04,0.94,0,-1,-0,0.05,0,2040,0,0.0,0.0,0.0,0.0,0,0,0.0
1405,0,0.0,0.75,,,,,,,,,,,,,,,,,,
1407,0,0.0,0.75,,,,,,,,,,,,,,,,,,
1409,0,0.0,0.75,,,,,,,,,,,,,,,,,,
1411,0,0.0,0.76,,,,,,,,,,,,,,,,,,
1413,0,0.0,0.75,,-0.04,0.1,0.99,-0,0,-0,0.11,,,,,,,,,,
1415,0,0.0,0.75,,,,,,,,,,,,,,,,,,
1417,0,0.0,0.75,,,,,,,,,,,,,,,,,,
1419,0,0.0,0.75,,,,,,,,,,,,,,,,,,
1421,0,0.0,0.75,,,,,,,,,,,,,,,,,,
1423,0,0.0,0.75,,-0.17,0.12,1.03,0,-0,-1,0.21,0,1980,0,0.0,0.0,0.0,0.0,0,0,0.0
1425,0,0.0,0.75,,,,,,,,,,,,,,,,,,
1427,0,0.0,0.75,,,,,,,,,,,,,,,,,,
1429,0,0.0,0.75,,,,,,,,,,,,,,,,,,
1431,0,0.0,0.75,,,,,,,,,,,,,,,,,,
1433,0,0.0,0.75,,-0.01,0.04,1.01,0,-1,-0,0.04,,,,,,,,,,
1435,0,0.0,0.75,,,,,,,,,,,,,,,,,,
1437,0,0.0,0.75,,,,,,,,,,,,,,,,,,
1439,0,0.0,0.75,,,,,,,,,,,,,,,,,,
1441,0,0.0,0.77,,,,,,,,,,,,,,,,,,
1443,0,0.0,0.75,,-0.1,0.05,0.99,-0,0,-0,0.11,0,1980,0,0.0,0.0,0.0,0.0,0,0,0.0
1445,0,0.0,0.76,,,,,,,,,,,,,,,,,,
1447,0,0.0,0.76,,,,,,,,,,,,,,,,,,
1449,0,0.0,0.76,,,,,,,,,,,,,,,,,,
1451,0,0.0,0.75,,,,,,,,,,,,,,,,,,
1453,0,0.0,0.75,,-0.14,0.12,1.04,0,-0,-1,0.18,,,,,,,,,,
1455,0,0.0,0.75,,,,,,,,,,,,,,,,,,
1457,0,0.0,0.75,,,,,,,,,,,,,,,,,,
1459,0,0.0,0.76,,,,,,,,,,,,,,,,,,
1461,0,0.0,0.75,,,,,,,,,,,,,,,,,,
1463,0,0.0,0.76,,-0.03,0.04,0.96,0,-1,-0,0.05,0,1980,0,0.0,0.0,0.0,0.0,0,0,0.0
1465,0,0.0,0.76,,,,,,,,,,,,,,,,,,
1467,0,0.01,0.76,,,,,,,,,,,,,,,,,,
1469,0,0.0,0.76,,,,,,,,,,,,,,,,,,
1471,0,0.0,0.77,,,,,,,,,,,,,,,,,,
1473,0,0.0,0.76,,-0.05,0.09,0.99,-0,0,-0,0.1,,,,,,,,,,
1475,0,0.0,0.76,,,,,,,,,,,,,,,,,,
1477,0,0.0,0.76,,,,,,,,,,,,,,,,,,
1479,0,0.0,0.76,,,,,,,,,,,,,,,,,,
1481,0,0.0,0.76,,,,,,,,,,,,,,,,,,
1483,0,0.0,0.76,,-0.15,0.13,1.04,0,-0,-1,0.2,0,1980,0,0.0,0.0,0.0,0.0,0,0,0.0
1485,0,0.0,0.76,,,,,,,,,,,,,,,,,,
1487,0,0.0,0.76,,,,,,,,,,,,,,,,,,
1489,0,0.0,0.76,,,,,,,,,,,,,,,,,,
1491,0,0.0,0.76,,,,,,,,,,,,,,,,,,
1493,0,0.0,0.76,,0.0,0.05,1.01,0,-1,-0,0.05,,,,,,,,,,
1495,0,0.0,0.76,,,,,,,,,,,,,,,,,,
1497,0,0.0,0.76,,,,,,,,,,,,,,,,,,
1499,0,0.0,0.77,,,,,,,,,,,,,,,,,,
1501,0,0.0,0.76,,,,,,,,,,,,,,,,,,
1503,0,0.0,0.76,,-0.11,0.06,0.99,-0,1,-1,0.12,0,1980,0,0.0,0.0,0.0,0.0,0,0,0.0
1505,0,0.0,0.76,,,,,,,,,,,,,,,,,,
1507,0,0.0,0.76,,,,,,,,,,,,,,,,,,
1509,0,0.0,0.76,,,,,,,,,,,,,,,,,,
1511,0,0.0,0.76,,,,,,,,,,,,,,,,,,
1513,0,0.0,0.76,,-0.15,0.11,1.04,0,-0,-1,0.19,,,,,,,,,,
1515,0,0.0,0.76,,,,,,,,,,,,,,,,,,
1517,0,0.0,0.76,,,,,,,,,,,,,,,,,,
1519,0,0.0,0.76,,,,,,,,,,,,,,,,,,
1521,0,0.0,0.76,,,,,,,,,,,,,,,,,,
1523,0,0.0,0.76,,-0.04,0.04,0.95,0,-1,-0,0.05,0,1980,0,0.0,0.0,0.0,0.0,0,0,0.0
1525,0,0.0,0.76,,,,,,,,,,,,,,,,,,
1527,0,0.0,0.76,,,,,,,,,,,,,,,,,,
1529,0,0.0,0.78,,,,,,,,,,,,,,,,,,
1531,0,0.0,0.77,,,,,,,,,,,,,,,,,,
1533,0,0.0,0.77,,-0.06,0.09,0.98,-0,0,-0,0.1,,,,,,,,,,
1535,0,0.0,0.77,,,,,,,,,,,,,,,,,,
1537,0,0.0,0.76,,,,,,,,,,,,,,,,,,
1539,0,0.0,0.76,,,,,,,,,,,,,,,,,,
1541,0,0.0,0.77,,,,,,,,,,,,,,,,,,
1543,0,0.0,0.77,,-0.14,0.13,1.04,0,-0,-1,0.19,0,1980,0,0.0,0.0,0.0,0.0,0,0,0.0
1545,0,0.0,0.77,,,,,,,,,,,,,,,,,,
1547,0,0.0,0.77,,,,,,,,,,,,,,,,,,
1549,0,0.0,0.77,,,,,,,,,,,,,,,,,,
1551,0,0.0,0.76,,,,,,,,,,,,,,,,,,
1553,0,0.0,0.77,,-0.01,0.05,1.02,0,-1,-0,0.05,,,,,,,,,,
1555,0,0.0,0.77,,,,,,,,,,,,,,,,,,
1557,0,0.0,0.77,,,,,,,,,,,,,,,,,,
1559,0,0.0,0.78,,,,,,,,,,,,,,,,,,
1561,0,0.0,0.77,,,,,,,,,,,,,,,,,,
1563,0,0.0,0.77,,-0.12,0.06,0.98,-0,1,-1,0.13,0,2040,0,0.0,0.0,0.0,0.0,0,0,0.0
1565,0,0.0,0.77,,,,,,,,,,,,,,,,,,
1567,0,0.0,0.77,,,,,,,,,,,,,,,,,,
1569,0,0.0,0.77,,,,,,,,,,,,,,,,,,
1571,0,0.0,0.77,,,,,,,,,,,,,,,,,,
1573,0,0.0,0.77,,-0.15,0.12,1.04,0,-0,-0,0.19,,,,,,,,,,
1575,0,0.0,0.77,,,,,,,,,,,,,,,,,,
1577,0,0.0,0.77,,,,,,,,,,,,,,,,,,
1579,0,0.0,0.77,,,,,,,,,,,,,,,,,,
1581,0,0.0,0.77,,,,,,,,,,,,,,,,,,
1583,0,0.0,0.77,,-0.04,0.04,0.96,-0,-1,-0,0.05,0,2040,0,0.0,0.0,0.0,0.0,0,0,0.0
1585,0,0.0,0.77,,,,,,,,,,,,,,,,,,
1587,0,0.0,0.77,,,,,,,,,,,,,,,,,,
1589,0,0.0,0.78,,,,,,,,,,,,,,,,,,
1591,0,0.0,0.77,,,,,,,,,,,,,,,,,,
1593,0,0.0,0.77,,-0.06,0.07,0.97,-0,0,-0,0.1,,,,,,,,,,
1595,0,0.0,0.77,,,,,,,,,,,,,,,,,,
1597,0,0.0,0.77,,,,,,,,,,,,,,,,,,
1599,0,0.0,0.77,,,,,,,,,,,,,,,,,,
1601,0,0.0,0.77,,,,,,,,,,,,,,,,,,
1603,0,0.0,0.77,,-0.12,0.12,1.02,0,0,-1,0.17,0,1980,0,0.0,0.0,0.0,0.0,0,0,0.0
1605,0,0.0,0.77,,,,,,,,,,,,,,,,,,
1607,0,0.0,0.77,,,,,,,,,,,,,,,,,,
1609,0,0.0,0.77,,,,,,,,,,,,,,,,,,
1611,0,0.0,0.77,,,,,,,,,,,,,,,,,,
1613,0,0.0,0.77,,-0.01,0.06,1.02,-0,-1,-0,0.06,,,,,,,,,,
1615,0,0.0,0.77,,,,,,,,,,,,,,,,,,
1617,0,0.0,0.77,,,,,,,,,,,,,,,,,,
1619,0,0.0,0.79,,,,,,,,,,,,,,,,,,
1621,0,0.0,0.78,,,,,,,,,,,,,,,,,,
1623,0,0.0,0.77,,-0.11,0.06,0.95,-0,1,-1,0.12,0,1980,0,0.0,0.0,0.0,0.0,0,0,0.0
1625,0,0.0,0.77,,,,,,,,,,,,,,,,,,
1627,0,0.0,0.78,,,,,,,,,,,,,,,,,,
1629,0,0.0,0.77,,,,,,,,,,,,,,,,,,
1631,0,0.0,0.77,,,,,,,,,,,,,,,,,,
1633,0,0.0,0.78,,-0.14,0.11,1.05,0,0,-1,0.18,,,,,,,,,,
1635,0,0.0,0.78,,,,,,,,,,,,,,,,,,
1637,0,0.0,0.78,,,,,,,,,,,,,,,,,,
1639,0,0.0,0.78,,,,,,,,,,,,,,,,,,
1641,0,0.0,0.78,,,,,,,,,,,,,,,,,,
1643,0,0.0,0.77,,-0.05,0.05,0.97,-0,-1,-0,0.07,0,1980,0,0.0,0.0,0.0,0.0,0,0,0.0
1645,0,0.0,0.78,,,,,,,,,,,,,,,,,,
1647,0,0.0,0.78,,,,,,,,,,,,,,,,,,
1649,0,0.0,0.78,,,,,,,,,,,,,,,,,,
1651,0,0.0,0.78,,,,,,,,,,,,,,,,,,
1653,0,0.0,0.78,,-0.07,0.07,0.94,-0,-0,-1,0.1,,,,,,,,,,
1655,0,0.0,0.78,,,,,,,,,,,,,,,,,,
1657,0,0.0,0.77,,,,,,,,,,,,,,,,,,
1659,0,0.0,0.78,,,,,,,,,,,,,,,,,,
1661,0,0.0,0.78,,,,,,,,,,,,,,,,,,
1663,0,0.0,0.78,,-0.09,0.12,1.03,0,0,-1,0.15,0,1980,0,0.0,0.0,0.0,0.0,0,0,0.0
1665,0,0.0,0.78,,,,,,,,,,,,,,,,,,
1667,0,0.0,0.78,,,,,,,,,,,,,,,,,,
1669,0,0.0,0.78,,,,,,,,,,,,,,,,,,
1671,0,0.0,0.78,,,,,,,,,,,,,,,,,,
1673,0,0.0,0.78,,-0.01,0.06,1.01,-0,-1,-0,0.07,,,,,,,,,,
1675,0,0.0,0.78,,,,,,,,,,,,,,,,,,
1677,0,0.0,0.79,,,,,,,,,,,,,,,,,,
1679,0,0.0,0.78,,,,,,,,,,,,,,,,,,
1681,0,0.0,0.78,,,,,,,,,,,,,,,,,,
1683,0,0.0,0.78,,-0.11,0.07,0.95,-0,0,-1,0.13,0,1980,0,0.0,0.0,0.0,0.0,0,0,0.0
1685,0,0.0,0.78,,,,,,,,,,,,,,,,,,
1687,0,0.0,0.78,,,,,,,,,,,,,,,,,,
1689,0,0.0,0.78,,,,,,,,,,,,,,,,,,
1691,0,0.0,0.78,,,,,,,,,,,,,,,,,,
1693,0,0.0,0.78,,-0.12,0.12,1.04,0,-0,-0,0.17,,,,,,,,,,
1695,0,0.0,0.79,,,,,,,,,,,,,,,,,,
1697,0,0.0,0.78,,,,,,,,,,,,,,,,,,
1699,0,0.0,0.78,,,,,,,,,,,,,,,,,,
1701,0,0.0,0.78,,,,,,,,,,,,,,,,,,
1703,0,0.0,0.78,,-0.04,0.05,1.0,-0,-1,-0,0.07,0,1980,0,0.0,0.0,0.0,0.0,0,0,0.0
1705,0,0.0,0.78,,,,,,,,,,,,,,,,,,
1707,0,0.0,0.79,,,,,,,,,,,,,,,,,,
1709,0,0.0,0.79,,,,,,,,,,,,,,,,,,
1711,0,0.0,0.79,,,,,,,,,,,,,,,,,,
1713,0,0.0,0.78,,-0.08,0.07,0.94,-0,-0,-0,0.1,,,,,,,,,,
1715,0,0.0,0.78,,,,,,,,,,,,,,,,,,
1717,0,0.0,0.78,,,,,,,,,,,,,,,,,,
1719,0,0.0,0.78,,,,,,,,,,,,,,,,,,
1721,0,0.0,0.78,,,,,,,,,,,,,,,,,,
1723,0,0.0,0.79,,-0.07,0.11,1.01,0,0,-0,0.13,0,1980,0,0.0,0.0,0.0,0.0,0,0,0.0
1725,0,0.0,0.79,,,,,,,,,,,,,,,,,,
1727,0,0.0,0.79,,,,,,,,,,,,,,,,,,
1729,0,0.0,0.78,,,,,,,,,,,,,,,,,,
1731,0,0.0,0.79,,,,,,,,,,,,,,,,,,
1733,0,0.0,0.79,,-0.02,0.07,1.01,-0,-1,-0,0.07,,,,,,,,,,
1735,0,0.0,0.79,,,,,,,,,,,,,,,,,,
1737,0,0.0,0.8,,,,,,,,,,,,,,,,,,
1739,0,0.0,0.79,,,,,,,,,,,,,,,,,,
1741,0,0.0,0.79,,,,,,,,,,,,,,,,,,
1743,0,0.0,0.79,,-0.12,0.07,0.93,0,0,-0,0.14,0,1980,0,0.0,0.0,0.0,0.0,0,0,0.0
1745,0,0.0,0.79,,,,,,,,,,,,,,,,,,
1747,0,0.0,0.79,,,,,,,,,,,,,,,,,,
1749,0,0.0,0.79,,,,,,,,,,,,,,,,,,
1751,0,0.0,0.79,,,,,,,,,,,,,,,,,,
1753,0,0.0,0.79,,-0.12,0.12,1.04,0,-0,-0,0.17,,,,,,,,,,
1755,0,0.0,0.79,,,,,,,,,,,,,,,,,,
1757,0,0.0,0.79,,,,,,,,,,,,,,,,,,
1759,0,0.0,0.79,,,,,,,,,,,,,,,,,,
1761,0,0.0,0.79,,,,,,,,,,,,,,,,,,
1763,0,0.0,0.79,,-0.05,0.06,1.0,-0,-0,-0,0.08,0,1980,0,0.0,0.0,0.0,0.0,0,0,0.0
1765,0,0.0,0.79,,,,,,,,,,,,,,,,,,
1767,0,0.0,0.8,,,,,,,,,,,,,,,,,,
1769,0,0.0,0.79,,,,,,,,,,,,,,,,,,
1771,0,0.0,0.79,,,,,,,,,,,,,,,,,,
1773,0,0.0,0.79,,-0.11,0.06,0.93,-0,-0,-1,0.12,,,,,,,,,,
1775,0,0.0,0.79,,,,,,,,,,,,,,,,,,
1777,0,0.0,0.79,,,,,,,,,,,,,,,,,,
1779,0,0.0,0.79,,,,,,,,,,,,,,,,,,
1781,0,0.0,0.79,,,,,,,,,,,,,,,,,,
1783,0,0.0,0.79,,-0.07,0.1,1.01,0,0,-0,0.13,0,1980,0,0.0,0.0,0.0,0.0,0,0,0.0
1785,0,0.0,0.79,,,,,,,,,,,,,,,,,,
1787,0,0.0,0.79,,,,,,,,,,,,,,,,,,
1789,0,0.0,0.79,,,,,,,,,,,,,,,,,,
1791,0,0.0,0.79,,,,,,,,,,,,,,,,,,
1793,0,0.0,0.79,,-0.03,0.07,0.98,-0,-0,-0,0.07,,,,,,,,,,
1795,0,0.0,0.79,,,,,,,,,,,,,,,,,,
1797,0,0.0,0.81,,,,,,,,,,,,,,,,,,
1799,0,0.0,0.79,,,,,,,,,,,,,,,,,,
1801,0,0.0,0.79,,,,,,,,,,,,,,,,,,
1803,0,0.0,0.79,,-0.13,0.09,0.91,-0,0,-1,0.16,0,1980,0,0.0,0.0,0.0,0.0,0,0,0.0
1805,0,0.0,0.79,,,,,,,,,,,,,,,,,,
1807,0,0.0,0.79,,,,,,,,,,,,,,,,,,
1809,0,0.0,0.79,,,,,,,,,,,,,,,,,,
1811,0,0.0,0.79,,,,,,,,,,,,,,,,,,
1813,0,0.0,0.79,,-0.12,0.1,1.01,0,-0,-1,0.16,,,,,,,,,,
1815,0,0.0,0.79,,,,,,,,,,,,,,,,,,
1817,0,0.0,0.79,,,,,,,,,,,,,,,,,,
1819,0,0.0,0.8,,,,,,,,,,,,,,,,,,
1821,0,0.0,0.79,,,,,,,,,,,,,,,,,,
1823,0,0.0,0.79,,-0.05,0.06,1.0,-0,-0,-0,0.08,0,1980,0,0.0,0.0,0.0,0.0,0,0,0.0
1825,0,0.0,0.8,,,,,,,,,,,,,,,,,,
1827,0,0.0,0.8,,,,,,,,,,,,,,,,,,
1829,0,0.0,0.8,,,,,,,,,,,,,,,,,,
1831,0,0.0,0.8,,,,,,,,,,,,,,,,,,
1833,0,0.0,0.8,,-0.13,0.06,0.92,-0,-0,-1,0.15,,,,,,,,,,
1835,0,0.0,0.8,,,,,,,,,,,,,,,,,,
1837,0,0.0,0.8,,,,,,,,,,,,,,,,,,
1839,0,0.0,0.8,,,,,,,,,,,,,,,,,,
1841,0,0.0,0.79,,,,,,,,,,,,,,,,,,
1843,0,0.0,0.8,,-0.07,0.09,1.02,0,0,-0,0.11,0,1980,0,0.0,0.0,0.0,0.0,0,0,0.0
1845,0,0.0,0.8,,,,,,,,,,,,,,,,,,
1847,0,0.0,0.8,,,,,,,,,,,,,,,,,,
1849,0,0.0,0.8,,,,,,,,,,,,,,,,,,
1851,0,0.0,0.8,,,,,,,,,,,,,,,,,,
1853,0,0.0,0.8,,-0.03,0.06,0.98,-0,-0,-0,0.07,,,,,,,,,,
1855,0,0.0,0.81,,,,,,,,,,,,,,,,,,
1857,0,0.0,0.8,,,,,,,,,,,,,,,,,,
1859,0,0.0,0.8,,,,,,,,,,,,,,,,,,
1861,0,0.0,0.8,,,,,,,,,,,,,,,,,,
1863,0,0.0,0.8,,-0.14,0.09,0.91,-0,0,-1,0.17,0,2040,0,0.0,0.0,0.0,0.0,0,0,0.0
1865,0,0.0,0.8,,,,,,,,,,,,,,,,,,
1867,0,0.0,0.8,,,,,,,,,,,,,,,,,,
1869,0,0.0,0.8,,,,,,,,,,,,,,,,,,
1871,0,0.0,0.8,,,,,,,,,,,,,,,,,,
1873,0,0.0,0.8,,-0.12,0.09,0.99,0,-0,-0,0.15,,,,,,,,,,
1875,0,0.0,0.8,,,,,,,,,,,,,,,,,,
1877,0,0.0,0.8,,,,,,,,,,,,,,,,,,
1879,0,0.0,0.8,,,,,,,,,,,,,,,,,,
1881,0,0.0,0.8,,,,,,,,,,,,,,,,,,
1883,0,0.0,0.8,,-0.06,0.07,1.02,-0,-0,-0,0.09,0,2040,0,0.0,0.0,0.0,0.0,0,0,0.0
1885,0,0.0,0.81,,,,,,,,,,,,,,,,,,
1887,0,0.0,0.8,,,,,,,,,,,,,,,,,,
1889,0,0.0,0.8,,,,,,,,,,,,,,,,,,
1891,0,0.0,0.8,,,,,,,,,,,,,,,,,,
1893,0,0.0,0.8,,-0.17,0.07,0.92,0,-0,-1,0.19,,,,,,,,,,
1895,0,0.0,0.8,,,,,,,,,,,,,,,,,,
1897,0,0.0,0.8,,,,,,,,,,,,,,,,,,
1899,0,0.0,0.8,,,,,,,,,,,,,,,,,,
1901,0,0.0,0.8,,,,,,,,,,,,,,,,,,
1903,0,0.0,0.8,,-0.07,0.07,1.01,0,-0,-0,0.1,0,1980,0,0.0,0.0,0.0,0.0,0,0,0.0
1905,0,0.0,0.8,,,,,,,,,,,,,,,,,,
1907,0,0.0,0.8,,,,,,,,,,,,,,,,,,
1909,0,0.0,0.81,,,,,,,,,,,,,,,,,,
1911,0,0.0,0.8,,,,,,,,,,,,,,,,,,
1913,0,0.0,0.8,,-0.05,0.07,0.99,-0,-0,-0,0.09,,,,,,,,,,
1915,0,0.0,0.82,,,,,,,,,,,,,,,,,,
1917,0,0.0,0.8,,,,,,,,,,,,,,,,,,
1919,0,0.0,0.8,,,,,,,,,,,,,,,,,,
1921,0,0.0,0.8,,,,,,,,,,,,,,,,,,
1923,0,0.0,0.8,,-0.16,0.11,0.92,0,-1,-1,0.19,0,2040,0,0.0,0.0,0.0,0.0,0,0,0.0
1925,0,0.0,0.81,,,,,,,,,,,,,,,,,,
1927,0,0.0,0.8,,,,,,,,,,,,,,,,,,
1929,0,0.0,0.81,,,,,,,,,,,,,,,,,,
1931,0,0.0,0.8,,,,,,,,,,,,,,,,,,
1933,0,0.0,0.8,,-0.1,0.07,0.98,0,-0,-0,0.12,,,,,,,,,,
1935,0,0.0,0.81,,,,,,,,,,,,,,,,,,
1937,0,0.0,0.81,,,,,,,,,,,,,,,,,,
1939,0,0.0,0.8,,,,,,,,,,,,,,,,,,
1941,0,0.0,0.81,,,,,,,,,,,,,,,,,,
1943,0,0.0,0.81,,-0.06,0.09,1.04,-0,-0,-0,0.11,0,2040,0,0.0,0.0,0.0,0.0,0,0,0.0
1945,0,0.0,0.82,,,,,,,,,,,,,,,,,,
1947,0,0.0,0.81,,,,,,,,,,,,,,,,,,
1949,0,0.0,0.81,,,,,,,,,,,,,,,,,,
1951,0,0.0,0.81,,,,,,,,,,,,,,,,,,
1953,0,0.0,0.81,,-0.2,0.09,0.94,0,-1,-1,0.22,,,,,,,,,,
1955,0,0.0,0.81,,,,,,,,,,,,,,,,,,
1957,0,0.0,0.81,,,,,,,,,,,,,,,,,,
1959,0,0.0,0.81,,,,,,,,,,,,,,,,,,
1961,0,0.0,0.81,,,,,,,,,,,,,,,,,,
1963,0,0.0,0.81,,-0.06,0.06,0.99,0,-0,-0,0.08,0,1980,0,0.0,0.0,0.0,0.0,0,0,0.0
1965,0,0.0,0.81,,,,,,,,,,,,,,,,,,
1967,0,0.0,0.81,,,,,,,,,,,,,,,,,,
1969,0,0.0,0.81,,,,,,,,,,,,,,,,,,
1971,0,0.0,0.81,,,,,,,,,,,,,,,,,,
1973,0,0.0,0.82,,-0.05,0.08,1.0,-0,-0,-0,0.1,,,,,,,,,,
1975,0,0.0,0.81,,,,,,,,,,,,,,,,,,
1977,0,0.0,0.81,,,,,,,,,,,,,,,,,,
1979,0,0.0,0.81,,,,,,,,,,,,,,,,,,
1981,0,0.0,0.81,,,,,,,,,,,,,,,,,,
1983,0,0.0,0.81,,-0.17,0.1,0.95,0,-1,-1,0.2,0,2040,0,0.0,0.0,0.0,0.0,0,0,0.0
1985,0,0.0,0.81,,,,,,,,,,,,,,,,,,
1987,0,0.0,0.81,,,,,,,,,,,,,,,,,,
1989,0,0.0,0.81,,,,,,,,,,,,,,,,,,
1991,0,0.0,0.81,,,,,,,,,,,,,,,,,,
1993,0,0.0,0.81,,-0.08,0.05,0.95,0,-1,-0,0.1,,,,,,,,,,
1995,0,0.0,0.81,,,,,,,,,,,,,,,,,,
1997,0,0.0,0.81,,,,,,,,,,,,,,,,,,
1999,0,0.0,0.81,,,,,,,,,,,,,,,,,,
2001,0,0.0,0.81,,,,,,,,,,,,,,,,,,
2003,0,0.0,0.82,,-0.05,0.1,1.04,-0,-0,-0,0.12,0,1980,0,0.0,0.0,0.0,0.0,0,0,0.0
2005,0,0.0,0.82,,,,,,,,,,,,,,,,,,
2007,0,0.0,0.81,,,,,,,,,,,,,,,,,,
2009,0,0.0,0.81,,,,,,,,,,,,,,,,,,
2011,0,0.0,0.81,,,,,,,,,,,,,,,,,,
2013,0,0.0,0.81,,-0.23,0.09,0.99,0,-0,-1,0.25,,,,,,,,,,
2015,0,0.0,0.81,,,,,,,,,,,,,,,,,,
2017,0,0.0,0.81,,,,,,,,,,,,,,,,,,
2019,0,0.0,0.81,,,,,,,,,,,,,,,,,,
2021,0,0.0,0.81,,,,,,,,,,,,,,,,,,
2023,0,0.0,0.82,,-0.06,0.05,1.0,0,-1,-0,0.08,0,1980,0,0.0,0.0,0.0,0.0,0,0,0.0
2025,0,0.0,0.81,,,,,,,,,,,,,,,,,,
2027,0,0.0,0.81,,,,,,,,,,,,,,,,,,
2029,0,0.0,0.81,,,,,,,,,,,,,,,,,,
2031,0,0.0,0.82,,,,,,,,,,,,,,,,,,
2033,0,0.0,0.83,,-0.06,0.09,1.01,-0,0,-0,0.1,,,,,,,,,,
2035,0,0.0,0.82,,,,,,,,,,,,,,,,,,
2037,0,0.0,0.81,,,,,,,,,,,,,,,,,,
2039,0,0.0,0.82,,,,,,,,,,,,,,,,,,
2041,0,0.0,0.82,,,,,,,,,,,,,,,,,,
2043,0,0.0,0.81,13.43,-0.2,0.1,0.98,0,-0,-1,0.22,0,1980,0,0.0,0.0,0.0,0.0,0,0,0.0
2045,0,0.0,0.82,,,,,,,,,,,,,,,,,,
2047,0,0.0,0.82,,,,,,,,,,,,,,,,,,
2049,0,0.0,0.82,,,,,,,,,,,,,,,,,,
2051,0,0.0,0.82,,,,,,,,,,,,,,,,,,
2053,0,0.0,0.82,,-0.08,0.04,0.92,0,-1,-0,0.09,,,,,,,,,,
2055,0,0.0,0.82,,,,,,,,,,,,,,,,,,
2057,0,0.0,0.82,,,,,,,,,,,,,,,,,,
2059,0,0.0,0.82,,,,,,,,,,,,,,,,,,
2061,0,0.0,0.82,,,,,,,,,,,,,,,,,,
2063,0,0.0,0.83,,-0.05,0.11,1.03,-0,0,-1,0.12,0,1980,0,0.0,0.0,0.0,0.0,0,0,0.0
2065,0,0.0,0.82,,,,,,,,,,,,,,,,,,
2067,0,0.0,0.82,,,,,,,,,,,,,,,,,,
2069,0,0.0,0.82,,,,,,,,,,,,,,,,,,
2071,0,0.0,0.82,,,,,,,,,,,,,,,,,,
2073,0,0.0,0.82,,-0.25,0.09,0.99,0,-0,-1,0.27,,,,,,,,,,
2075,0,0.0,0.82,,,,,,,,,,,,,,,,,,
2077,0,0.0,0.82,,,,,,,,,,,,,,,,,,
2079,0,0.0,0.82,,,,,,,,,,,,,,,,,,
2081,0,0.0,0.82,,,,,,,,,,,,,,,,,,
2083,0,0.0,0.82,,-0.07,0.03,1.01,0,-0,-0,0.08,0,1980,0,0.0,0.0,0.0,0.0,0,0,0.0
2085,0,0.0,0.82,,,,,,,,,,,,,,,,,,
2087,0,0.0,0.82,,,,,,,,,,,,,,,,,,
2089,0,0.0,0.82,,,,,,,,,,,,,,,,,,
2091,0,0.0,0.82,,,,,,,,,,,,,,,,,,
2093,0,0.0,0.83,,-0.08,0.09,1.02,-0,1,-1,0.12,,,,,,,,,,
2095,0,0.0,0.82,,,,,,,,,,,,,,,,,,
2097,0,0.0,0.82,,,,,,,,,,,,,,,,,,
2099,0,0.0,0.82,,,,,,,,,,,,,,,,,,
2101,0,0.0,0.82,,,,,,,,,,,,,,,,,,
2103,0,0.0,0.82,,-0.22,0.11,1.0,0,-0,-1,0.24,0,1980,0,0.0,0.0,0.0,0.0,0,0,0.0
2105,0,0.0,0.82,,,,,,,,,,,,,,,,,,
2107,0,0.0,0.82,,,,,,,,,,,,,,,,,,
2109,0,0.0,0.82,,,,,,,,,,,,,,,,,,
2111,0,0.0,0.82,,,,,,,,,,,,,,,,,,
2113,0,0.0,0.82,,-0.1,0.04,0.93,0,-0,-1,0.1,,,,,,,,,,
2115,0,0.0,0.82,,,,,,,,,,,,,,,,,,
2117,0,0.0,0.82,,,,,,,,,,,,,,,,,,
2119,0,0.0,0.82,,,,,,,,,,,,,,,,,,
2121,0,0.0,0.82,,,,,,,,,,,,,,,,,,
2123,0,0.0,0.84,,-0.08,0.11,1.04,-0,1,-1,0.14,0,1980,0,0.0,0.0,0.0,0.0,0,0,0.0
2125,0,0.0,0.83,,,,,,,,,,,,,,,,,,
2127,0,0.0,0.82,,,,,,,,,,,,,,,,,,
2129,0,0.0,0.81,,,,,,,,,,,,,,,,,,
2131,0,0.0,0.81,,,,,,,,,,,,,,,,,,
2133,0,0.0,0.81,,-0.29,0.1,0.99,0,0,-1,0.3,,,,,,,,,,
2135,0,0.0,0.81,,,,,,,,,,,,,,,,,,
2137,0,0.0,0.81,,,,,,,,,,,,,,,,,,
2139,0,0.0,0.81,,,,,,,,,,,,,,,,,,
2141,0,0.0,0.81,,,,,,,,,,,,,,,,,,
2143,0,0.0,0.81,,-0.1,0.05,1.02,0,-0,-1,0.11,0,1980,0,0.0,0.0,0.0,0.0,0,0,0.0
2145,0,0.0,0.81,,,,,,,,,,,,,,,,,,
2147,0,0.0,0.81,,,,,,,,,,,,,,,,,,
2149,0,0.0,0.81,,,,,,,,,,,,,,,,,,
2151,0,0.0,0.81,,,,,,,,,,,,,,,,,,
2153,0,0.0,0.82,,-0.14,0.1,1.01,-0,1,-1,0.18,,,,,,,,,,
2155,0,0.0,0.81,,,,,,,,,,,,,,,,,,
2157,0,0.0,0.81,,,,,,,,,,,,,,,,,,
2159,0,0.0,0.81,,,,,,,,,,,,,,,,,,
2161,0,0.0,0.81,,,,,,,,,,,,,,,,,,
2163,0,0.0,0.81,,-0.27,0.11,1.01,0,-0,-1,0.29,0,1980,0,0.0,0.0,0.0,0.0,0,0,0.0
2165,0,0.0,0.81,,,,,,,,,,,,,,,,,,
2167,0,0.0,0.8,,,,,,,,,,,,,,,,,,
2169,0,0.0,0.81,,,,,,,,,,,,,,,,,,
2171,0,0.0,0.81,,,,,,,,,,,,,,,,,,
2173,0,0.0,0.81,,-0.14,0.06,0.93,0,0,-1,0.15,,,,,,,,,,
2175,0,0.0,0.81,,,,,,,,,,,,,,,,,,
2177,0,0.0,0.8,,,,,,,,,,,,,,,,,,
2179,0,0.0,0.8,,,,,,,,,,,,,,,,,,
2181,0,0.0,0.8,,,,,,,,,,,,,,,,,,
2183,0,0.0,0.82,,-0.13,0.13,1.02,-0,1,-1,0.19,0,1980,0,0.0,0.0,0.0,0.0,0,0,0.0
2185,0,0.0,0.8,,,,,,,,,,,,,,,,,,
2187,0,0.0,0.8,,,,,,,,,,,,,,,,,,
2189,0,0.0,0.8,,,,,,,,,,,,,,,,,,
2191,0,0.0,0.8,,,,,,,,,,,,,,,,,,
2193,0,0.0,0.8,,-0.33,0.12,0.99,0,0,-2,0.35,,,,,,,,,,
2195,0,0.0,0.8,,,,,,,,,,,,,,,,,,
2197,0,0.0,0.8,,,,,,,,,,,,,,,,,,
2199,0,0.0,0.8,,,,,,,,,,,,,,,,,,
2201,0,0.0,0.8,,,,,,,,,,,,,,,,,,
2203,0,0.0,0.8,,-0.15,0.05,0.99,0,0,-1,0.16,0,1980,0,0.0,0.0,0.0,0.0,0,0,0.0
2205,0,0.0,0.8,,,,,,,,,,,,,,,,,,
2207,0,0.0,0.8,,,,,,,,,,,,,,,,,,
2209,0,0.0,0.8,,,,,,,,,,,,,,,,,,
2211,0,0.0,0.8,,,,,,,,,,,,,,,,,,
2213,0,0.0,0.81,,-0.18,0.09,0.99,-0,1,-1,0.21,,,,,,,,,,
2215,0,0.0,0.8,,,,,,,,,,,,,,,,,,
2217,0,0.0,0.8,,,,,,,,,,,,,,,,,,
2219,0,0.0,0.8,,,,,,,,,,,,,,,,,,
2221,0,0.0,0.8,,,,,,,,,,,,,,,,,,
2223,0,0.0,0.79,,-0.3,0.12,0.98,0,1,-1,0.33,0,1980,0,0.0,0.0,0.0,0.0,0,0,0.0
2225,0,0.0,0.79,,,,,,,,,,,,,,,,,,
2227,0,0.0,0.79,,,,,,,,,,,,,,,,,,
2229,0,0.0,0.79,,,,,,,,,,,,,,,,,,
2231,0,0.0,0.79,,,,,,,,,,,,,,,,,,
2233,0,0.0,0.79,,-0.2,0.03,0.93,0,1,-1,0.2,,,,,,,,,,
2235,0,0.0,0.79,,,,,,,,,,,,,,,,,,
2237,0,0.0,0.79,,,,,,,,,,,,,,,,,,
2239,0,0.0,0.79,,,,,,,,,,,,,,,,,,
2241,0,0.0,0.79,,,,,,,,,,,,,,,,,,
2243,0,0.0,0.8,,-0.21,0.13,1.04,-0,2,-2,0.25,0,1920,0,0.0,0.0,0.0,0.0,0,0,0.0
2245,0,0.0,0.79,,,,,,,,,,,,,,,,,,
2247,0,0.0,0.79,,,,,,,,,,,,,,,,,,
2249,0,0.0,0.79,,,,,,,,,,,,,,,,,,
2251,0,0.0,0.79,,,,,,,,,,,,,,,,,,
2253,0,0.0,0.79,,-0.38,0.11,0.95,0,1,-2,0.39,,,,,,,,,,
2255,0,0.0,0.79,,,,,,,,,,,,,,,,,,
2257,0,0.0,0.79,,,,,,,,,,,,,,,,,,
2259,0,0.0,0.79,,,,,,,,,,,,,,,,,,
2261,0,0.0,0.79,,,,,,,,,,,,,,,,,,
2263,0,0.0,0.79,,-0.21,0.02,1.0,1,1,-2,0.21,0,1920,0,0.0,0.0,0.0,0.0,0,0,0.0
2265,0,0.0,0.79,,,,,,,,,,,,,,,,,,
2267,0,0.0,0.79,,,,,,,,,,,,,,,,,,
2269,0,0.01,0.8,,,,,,,,,,,,,,,,,,
2271,0,0.0,0.79,,,,,,,,,,,,,,,,,,
2273,0,0.0,0.8,,-0.18,0.09,0.95,0,1,-1,0.2,,,,,,,,,,
2275,0,0.0,0.8,,,,,,,,,,,,,,,,,,
2277,0,0.0,0.8,,,,,,,,,,,,,,,,,,
2279,0,0.0,0.8,,,,,,,,,,,,,,,,,,
2281,0,0.0,0.8,,,,,,,,,,,,,,,,,,
2283,0,0.0,0.8,,-0.28,0.1,0.91,0,1,-1,0.3,0,1920,0,0.0,0.0,0.0,0.0,0,0,0.0
2285,0,0.0,0.8,,,,,,,,,,,,,,,,,,
2287,0,0.0,0.8,,,,,,,,,,,,,,,,,,
2289,0,0.0,0.8,,,,,,,,,,,,,,,,,,
2291,0,0.0,0.8,,,,,,,,,,,,,,,,,,
2293,0,0.0,0.8,,-0.21,0.04,0.92,1,0,-1,0.21,,,,,,,,,,
2295,0,0.0,0.8,,,,,,,,,,,,,,,,,,
2297,0,0.0,0.8,,,,,,,,,,,,,,,,,,
2299,0,0.0,0.8,,,,,,,,,,,,,,,,,,
2301,0,0.0,0.8,,,,,,,,,,,,,,,,,,
2303,0,0.0,0.8,,-0.17,0.08,0.99,0,0,-1,0.19,0,1920,0,0.0,0.0,0.0,0.0,0,0,0.0
2305,0,0.0,0.81,,,,,,,,,,,,,,,,,,
2307,0,0.0,0.81,,,,,,,,,,,,,,,,,,
2309,0,0.0,0.8,,,,,,,,,,,,,,,,,,
2311,0,0.0,0.8,,,,,,,,,,,,,,,,,,
2313,0,0.0,0.8,,-0.31,0.08,0.91,0,-0,-1,0.32,,,,,,,,,,
2315,0,0.0,0.8,,,,,,,,,,,,,,,,,,
2317,0,0.01,0.8,,,,,,,,,,,,,,,,,,
2319,0,0.0,0.8,,,,,,,,,,,,,,,,,,
2321,0,0.0,0.81,,,,,,,,,,,,,,,,,,
2323,0,0.0,0.8,,-0.19,0.04,1.02,1,-0,-1,0.19,0,1920,0,0.0,0.0,0.0,0.0,0,0,0.0
2325,0,0.0,0.81,,,,,,,,,,,,,,,,,,
2327,0,0.0,0.81,,,,,,,,,,,,,,,,,,
2329,0,0.0,0.8,,,,,,,,,,,,,,,,,,
2331,0,0.0,0.81,,,,,,,,,,,,,,,,,,
2333,0,0.0,0.8,,-0.14,0.03,0.97,0,-1,-1,0.14,,,,,,,,,,
2335,0,0.0,0.82,,,,,,,,,,,,,,,,,,
2337,0,0.0,0.81,,,,,,,,,,,,,,,,,,
2339,0,0.0,0.81,,,,,,,,,,,,,,,,,,
2341,0,0.0,0.81,,,,,,,,,,,,,,,,,,
2343,0,0.0,0.81,,-0.26,0.09,0.93,0,0,-1,0.28,0,1920,0,0.0,0.0,0.0,0.0,0,0,0.0
2345,0,0.0,0.81,,,,,,,,,,,,,,,,,,
2347,0,0.0,0.81,,,,,,,,,,,,,,,,,,
2349,0,0.0,0.81,,,,,,,,,,,,,,,,,,
2351,0,0.0,0.81,,,,,,,,,,,,,,,,,,
2353,0,0.0,0.81,,-0.23,0.05,1.0,1,-0,-1,0.24,,,,,,,,,,
2355,0,0.0,0.81,,,,,,,,,,,,,,,,,,
2357,0,0.0,0.81,,,,,,,,,,,,,,,,,,
2359,0,0.0,0.81,,,,,,,,,,,,,,,,,,
2361,0,0.0,0.81,,,,,,,,,,,,,,,,,,
2363,0,0.0,0.81,,-0.13,0.03,1.0,0,-1,-1,0.14,0,1920,0,0.0,0.0,0.0,0.0,0,0,0.0
2365,0,0.0,0.81,,,,,,,,,,,,,,,,,,
2367,0,0.0,0.82,,,,,,,,,,,,,,,,,,
2369,0,0.0,0.81,,,,,,,,,,,,,,,,,,
2371,0,0.0,0.81,,,,,,,,,,,,,,,,,,
2373,0,0.0,0.81,,-0.21,0.09,0.88,0,-0,-1,0.23,,,,,,,,,,
2375,0,0.0,0.8,,,,,,,,,,,,,,,,,,
2377,0,0.0,0.8,,,,,,,,,,,,,,,,,,
2379,0,0.0,0.8,,,,,,,,,,,,,,,,,,
2381,0,0.0,0.8,,,,,,,,,,,,,,,,,,
2383,0,0.0,0.8,,-0.18,0.04,1.02,1,-0,-0,0.19,2,1860,0,0.0,0.0,0.0,0.0,0,0,0.0
2385,0,0.0,0.8,,,,,,,,,,,,,,,,,,
2387,0,0.0,0.8,,,,,,,,,,,,,,,,,,
2389,0,0.0,0.8,,,,,,,,,,,,,,,,,,
2391,0,0.0,0.8,,,,,,,,,,,,,,,,,,
2393,0,0.0,0.8,,-0.1,0.01,0.97,-0,-0,-0,0.1,,,,,,,,,,
2395,0,0.0,0.8,,,,,,,,,,,,,,,,,,
2397,0,0.0,0.8,,,,,,,,,,,,,,,,,,
2399,0,0.0,0.8,,,,,,,,,,,,,,,,,,
2401,0,0.0,0.8,,,,,,,,,,,,,,,,,,
2403,0,0.0,0.8,,-0.24,0.13,0.91,-0,0,-1,0.27,2,1920,0,0.0,0.0,0.0,0.0,0,0,0.0
2405,0,0.0,0.8,,,,,,,,,,,,,,,,,,
2407,0,0.0,0.79,,,,,,,,,,,,,,,,,,
2409,0,0.0,0.8,,,,,,,,,,,,,,,,,,
2411,0,0.0,0.79,,,,,,,,,,,,,,,,,,
2413,0,0.0,0.79,,-0.3,0.06,1.07,0,-0,-1,0.31,,,,,,,,,,
2415,0,0.0,0.79,,,,,,,,,,,,,,,,,,
2417,0,0.0,0.79,,,,,,,,,,,,,,,,,,
2419,0,0.0,0.79,,,,,,,,,,,,,,,,,,
2421,0,0.0,0.79,,,,,,,,,,,,,,,,,,
2423,0,0.0,0.79,,-0.11,0.02,0.93,-0,-1,-1,0.12,2,1920,0,0.0,0.0,0.0,0.0,0,0,0.0
2425,0,0.0,0.79,,,,,,,,,,,,,,,,,,
2427,0,0.0,0.79,,,,,,,,,,,,,,,,,,
2429,0,0.0,0.8,,,,,,,,,,,,,,,,,,
2431,0,0.0,0.79,,,,,,,,,,,,,,,,,,
2433,0,0.0,0.79,,-0.14,0.13,0.87,0,-0,-1,0.2,,,,,,,,,,
2435,0,0.0,0.79,,,,,,,,,,,,,,,,,,
2437,0,0.0,0.79,,,,,,,,,,,,,,,,,,
2439,0,0.0,0.79,,,,,,,,,,,,,,,,,,
2441,0,0.0,0.79,,,,,,,,,,,,,,,,,,
2443,0,0.0,0.79,,-0.26,0.08,1.01,1,-1,-1,0.27,2,1860,0,0.0,0.0,0.0,0.0,0,0,0.0
2445,0,0.0,0.79,,,,,,,,,,,,,,,,,,
2447,0,0.0,0.79,,,,,,,,,,,,,,,,,,
2449,0,0.0,0.79,,,,,,,,,,,,,,,,,,
2451,0,0.0,0.79,,,,,,,,,,,,,,,,,,
2453,0,0.0,0.79,,-0.02,0.02,0.92,0,-2,-0,0.03,,,,,,,,,,
2455,0,0.0,0.8,,,,,,,,,,,,,,,,,,
2457,0,0.0,0.8,,,,,,,,,,,,,,,,,,
2459,0,0.0,0.8,,,,,,,,,,,,,,,,,,
2461,0,0.0,0.81,,,,,,,,,,,,,,,,,,
2463,0,0.0,0.8,,-0.15,0.11,0.93,0,-1,-0,0.19,2,1920,0,0.0,0.0,0.0,0.0,0,0,0.0
2465,0,0.0,0.8,,,,,,,,,,,,,,,,,,
2467,0,0.0,0.8,,,,,,,,,,,,,,,,,,
2469,0,0.0,0.8,,,,,,,,,,,,,,,,,,
2471,0,0.0,0.79,,,,,,,,,,,,,,,,,,
2473,0,0.0,0.8,,-0.23,0.08,1.07,1,-2,-0,0.24,,,,,,,,,,
2475,0,0.0,0.8,,,,,,,,,,,,,,,,,,
2477,0,0.0,0.8,,,,,,,,,,,,,,,,,,
2479,0,0.0,0.8,,,,,,,,,,,,,,,,,,
2481,0,0.0,0.8,,,,,,,,,,,,,,,,,,
2483,0,0.0,0.8,,0.0,-0.0,0.94,0,-3,0,0.0,2,1920,0,0.0,0.0,0.0,0.0,0,0,0.0
2485,0,0.0,0.8,,,,,,,,,,,,,,,,,,
2487,0,0.0,0.8,,,,,,,,,,,,,,,,,,
2489,0,0.0,0.8,,,,,,,,,,,,,,,,,,
2491,0,0.0,0.82,,,,,,,,,,,,,,,,,,
2493,0,0.0,0.81,,-0.03,0.13,1.03,0,-1,0,0.13,,,,,,,,,,
2495,0,0.0,0.81,,,,,,,,,,,,,,,,,,
2497,0,0.0,0.81,,,,,,,,,,,,,,,,,,
2499,0,0.0,0.81,,,,,,,,,,,,,,,,,,
2501,0,0.0,0.81,,,,,,,,,,,,,,,,,,
2503,0,0.0,0.81,,-0.27,0.12,1.12,0,-2,-0,0.3,2,1920,0,0.0,0.0,0.0,0.0,0,0,0.0
2505,0,0.0,0.8,,,,,,,,,,,,,,,,,,
2507,0,0.0,0.81,,,,,,,,,,,,,,,,,,
2509,0,0.0,0.81,,,,,,,,,,,,,,,,,,
2511,0,0.0,0.81,,,,,,,,,,,,,,,,,,
2513,0,0.0,0.81,,-0.01,0.01,1.1,0,-2,-0,0.02,,,,,,,,,,
2515,0,0.0,0.81,,,,,,,,,,,,,,,,,,
2517,0,0.0,0.81,,,,,,,,,,,,,,,,,,
2519,0,0.0,0.81,,,,,,,,,,,,,,,,,,
2521,0,0.0,0.82,,,,,,,,,,,,,,,,,,
2523,0,0.0,0.82,,-0.09,0.09,1.05,0,-0,-0,0.13,2,1920,0,0.0,0.0,0.0,0.0,0,0,0.0
2525,0,0.0,0.81,,,,,,,,,,,,,,,,,,
2527,0,0.0,0.81,,,,,,,,,,,,,,,,,,
2529,0,0.0,0.8,,,,,,,,,,,,,,,,,,
2531,0,0.0,0.8,,,,,,,,,,,,,,,,,,
2533,0,0.0,0.8,,-0.17,0.09,1.03,1,-1,-0,0.19,,,,,,,,,,
2535,0,0.0,0.8,,,,,,,,,,,,,,,,,,
2537,0,0.0,0.8,,,,,,,,,,,,,,,,,,
2539,0,0.0,0.79,,,,,,,,,,,,,,,,,,
2541,0,0.0,0.8,,,,,,,,,,,,,,,,,,
2543,0,0.0,0.8,,-0.01,0.01,0.91,1,-1,0,0.01,12,1920,0,0.0,0.0,0.0,0.0,0,0,0.0
2545,0,0.0,0.8,,,,,,,,,,,,,,,,,,
2547,0,0.0,0.8,,,,,,,,,,,,,,,,,,
2549,0,0.0,0.8,,,,,,,,,,,,,,,,,,
2551,0,0.0,0.8,,,,,,,,,,,,,,,,,,
2553,0,0.0,0.81,,-0.02,0.15,1.0,0,0,-0,0.15,,,,,,,,,,
2555,0,0.0,0.8,,,,,,,,,,,,,,,,,,
2557,0,0.0,0.8,,,,,,,,,,,,,,,,,,
2559,0,0.0,0.79,,,,,,,,,,,,,,,,,,
2561,0,0.0,0.79,,,,,,,,,,,,,,,,,,
2563,0,0.0,0.79,,-0.22,0.12,0.93,1,0,-1,0.25,12,1920,0,0.0,0.0,0.0,0.0,0,0,0.0
2565,0,0.0,0.79,,,,,,,,,,,,,,,,,,
2567,0,0.0,0.79,,,,,,,,,,,,,,,,,,
2569,0,0.0,0.79,,,,,,,,,,,,,,,,,,
2583,0,0.0,0.81,,-0.11,0.11,1.02,0,1,-1,0.16,12,1980,0,0.0,0.0,0.0,0.0,0,0,0.0
2585,0,0.0,0.8,,,,,,,,,,,,,,,,,,
2587,0,0.0,0.8,,,,,,,,,,,,,,,,,,
2589,0,0.0,0.8,,,,,,,,,,,,,,,,,,
2599,0,0.0,0.8,,,,,,,,,,,,,,,,,,
2601,0,0.0,0.8,,,,,,,,,,,,,,,,,,
2603,0,0.0,0.8,,-0.11,0.04,0.95,1,0,-1,0.11,12,1980,0,0.0,0.0,0.0,0.0,0,0,0.0
2605,0,0.0,0.8,,,,,,,,,,,,,,,,,,
2607,0,0.0,0.81,,,,,,,,,,,,,,,,,,
2609,0,0.0,0.81,,,,,,,,,,,,,,,,,,
2611,0,0.0,0.81,,,,,,,,,,,,,,,,,,
2613,0,0.0,0.81,,-0.13,0.08,0.98,0,0,-0,0.16,,,,,,,,,,
2615,0,0.0,0.81,,,,,,,,,,,,,,,,,,
2617,0,0.0,0.81,,,,,,,,,,,,,,,,,,
2619,0,0.0,0.81,,,,,,,,,,,,,,,,,,
2621,0,0.0,0.8,,,,,,,,,,,,,,,,,,
2623,0,0.0,0.81,,-0.24,0.1,0.92,1,-0,-1,0.26,12,1920,0,0.0,0.0,0.0,0.0,0,0,0.0
2625,0,0.0,0.81,,,,,,,,,,,,,,,,,,
2627,0,0.0,0.81,,,,,,,,,,,,,,,,,,
2629,0,0.0,0.8,,,,,,,,,,,,,,,,,,
2631,0,0.0,0.81,,,,,,,,,,,,,,,,,,
2633,0,0.0,0.81,,0.0,0.03,0.92,1,-1,-0,0.03,,,,,,,,,,
2635,0,0.0,0.81,,,,,,,,,,,,,,,,,,
2637,0,0.0,0.81,,,,,,,,,,,,,,,,,,
2639,0,0.0,0.81,,,,,,,,,,,,,,,,,,
2641,0,0.0,0.81,,,,,,,,,,,,,,,,,,
2643,0,0.0,0.82,,-0.04,0.08,0.92,0,-1,-0,0.08,12,1980,0,0.0,0.0,0.0,0.0,0,0,0.0
2645,0,0.0,0.81,,,,,,,,,,,,,,,,,,
2647,0,0.0,0.81,,,,,,,,,,,,,,,,,,
2649,0,0.0,0.81,,,,,,,,,,,,,,,,,,
2651,0,0.0,0.81,,,,,,,,,,,,,,,,,,
2653,0,0.0,0.81,,-0.12,0.13,0.93,1,-2,-0,0.18,,,,,,,,,,
2655,0,0.0,0.81,,,,,,,,,,,,,,,,,,
2657,0,0.0,0.81,,,,,,,,,,,,,,,,,,
2659,0,0.0,0.81,,,,,,,,,,,,,,,,,,
2661,0,0.0,0.81,,,,,,,,,,,,,,,,,,
2663,0,0.0,0.81,,-0.01,0.04,0.98,1,-2,-0,0.04,12,1980,0,0.0,0.0,0.0,0.0,0,0,0.0
2665,0,0.0,0.81,,,,,,,,,,,,,,,,,,
2667,0,0.0,0.8,,,,,,,,,,,,,,,,,,
2669,0,0.0,0.8,,,,,,,,,,,,,,,,,,
2671,0,0.0,0.8,,,,,,,,,,,,,,,,,,
2673,0,0.0,0.8,,-0.06,0.08,1.12,0,-2,-0,0.1,,,,,,,,,,
2675,0,0.0,0.8,,,,,,,,,,,,,,,,,,
2677,0,0.0,0.8,,,,,,,,,,,,,,,,,,
2679,0,0.0,0.8,,,,,,,,,,,,,,,,,,
2681,0,0.0,0.8,,,,,,,,,,,,,,,,,,
2683,0,0.0,0.8,,-0.19,0.08,1.04,0,-1,-1,0.21,18,1920,0,0.0,0.0,0.0,0.0,0,0,0.0
2685,0,0.0,0.8,,,,,,,,,,,,,,,,,,
2687,0,0.0,0.8,,,,,,,,,,,,,,,,,,
2689,0,0.0,0.8,,,,,,,,,,,,,,,,,,
2691,0,0.0,0.8,,,,,,,,,,,,,,,,,,
2693,0,0.0,0.8,,0.0,0.01,1.13,1,-1,-0,0.01,,,,,,,,,,
2695,0,0.0,0.8,,,,,,,,,,,,,,,,,,
2697,0,0.0,0.8,,,,,,,,,,,,,,,,,,
2699,0,0.0,0.8,,,,,,,,,,,,,,,,,,
2701,0,0.0,0.79,,,,,,,,,,,,,,,,,,
2703,0,0.0,0.79,,-0.02,0.1,1.05,0,0,-0,0.1,18,1920,0,0.0,0.0,0.0,0.0,0,0,0.0
2705,0,0.0,0.81,,,,,,,,,,,,,,,,,,
2707,0,0.0,0.79,,,,,,,,,,,,,,,,,,
2709,0,0.0,0.79,,,,,,,,,,,,,,,,,,
2711,0,0.0,0.79,,,,,,,,,,,,,,,,,,
2713,0,0.0,0.79,,-0.14,0.1,0.97,1,0,-1,0.18,,,,,,,,,,
2715,0,0.0,0.79,,,,,,,,,,,,,,,,,,
2717,0,0.0,0.79,,,,,,,,,,,,,,,,,,
2719,0,0.0,0.79,,,,,,,,,,,,,,,,,,
2721,0,0.0,0.79,,,,,,,,,,,,,,,,,,
2723,0,0.0,0.79,,-0.04,0.03,0.97,1,1,-1,0.05,18,1980,0,0.0,0.0,0.0,0.0,0,0,0.0
2725,0,0.0,0.79,,,,,,,,,,,,,,,,,,
2727,0,0.0,0.79,,,,,,,,,,,,,,,,,,
2729,0,0.0,0.8,,,,,,,,,,,,,,,,,,
2731,0,0.0,0.8,,,,,,,,,,,,,,,,,,
2733,0,0.0,0.8,,-0.03,0.12,1.0,1,1,-1,0.12,,,,,,,,,,
2735,0,0.0,0.81,,,,,,,,,,,,,,,,,,
2737,0,0.0,0.8,,,,,,,,,,,,,,,,,,
2739,0,0.0,0.8,,,,,,,,,,,,,,,,,,
2741,0,0.0,0.8,,,,,,,,,,,,,,,,,,
2743,0,0.0,0.8,,-0.18,0.08,0.85,1,1,-1,0.2,18,1920,0,0.0,0.0,0.0,0.0,0,0,0.0
2745,0,0.0,0.8,,,,,,,,,,,,,,,,,,
2747,0,0.0,0.8,,,,,,,,,,,,,,,,,,
2749,0,0.0,0.8,,,,,,,,,,,,,,,,,,
2751,0,0.0,0.8,,,,,,,,,,,,,,,,,,
2753,0,0.0,0.8,,-0.07,0.04,0.97,1,0,-0,0.08,,,,,,,,,,
2755,0,0.0,0.8,,,,,,,,,,,,,,,,,,
2757,0,0.0,0.81,,,,,,,,,,,,,,,,,,
2759,0,0.0,0.8,,,,,,,,,,,,,,,,,,
2761,0,0.0,0.8,,,,,,,,,,,,,,,,,,
2763,0,0.0,0.8,,-0.08,0.06,0.92,1,0,-0,0.1,18,1920,0,0.0,0.0,0.0,0.0,0,0,0.0
2765,0,0.0,0.82,,,,,,,,,,,,,,,,,,
2767,0,0.0,0.8,,,,,,,,,,,,,,,,,,
2769,0,0.0,0.81,,,,,,,,,,,,,,,,,,
2771,0,0.0,0.81,,,,,,,,,,,,,,,,,,
2773,0,0.0,0.81,,-0.21,0.15,0.91,1,0,-1,0.26,,,,,,,,,,
2775,0,0.0,0.81,,,,,,,,,,,,,,,,,,
2777,0,0.0,0.81,,,,,,,,,,,,,,,,,,
2779,0,0.0,0.8,,,,,,,,,,,,,,,,,,
2781,0,0.0,0.8,,,,,,,,,,,,,,,,,,
2783,0,0.0,0.81,,-0.14,0.06,0.96,1,-1,-1,0.15,18,1980,0,0.0,0.0,0.0,0.0,0,0,0.0
2785,0,0.0,0.81,,,,,,,,,,,,,,,,,,
2787,0,0.0,0.81,,,,,,,,,,,,,,,,,,
2789,0,0.0,0.81,,,,,,,,,,,,,,,,,,
2791,0,0.0,0.81,,,,,,,,,,,,,,,,,,
2793,0,0.0,0.81,,-0.11,0.07,1.02,0,-1,-0,0.13,,,,,,,,,,
2795,0,0.0,0.82,,,,,,,,,,,,,,,,,,
2797,0,0.0,0.81,,,,,,,,,,,,,,,,,,
2799,0,0.0,0.81,,,,,,,,,,,,,,,,,,
2801,0,0.0,0.81,,,,,,,,,,,,,,,,,,
2803,0,0.0,0.8,,-0.18,0.12,0.91,1,-1,-1,0.22,15,1920,0,0.0,0.0,0.0,0.0,0,0,0.0
2805,0,0.0,0.8,,,,,,,,,,,,,,,,,,
2807,0,0.0,0.8,,,,,,,,,,,,,,,,,,
2809,0,0.0,0.8,,,,,,,,,,,,,,,,,,
2811,0,0.0,0.8,,,,,,,,,,,,,,,,,,
2813,0,0.0,0.8,,-0.05,0.07,1.01,1,-1,-1,0.09,,,,,,,,,,
2815,0,0.0,0.8,,,,,,,,,,,,,,,,,,
2817,0,0.0,0.8,,,,,,,,,,,,,,,,,,
2819,0,0.0,0.8,,,,,,,,,,,,,,,,,,
2821,0,0.0,0.8,,,,,,,,,,,,,,,,,,
2823,0,0.0,0.8,,-0.01,0.08,0.98,0,-1,-1,0.08,15,1920,0,0.0,0.0,0.0,0.0,0,0,0.0
2825,0,0.0,0.81,,,,,,,,,,,,,,,,,,
2827,0,0.0,0.8,,,,,,,,,,,,,,,,,,
2829,0,0.0,0.79,,,,,,,,,,,,,,,,,,
2831,0,0.0,0.8,,,,,,,,,,,,,,,,,,
2833,0,0.0,0.8,,-0.12,0.15,0.92,0,-1,-1,0.19,,,,,,,,,,
2835,0,0.0,0.79,,,,,,,,,,,,,,,,,,
2837,0,0.0,0.79,,,,,,,,,,,,,,,,,,
2839,0,0.0,0.79,,,,,,,,,,,,,,,,,,
2841,0,0.0,0.79,,,,,,,,,,,,,,,,,,
2843,0,0.0,0.79,,-0.11,0.07,1.05,1,-1,-1,0.13,15,1980,0,0.0,0.0,0.0,0.0,0,0,0.0
2845,0,0.0,0.79,,,,,,,,,,,,,,,,,,
2847,0,0.0,0.79,,,,,,,,,,,,,,,,,,
2849,0,0.0,0.79,,,,,,,,,,,,,,,,,,
2851,0,0.0,0.79,,,,,,,,,,,,,,,,,,
2853,0,0.0,0.79,,-0.05,0.08,1.05,0,-1,-1,0.09,,,,,,,,,,
2855,0,0.0,0.79,,,,,,,,,,,,,,,,,,
2857,0,0.0,0.8,,,,,,,,,,,,,,,,,,
2859,0,0.0,0.8,,,,,,,,,,,,,,,,,,
2861,0,0.0,0.8,,,,,,,,,,,,,,,,,,
2863,0,0.0,0.8,,-0.15,0.1,0.94,1,-0,-1,0.18,15,1920,0,0.0,0.0,0.0,0.0,0,0,0.0
2865,0,0.0,0.8,,,,,,,,,,,,,,,,,,
2867,0,0.0,0.8,,,,,,,,,,,,,,,,,,
2869,0,0.0,0.8,,,,,,,,,,,,,,,,,,
2871,0,0.0,0.8,,,,,,,,,,,,,,,,,,
2873,0,0.0,0.8,,-0.1,0.05,1.07,1,-0,-1,0.11,,,,,,,,,,
2875,0,0.0,0.8,,,,,,,,,,,,,,,,,,
2877,0,0.0,0.8,,,,,,,,,,,,,,,,,,
2879,0,0.0,0.8,,,,,,,,,,,,,,,,,,
2881,0,0.0,0.8,,,,,,,,,,,,,,,,,,
2883,0,0.0,0.81,,-0.02,0.01,0.98,1,-1,-0,0.03,15,1920,0,0.0,0.0,0.0,0.0,0,0,0.0
2885,0,0.0,0.8,,,,,,,,,,,,,,,,,,
2887,0,0.0,0.82,,,,,,,,,,,,,,,,,,
2889,0,0.0,0.8,,,,,,,,,,,,,,,,,,
2891,0,0.0,0.81,,,,,,,,,,,,,,,,,,
2893,0,0.0,0.81,,-0.17,0.14,0.89,1,0,-0,0.22,,,,,,,,,,
2895,0,0.0,0.81,,,,,,,,,,,,,,,,,,
2897,0,0.0,0.81,,,,,,,,,,,,,,,,,,
2899,0,0.0,0.81,,,,,,,,,,,,,,,,,,
2901,0,0.0,0.81,,,,,,,,,,,,,,,,,,
2903,0,0.0,0.81,,-0.15,0.08,0.98,1,-1,-1,0.17,15,1980,0,0.0,0.0,0.0,0.0,0,0,0.0
2905,0,0.0,0.81,,,,,,,,,,,,,,,,,,
2907,0,0.0,0.81,,,,,,,,,,,,,,,,,,
2909,0,0.0,0.81,,,,,,,,,,,,,,,,,,
2911,0,0.0,0.81,,,,,,,,,,,,,,,,,,
2913,0,0.0,0.81,,-0.05,0.03,0.94,0,-1,-1,0.06,,,,,,,,,,
2915,0,0.0,0.81,,,,,,,,,,,,,,,,,,
2917,0,0.0,0.82,,,,,,,,,,,,,,,,,,
2919,0,0.0,0.81,,,,,,,,,,,,,,,,,,
2921,0,0.0,0.81,,,,,,,,,,,,,,,,,,
2923,0,0.0,0.81,,-0.13,0.1,0.87,0,-1,-1,0.16,15,1920,0,0.0,0.0,0.0,0.0,0,0,0.0
2925,0,0.0,0.81,,,,,,,,,,,,,,,,,,
2927,0,0.0,0.81,,,,,,,,,,,,,,,,,,
2929,0,0.0,0.81,,,,,,,,,,,,,,,,,,
2931,0,0.0,0.81,,,,,,,,,,,,,,,,,,
2933,0,0.0,0.81,,-0.04,0.08,1.01,1,-2,-1,0.09,,,,,,,,,,
2935,0,0.0,0.81,,,,,,,,,,,,,,,,,,
2937,0,0.0,0.81,,,,,,,,,,,,,,,,,,
2939,0,0.0,0.8,,,,,,,,,,,,,,,,,,
2941,0,0.0,0.8,,,,,,,,,,,,,,,,,,
2943,0,0.0,0.8,,0.05,0.04,0.99,0,-2,-1,0.06,18,1920,0,0.0,0.0,0.0,0.0,0,0,0.0
2945,0,0.0,0.8,,,,,,,,,,,,,,,,,,
2947,0,0.0,0.81,,,,,,,,,,,,,,,,,,
2949,0,0.0,0.8,,,,,,,,,,,,,,,,,,
2951,0,0.0,0.8,,,,,,,,,,,,,,,,,,
2953,0,0.0,0.8,,-0.14,0.1,0.97,0,-0,-1,0.17,,,,,,,,,,
2955,0,0.0,0.8,,,,,,,,,,,,,,,,,,
2957,0,0.0,0.8,,,,,,,,,,,,,,,,,,
2959,0,0.0,0.8,,,,,,,,,,,,,,,,,,
2961,0,0.0,0.8,,,,,,,,,,,,,,,,,,
2963,0,0.0,0.79,,-0.14,0.03,1.15,1,-0,-0,0.14,18,1980,0,0.0,0.0,0.0,0.0,0,0,0.0
2965,0,0.0,0.8,,,,,,,,,,,,,,,,,,
2967,0,0.0,0.8,,,,,,,,,,,,,,,,,,
2969,0,0.0,0.8,,,,,,,,,,,,,,,,,,
2971,0,0.0,0.8,,,,,,,,,,,,,,,,,,
2973,0,0.0,0.8,,-0.02,0.04,1.05,-0,-0,-0,0.05,,,,,,,,,,
2975,0,0.0,0.79,,,,,,,,,,,,,,,,,,
2977,0,0.0,0.8,,,,,,,,,,,,,,,,,,
2979,0,0.0,0.8,,,,,,,,,,,,,,,,,,
2981,0,0.0,0.79,,,,,,,,,,,,,,,,,,
2983,0,0.0,0.79,,-0.18,0.11,1.0,-0,1,-1,0.21,18,1920,0,0.0,0.0,0.0,0.0,0,0,0.0
2985,0,0.0,0.8,,,,,,,,,,,,,,,,,,
2987,0,0.0,0.8,,,,,,,,,,,,,,,,,,
2989,0,0.0,0.8,,,,,,,,,,,,,,,,,,
2991,0,0.0,0.8,,,,,,,,,,,,,,,,,,
2993,0,0.0,0.8,,-0.09,0.1,1.03,0,1,-1,0.13,,,,,,,,,,
2995,0,0.0,0.8,,,,,,,,,,,,,,,,,,
2997,0,0.0,0.8,,,,,,,,,,,,,,,,,,
2999,0,0.0,0.8,,,,,,,,,,,,,,,,,,
3001,0,0.0,0.81,,,,,,,,,,,,,,,,,,
3003,0,0.0,0.81,,0.07,0.03,0.88,-0,-0,-1,0.08,18,1920,0,0.0,0.0,0.0,0.0,0,0,0.0
3005,0,0.0,0.81,,,,,,,,,,,,,,,,,,
3007,0,0.0,0.82,,,,,,,,,,,,,,,,,,
3009,0,0.0,0.81,,,,,,,,,,,,,,,,,,
3011,0,0.0,0.81,,,,,,,,,,,,,,,,,,
3013,0,0.0,0.81,,-0.12,0.1,0.8,-0,0,-1,0.16,,,,,,,,,,
3015,0,0.0,0.81,,,,,,,,,,,,,,,,,,
3017,0,0.0,0.81,,,,,,,,,,,,,,,,,,
3019,0,0.0,0.81,,,,,,,,,,,,,,,,,,
3021,0,0.0,0.81,,,,,,,,,,,,,,,,,,
3023,0,0.0,0.81,,-0.11,0.08,0.94,0,-1,-1,0.13,18,1980,0,0.0,0.0,0.0,0.0,0,0,0.0
3025,0,0.0,0.81,,,,,,,,,,,,,,,,,,
3027,0,0.0,0.81,,,,,,,,,,,,,,,,,,
3029,0,0.0,0.81,,,,,,,,,,,,,,,,,,
3031,0,0.0,0.81,,,,,,,,,,,,,,,,,,
3033,0,0.0,0.81,,0.09,-0.0,0.89,-0,-2,-0,0.09,,,,,,,,,,
3035,0,0.0,0.81,,,,,,,,,,,,,,,,,,
3037,0,0.0,0.82,,,,,,,,,,,,,,,,,,
3039,0,0.0,0.81,,,,,,,,,,,,,,,,,,
3041,0,0.0,0.81,,,,,,,,,,,,,,,,,,
3043,0,0.0,0.81,13.41,-0.04,0.09,0.92,-0,-2,-0,0.1,18,1920,0,0.0,0.0,0.0,0.0,0,0,0.0
3045,0,0.0,0.81,,,,,,,,,,,,,,,,,,
3047,0,0.0,0.81,,,,,,,,,,,,,,,,,,
3049,0,0.0,0.81,,,,,,,,,,,,,,,,,,
3051,0,0.0,0.81,,,,,,,,,,,,,,,,,,
3053,0,0.0,0.81,,-0.08,0.08,1.12,0,-2,-0,0.11,,,,,,,,,,
3055,0,0.0,0.81,,,,,,,,,,,,,,,,,,
3057,0,0.0,0.81,,,,,,,,,,,,,,,,,,
3059,0,0.0,0.81,,,,,,,,,,,,,,,,,,
3061,0,0.0,0.81,,,,,,,,,,,,,,,,,,
3063,0,0.0,0.8,,0.08,-0.01,1.13,-0,-2,0,0.08,18,1920,0,0.0,0.0,0.0,0.0,0,0,0.0
3065,0,0.0,0.8,,,,,,,,,,,,,,,,,,
3067,0,0.0,0.81,,,,,,,,,,,,,,,,,,
3069,0,0.0,0.8,,,,,,,,,,,,,,,,,,
3071,0,0.0,0.8,,,,,,,,,,,,,,,,,,
3073,0,0.0,0.8,,-0.14,0.08,1.08,-0,0,0,0.16,,,,,,,,,,
3075,0,0.0,0.8,,,,,,,,,,,,,,,,,,
3077,0,0.0,0.8,,,,,,,,,,,,,,,,,,
3079,0,0.0,0.8,,,,,,,,,,,,,,,,,,
3081,0,0.0,0.8,,,,,,,,,,,,,,,,,,
3083,0,0.0,0.8,,-0.16,0.08,1.21,1,0,1,0.18,18,1980,0,0.0,0.0,0.0,0.0,0,0,0.0
3085,0,0.0,0.8,,,,,,,,,,,,,,,,,,
3087,0,0.0,0.8,,,,,,,,,,,,,,,,,,
3089,0,0.0,0.8,,,,,,,,,,,,,,,,,,
3091,0,0.0,0.8,,,,,,,,,,,,,,,,,,
3093,0,0.0,0.8,,0.01,0.03,1.03,0,1,0,0.03,,,,,,,,,,
3095,0,0.0,0.8,,,,,,,,,,,,,,,,,,
3097,0,0.0,0.81,,,,,,,,,,,,,,,,,,
3099,0,0.0,0.8,,,,,,,,,,,,,,,,,,
3101,0,0.0,0.8,,,,,,,,,,,,,,,,,,
