"Interval"|"ms"|0|0|1,"Utc"|"ms"|0|0|1,"Analog4"|"Volts"|0.0|5.0|500,"Analog5"|"Volts"|0.0|5.0|500,"Battery"|"Volts"|0.0|20.0|1,"AccelX"|"G"|-3.0|3.0|200,"AccelY"|"G"|-3.0|3.0|200,"AccelZ"|"G"|-3.0|3.0|200,"Yaw"|"Deg/Sec"|-120|120|200,"Pitch"|"Deg/Sec"|-120|120|200,"Roll"|"Deg/Sec"|-120|120|200,"Gsum"|"G"|0.0|3.0|200,"RPM2"|"rpm"|0|8000|50,"RPM3"|"rpm"|0|8000|50,"GPIO1"|""|0.0|1.0|50,"Latitude"|"Degrees"|-180.0|180.0|50,"Longitude"|"Degrees"|-180.0|180.0|50,"Speed"|"mph"|0.0|150.0|50,"Altitude"|"ft"|0.0|4000.0|50,"GPSSats"|""|0|20|50,"GPSQual"|""|0|5|50,"GPSDOP"|""|0.0|20.0|50
101,0,0.0,0.26,,,,,,,,,,,,,,,,,,
103,0,0.0,0.26,,-0.07,0.07,0.95,-0,1,-1,0.1,0,2100,0,0.0,0.0,0.0,0.0,0,0,0.0
105,0,0.0,0.27,,,,,,,,,,,,,,,,,,
107,0,0.01,0.26,,,,,,,,,,,,,,,,,,
109,0,0.0,0.27,,,,,,,,,,,,,,,,,,
111,0,0.0,0.27,,,,,,,,,,,,,,,,,,
113,0,0.0,0.26,,0.02,0.06,1.01,1,0,-1,0.06,,,,,,,,,,
115,0,0.0,0.27,,,,,,,,,,,,,,,,,,
117,0,0.0,0.27,,,,,,,,,,,,,,,,,,
119,0,0.0,0.27,,,,,,,,,,,,,,,,,,
121,0,0.01,0.27,,,,,,,,,,,,,,,,,,
123,0,0.0,0.28,,0.04,0.01,0.97,-0,0,-0,0.04,0,2100,0,0.0,0.0,0.0,0.0,0,0,0.0
125,0,0.0,0.27,,,,,,,,,,,,,,,,,,
127,0,0.0,0.27,,,,,,,,,,,,,,,,,,
129,0,0.0,0.27,,,,,,,,,,,,,,,,,,
131,0,0.0,0.27,,,,,,,,,,,,,,,,,,
133,0,0.0,0.27,,-0.15,0.07,0.95,-0,-0,-0,0.16,,,,,,,,,,
135,0,0.0,0.27,,,,,,,,,,,,,,,,,,
137,0,0.0,0.27,,,,,,,,,,,,,,,,,,
139,0,0.0,0.27,,,,,,,,,,,,,,,,,,
141,0,0.01,0.27,,,,,,,,,,,,,,,,,,
143,0,0.0,0.27,,-0.02,0.05,0.95,1,-1,-0,0.06,0,2100,0,0.0,0.0,0.0,0.0,0,0,0.0
145,0,0.0,0.27,,,,,,,,,,,,,,,,,,
147,0,0.0,0.27,,,,,,,,,,,,,,,,,,
149,0,0.0,0.27,,,,,,,,,,,,,,,,,,
151,0,0.0,0.27,,,,,,,,,,,,,,,,,,
153,0,0.0,0.28,,-0.04,0.1,1.01,-0,0,-0,0.11,,,,,,,,,,
155,0,0.01,0.27,,,,,,,,,,,,,,,,,,
157,0,0.0,0.27,,,,,,,,,,,,,,,,,,
159,0,0.0,0.27,,,,,,,,,,,,,,,,,,
161,0,0.0,0.27,,,,,,,,,,,,,,,,,,
163,0,0.0,0.27,,-0.29,0.11,1.0,0,-1,-0,0.31,0,2100,0,0.0,0.0,0.0,0.0,0,0,0.0
165,0,0.0,0.28,,,,,,,,,,,,,,,,,,
167,0,0.0,0.28,,,,,,,,,,,,,,,,,,
169,0,0.01,0.28,,,,,,,,,,,,,,,,,,
171,0,0.0,0.28,,,,,,,,,,,,,,,,,,
173,0,0.0,0.28,,0.07,0.02,0.98,1,-1,-1,0.07,,,,,,,,,,
175,0,0.0,0.27,,,,,,,,,,,,,,,,,,
177,0,0.0,0.28,,,,,,,,,,,,,,,,,,
179,0,0.0,0.28,,,,,,,,,,,,,,,,,,
181,0,0.0,0.28,,,,,,,,,,,,,,,,,,
183,0,0.01,0.28,,-0.12,0.06,1.0,-0,0,-0,0.14,0,2100,0,0.0,0.0,0.0,0.0,0,0,0.0
185,0,0.0,0.28,,,,,,,,,,,,,,,,,,
187,0,0.0,0.28,,,,,,,,,,,,,,,,,,
189,0,0.0,0.28,,,,,,,,,,,,,,,,,,
191,0,0.0,0.28,,,,,,,,,,,,,,,,,,
193,0,0.0,0.28,,-0.21,0.13,1.04,0,-1,-0,0.25,,,,,,,,,,
195,0,0.0,0.28,,,,,,,,,,,,,,,,,,
197,0,0.0,0.28,,,,,,,,,,,,,,,,,,
199,0,0.0,0.28,,,,,,,,,,,,,,,,,,
201,0,0.0,0.28,,,,,,,,,,,,,,,,,,
203,0,0.0,0.28,,0.06,-0.0,0.89,0,-1,-0,0.06,0,2100,0,0.0,0.0,0.0,0.0,0,0,0.0
205,0,0.0,0.28,,,,,,,,,,,,,,,,,,
207,0,0.0,0.28,,,,,,,,,,,,,,,,,,
209,0,0.0,0.29,,,,,,,,,,,,,,,,,,
211,0,0.0,0.28,,,,,,,,,,,,,,,,,,
213,0,0.01,0.28,,-0.08,0.11,1.01,-0,0,-0,0.13,,,,,,,,,,
215,0,0.0,0.29,,,,,,,,,,,,,,,,,,
217,0,0.0,0.28,,,,,,,,,,,,,,,,,,
219,0,0.0,0.28,,,,,,,,,,,,,,,,,,
221,0,0.0,0.29,,,,,,,,,,,,,,,,,,
223,0,0.0,0.28,,-0.14,0.11,1.04,1,-1,-0,0.18,0,2100,0,0.0,0.0,0.0,0.0,0,0,0.0
225,0,0.0,0.29,,,,,,,,,,,,,,,,,,
227,0,0.0,0.28,,,,,,,,,,,,,,,,,,
229,0,0.0,0.29,,,,,,,,,,,,,,,,,,
231,0,0.01,0.29,,,,,,,,,,,,,,,,,,
233,0,0.0,0.29,,0.08,0.01,0.97,0,-0,-1,0.08,,,,,,,,,,
235,0,0.0,0.29,,,,,,,,,,,,,,,,,,
237,0,0.0,0.3,,,,,,,,,,,,,,,,,,
239,0,0.0,0.29,,,,,,,,,,,,,,,,,,
241,0,0.0,0.29,,,,,,,,,,,,,,,,,,
243,0,0.0,0.29,,-0.16,0.07,0.99,-0,0,-0,0.17,0,2100,0,0.0,0.0,0.0,0.0,0,0,0.0
245,0,0.0,0.29,,,,,,,,,,,,,,,,,,
247,0,0.0,0.29,,,,,,,,,,,,,,,,,,
249,0,0.0,0.29,,,,,,,,,,,,,,,,,,
251,0,0.0,0.29,,,,,,,,,,,,,,,,,,
253,0,0.0,0.29,,-0.12,0.1,1.06,1,-0,-0,0.16,,,,,,,,,,
255,0,0.0,0.28,,,,,,,,,,,,,,,,,,
257,0,0.0,0.29,,,,,,,,,,,,,,,,,,
259,0,0.0,0.29,,,,,,,,,,,,,,,,,,
261,0,0.0,0.29,,,,,,,,,,,,,,,,,,
263,0,0.0,0.29,,0.01,0.04,1.02,-0,0,-0,0.05,0,2100,0,0.0,0.0,0.0,0.0,0,0,0.0
265,0,0.0,0.3,,,,,,,,,,,,,,,,,,
267,0,0.0,0.29,,,,,,,,,,,,,,,,,,
269,0,0.0,0.29,,,,,,,,,,,,,,,,,,
271,0,0.0,0.29,,,,,,,,,,,,,,,,,,
273,0,0.0,0.29,,-0.18,0.08,0.96,-0,0,-0,0.19,,,,,,,,,,
275,0,0.0,0.29,,,,,,,,,,,,,,,,,,
277,0,0.0,0.29,,,,,,,,,,,,,,,,,,
279,0,0.0,0.29,,,,,,,,,,,,,,,,,,
281,0,0.0,0.29,,,,,,,,,,,,,,,,,,
283,0,0.0,0.3,,0.03,0.07,0.98,1,-0,-0,0.07,0,2100,0,0.0,0.0,0.0,0.0,0,0,0.0
285,0,0.0,0.3,,,,,,,,,,,,,,,,,,
287,0,0.0,0.3,,,,,,,,,,,,,,,,,,
289,0,0.0,0.3,,,,,,,,,,,,,,,,,,
291,0,0.0,0.3,,,,,,,,,,,,,,,,,,
293,0,0.01,0.31,,-0.01,0.05,0.99,-0,0,-0,0.05,,,,,,,,,,
295,0,0.0,0.3,,,,,,,,,,,,,,,,,,
297,0,0.0,0.3,,,,,,,,,,,,,,,,,,
299,0,0.0,0.3,,,,,,,,,,,,,,,,,,
301,0,0.0,0.3,,,,,,,,,,,,,,,,,,
303,0,0.0,0.3,,-0.17,0.1,0.96,0,-1,-0,0.2,0,2100,0,0.0,0.0,0.0,0.0,0,0,0.0
305,0,0.0,0.3,,,,,,,,,,,,,,,,,,
307,0,0.01,0.3,,,,,,,,,,,,,,,,,,
309,0,0.0,0.3,,,,,,,,,,,,,,,,,,
311,0,0.0,0.3,,,,,,,,,,,,,,,,,,
313,0,0.0,0.3,,0.02,0.03,0.88,1,-1,-0,0.04,,,,,,,,,,
315,0,0.0,0.3,,,,,,,,,,,,,,,,,,
317,0,0.0,0.3,,,,,,,,,,,,,,,,,,
319,0,0.0,0.3,,,,,,,,,,,,,,,,,,
321,0,0.0,0.31,,,,,,,,,,,,,,,,,,
323,0,0.0,0.3,,-0.07,0.1,1.03,-0,0,-0,0.12,0,2100,0,0.0,0.0,0.0,0.0,0,0,0.0
325,0,0.0,0.3,,,,,,,,,,,,,,,,,,
327,0,0.0,0.3,,,,,,,,,,,,,,,,,,
329,0,0.0,0.3,,,,,,,,,,,,,,,,,,
331,0,0.0,0.3,,,,,,,,,,,,,,,,,,
333,0,0.0,0.3,,-0.27,0.13,1.03,0,-1,-0,0.3,,,,,,,,,,
335,0,0.0,0.3,,,,,,,,,,,,,,,,,,
337,0,0.0,0.3,,,,,,,,,,,,,,,,,,
339,0,0.0,0.31,,,,,,,,,,,,,,,,,,
341,0,0.01,0.31,,,,,,,,,,,,,,,,,,
343,0,0.0,0.31,,0.1,0.0,0.97,0,-1,-1,0.1,0,2100,0,0.0,0.0,0.0,0.0,0,0,0.0
345,0,0.0,0.31,,,,,,,,,,,,,,,,,,
347,0,0.0,0.31,,,,,,,,,,,,,,,,,,
349,0,0.0,0.32,,,,,,,,,,,,,,,,,,
351,0,0.0,0.31,,,,,,,,,,,,,,,,,,
353,0,0.0,0.31,,-0.14,0.08,1.0,-0,1,-0,0.17,,,,,,,,,,
355,0,0.0,0.31,,,,,,,,,,,,,,,,,,
357,0,0.0,0.31,,,,,,,,,,,,,,,,,,
359,0,0.0,0.31,,,,,,,,,,,,,,,,,,
361,0,0.0,0.31,,,,,,,,,,,,,,,,,,
363,0,0.0,0.31,,-0.2,0.14,1.04,0,-1,-0,0.24,0,2100,0,0.0,0.0,0.0,0.0,0,0,0.0
365,0,0.0,0.31,,,,,,,,,,,,,,,,,,
367,0,0.0,0.31,,,,,,,,,,,,,,,,,,
369,0,0.0,0.31,,,,,,,,,,,,,,,,,,
371,0,0.0,0.31,,,,,,,,,,,,,,,,,,
373,0,0.0,0.31,,0.07,-0.0,0.92,0,-1,-0,0.07,,,,,,,,,,
375,0,0.0,0.31,,,,,,,,,,,,,,,,,,
377,0,0.0,0.32,,,,,,,,,,,,,,,,,,
379,0,0.0,0.31,,,,,,,,,,,,,,,,,,
381,0,0.0,0.31,,,,,,,,,,,,,,,,,,
383,0,0.0,0.31,,-0.09,0.1,1.01,-0,0,-0,0.13,0,2100,0,0.0,0.0,0.0,0.0,0,0,0.0
385,0,0.0,0.31,,,,,,,,,,,,,,,,,,
387,0,0.0,0.31,,,,,,,,,,,,,,,,,,
389,0,0.0,0.31,,,,,,,,,,,,,,,,,,
391,0,0.0,0.31,,,,,,,,,,,,,,,,,,
393,0,0.0,0.31,,-0.09,0.11,1.06,1,-0,-0,0.14,,,,,,,,,,
395,0,0.0,0.31,,,,,,,,,,,,,,,,,,
397,0,0.0,0.32,,,,,,,,,,,,,,,,,,
399,0,0.0,0.32,,,,,,,,,,,,,,,,,,
401,0,0.0,0.32,,,,,,,,,,,,,,,,,,
403,0,0.0,0.32,,0.08,0.01,0.99,-0,-0,-1,0.08,0,2100,0,0.0,0.0,0.0,0.0,0,0,0.0
405,0,0.0,0.33,,,,,,,,,,,,,,,,,,
407,0,0.0,0.32,,,,,,,,,,,,,,,,,,
409,0,0.0,0.32,,,,,,,,,,,,,,,,,,
411,0,0.0,0.32,,,,,,,,,,,,,,,,,,
413,0,0.0,0.32,,-0.16,0.09,0.96,-0,0,-0,0.18,,,,,,,,,,
415,0,0.0,0.32,,,,,,,,,,,,,,,,,,
417,0,0.01,0.32,,,,,,,,,,,,,,,,,,
419,0,0.0,0.32,,,,,,,,,,,,,,,,,,
421,0,0.0,0.32,,,,,,,,,,,,,,,,,,
423,0,0.0,0.32,,-0.09,0.09,1.0,1,-0,-0,0.13,0,2100,0,0.0,0.0,0.0,0.0,0,0,0.0
425,0,0.0,0.32,,,,,,,,,,,,,,,,,,
427,0,0.0,0.32,,,,,,,,,,,,,,,,,,
429,0,0.0,0.32,,,,,,,,,,,,,,,,,,
431,0,0.0,0.32,,,,,,,,,,,,,,,,,,
433,0,0.0,0.32,,0.0,0.06,1.02,-0,0,-0,0.06,,,,,,,,,,
435,0,0.0,0.33,,,,,,,,,,,,,,,,,,
437,0,0.0,0.32,,,,,,,,,,,,,,,,,,
439,0,0.0,0.32,,,,,,,,,,,,,,,,,,
441,0,0.0,0.32,,,,,,,,,,,,,,,,,,
443,0,0.0,0.32,,-0.23,0.1,0.96,0,0,-0,0.25,0,2100,0,0.0,0.0,0.0,0.0,0,0,0.0
445,0,0.0,0.32,,,,,,,,,,,,,,,,,,
447,0,0.0,0.32,,,,,,,,,,,,,,,,,,
449,0,0.0,0.32,,,,,,,,,,,,,,,,,,
451,0,0.0,0.32,,,,,,,,,,,,,,,,,,
453,0,0.0,0.33,,0.04,0.06,1.0,0,-0,-1,0.07,,,,,,,,,,
455,0,0.0,0.33,,,,,,,,,,,,,,,,,,
457,0,0.0,0.33,,,,,,,,,,,,,,,,,,
459,0,0.01,0.33,,,,,,,,,,,,,,,,,,
461,0,0.0,0.33,,,,,,,,,,,,,,,,,,
463,0,0.0,0.33,,-0.04,0.06,0.97,-0,1,-0,0.07,0,2100,0,0.0,0.0,0.0,0.0,0,0,0.0
465,0,0.01,0.33,,,,,,,,,,,,,,,,,,
467,0,0.0,0.33,,,,,,,,,,,,,,,,,,
469,0,0.0,0.33,,,,,,,,,,,,,,,,,,
471,0,0.0,0.33,,,,,,,,,,,,,,,,,,
473,0,0.0,0.33,,-0.19,0.13,0.96,0,-1,-0,0.23,,,,,,,,,,
475,0,0.0,0.33,,,,,,,,,,,,,,,,,,
477,0,0.0,0.33,,,,,,,,,,,,,,,,,,
479,0,0.01,0.33,,,,,,,,,,,,,,,,,,
481,0,0.0,0.33,,,,,,,,,,,,,,,,,,
483,0,0.0,0.33,,0.05,0.02,0.86,0,-1,-0,0.05,0,2100,0,0.0,0.0,0.0,0.0,0,0,0.0
485,0,0.0,0.33,,,,,,,,,,,,,,,,,,
487,0,0.0,0.33,,,,,,,,,,,,,,,,,,
489,0,0.0,0.33,,,,,,,,,,,,,,,,,,
491,0,0.0,0.34,,,,,,,,,,,,,,,,,,
493,0,0.0,0.33,,-0.07,0.11,1.01,-0,0,-0,0.13,,,,,,,,,,
495,0,0.0,0.33,,,,,,,,,,,,,,,,,,
497,0,0.0,0.33,,,,,,,,,,,,,,,,,,
499,0,0.0,0.33,,,,,,,,,,,,,,,,,,
501,0,0.0,0.33,,,,,,,,,,,,,,,,,,
503,0,0.0,0.33,,-0.26,0.13,1.05,0,-1,-0,0.29,0,2100,0,0.0,0.0,0.0,0.0,0,0,0.0
505,0,0.0,0.33,,,,,,,,,,,,,,,,,,
507,0,0.01,0.34,,,,,,,,,,,,,,,,,,
509,0,0.0,0.34,,,,,,,,,,,,,,,,,,
511,0,0.0,0.34,,,,,,,,,,,,,,,,,,
513,0,0.0,0.34,,0.12,-0.01,0.95,0,-1,-0,0.12,,,,,,,,,,
515,0,0.0,0.34,,,,,,,,,,,,,,,,,,
517,0,0.0,0.34,,,,,,,,,,,,,,,,,,
519,0,0.0,0.35,,,,,,,,,,,,,,,,,,
521,0,0.0,0.34,,,,,,,,,,,,,,,,,,
523,0,0.0,0.34,,-0.18,0.07,1.01,-0,0,-0,0.19,0,2100,0,0.0,0.0,0.0,0.0,0,0,0.0
525,0,0.0,0.34,,,,,,,,,,,,,,,,,,
527,0,0.0,0.34,,,,,,,,,,,,,,,,,,
529,0,0.0,0.34,,,,,,,,,,,,,,,,,,
531,0,0.0,0.34,,,,,,,,,,,,,,,,,,
533,0,0.0,0.34,,-0.2,0.11,1.05,0,-1,-0,0.23,,,,,,,,,,
535,0,0.0,0.34,,,,,,,,,,,,,,,,,,
537,0,0.0,0.34,,,,,,,,,,,,,,,,,,
539,0,0.0,0.34,,,,,,,,,,,,,,,,,,
541,0,0.01,0.34,,,,,,,,,,,,,,,,,,
543,0,0.0,0.34,,0.06,0.01,0.94,-0,-1,-0,0.06,0,2100,0,0.0,0.0,0.0,0.0,0,0,0.0
545,0,0.0,0.34,,,,,,,,,,,,,,,,,,
547,0,0.0,0.35,,,,,,,,,,,,,,,,,,
549,0,0.0,0.34,,,,,,,,,,,,,,,,,,
551,0,0.0,0.34,,,,,,,,,,,,,,,,,,
553,0,0.0,0.34,,-0.11,0.09,1.0,-0,-0,-0,0.15,,,,,,,,,,
555,0,0.0,0.34,,,,,,,,,,,,,,,,,,
557,0,0.0,0.34,,,,,,,,,,,,,,,,,,
559,0,0.0,0.35,,,,,,,,,,,,,,,,,,
561,0,0.0,0.34,,,,,,,,,,,,,,,,,,
563,0,0.0,0.35,,-0.07,0.1,1.07,1,-0,-0,0.12,0,2100,0,0.0,0.0,0.0,0.0,0,0,0.0
565,0,0.0,0.35,,,,,,,,,,,,,,,,,,
567,0,0.0,0.35,,,,,,,,,,,,,,,,,,
569,0,0.0,0.35,,,,,,,,,,,,,,,,,,
571,0,0.0,0.35,,,,,,,,,,,,,,,,,,
573,0,0.0,0.35,,0.05,0.01,0.99,-0,-0,-0,0.05,,,,,,,,,,
575,0,0.0,0.36,,,,,,,,,,,,,,,,,,
577,0,0.0,0.35,,,,,,,,,,,,,,,,,,
579,0,0.0,0.35,,,,,,,,,,,,,,,,,,
581,0,0.0,0.35,,,,,,,,,,,,,,,,,,
583,0,0.0,0.35,,-0.17,0.06,0.97,-0,0,-0,0.18,0,2100,0,0.0,0.0,0.0,0.0,0,0,0.0
585,0,0.0,0.34,,,,,,,,,,,,,,,,,,
587,0,0.0,0.35,,,,,,,,,,,,,,,,,,
589,0,0.0,0.35,,,,,,,,,,,,,,,,,,
591,0,0.0,0.35,,,,,,,,,,,,,,,,,,
593,0,0.0,0.35,,-0.06,0.07,0.98,1,-0,-0,0.09,,,,,,,,,,
595,0,0.0,0.35,,,,,,,,,,,,,,,,,,
597,0,0.0,0.35,,,,,,,,,,,,,,,,,,
599,0,0.0,0.35,,,,,,,,,,,,,,,,,,
601,0,0.0,0.35,,,,,,,,,,,,,,,,,,
603,0,0.0,0.36,,-0.02,0.08,1.02,-0,0,-0,0.09,0,2100,0,0.0,0.0,0.0,0.0,0,0,0.0
605,0,0.0,0.35,,,,,,,,,,,,,,,,,,
607,0,0.0,0.36,,,,,,,,,,,,,,,,,,
609,0,0.0,0.35,,,,,,,,,,,,,,,,,,
611,0,0.0,0.35,,,,,,,,,,,,,,,,,,
613,0,0.0,0.35,,-0.26,0.11,0.98,0,-0,-0,0.29,,,,,,,,,,
615,0,0.0,0.35,,,,,,,,,,,,,,,,,,
617,0,0.01,0.35,,,,,,,,,,,,,,,,,,
619,0,0.0,0.36,,,,,,,,,,,,,,,,,,
621,0,0.0,0.36,,,,,,,,,,,,,,,,,,
623,0,0.0,0.36,,0.06,0.04,0.99,0,-0,-0,0.07,0,2100,0,0.0,0.0,0.0,0.0,0,0,0.0
625,0,0.0,0.36,,,,,,,,,,,,,,,,,,
627,0,0.0,0.36,,,,,,,,,,,,,,,,,,
629,0,0.0,0.36,,,,,,,,,,,,,,,,,,
631,0,0.01,0.37,,,,,,,,,,,,,,,,,,
633,0,0.0,0.36,,-0.06,0.08,0.98,-0,1,-0,0.09,,,,,,,,,,
635,0,0.0,0.36,,,,,,,,,,,,,,,,,,
637,0,0.0,0.36,,,,,,,,,,,,,,,,,,
639,0,0.0,0.36,,,,,,,,,,,,,,,,,,
641,0,0.0,0.36,,,,,,,,,,,,,,,,,,
643,0,0.0,0.36,,-0.2,0.12,0.97,-0,-1,-0,0.24,0,2100,0,0.0,0.0,0.0,0.0,0,0,0.0
645,0,0.01,0.36,,,,,,,,,,,,,,,,,,
647,0,0.0,0.36,,,,,,,,,,,,,,,,,,
649,0,0.0,0.36,,,,,,,,,,,,,,,,,,
651,0,0.0,0.36,,,,,,,,,,,,,,,,,,
653,0,0.0,0.36,,0.04,0.02,0.87,-0,-1,-0,0.04,,,,,,,,,,
655,0,0.0,0.36,,,,,,,,,,,,,,,,,,
657,0,0.0,0.36,,,,,,,,,,,,,,,,,,
659,0,0.01,0.37,,,,,,,,,,,,,,,,,,
661,0,0.0,0.37,,,,,,,,,,,,,,,,,,
663,0,0.0,0.36,,-0.1,0.12,1.01,-1,1,-0,0.15,0,2040,0,0.0,0.0,0.0,0.0,0,0,0.0
665,0,0.0,0.37,,,,,,,,,,,,,,,,,,
667,0,0.0,0.36,,,,,,,,,,,,,,,,,,
669,0,0.0,0.37,,,,,,,,,,,,,,,,,,
671,0,0.0,0.37,,,,,,,,,,,,,,,,,,
673,0,0.0,0.37,,-0.24,0.14,1.05,-0,-1,-0,0.27,,,,,,,,,,
675,0,0.0,0.36,,,,,,,,,,,,,,,,,,
677,0,0.0,0.37,,,,,,,,,,,,,,,,,,
679,0,0.0,0.37,,,,,,,,,,,,,,,,,,
681,0,0.0,0.37,,,,,,,,,,,,,,,,,,
683,0,0.0,0.37,,0.1,0.01,0.95,-0,-0,-1,0.1,0,2040,0,0.0,0.0,0.0,0.0,0,0,0.0
685,0,0.0,0.37,,,,,,,,,,,,,,,,,,
687,0,0.0,0.38,,,,,,,,,,,,,,,,,,
689,0,0.0,0.37,,,,,,,,,,,,,,,,,,
691,0,0.0,0.37,,,,,,,,,,,,,,,,,,
693,0,0.0,0.37,,-0.23,0.06,1.02,-1,1,-0,0.24,,,,,,,,,,
695,0,0.0,0.37,,,,,,,,,,,,,,,,,,
697,0,0.0,0.37,,,,,,,,,,,,,,,,,,
699,0,0.0,0.37,,,,,,,,,,,,,,,,,,
701,0,0.0,0.37,,,,,,,,,,,,,,,,,,
703,0,0.0,0.37,,-0.25,0.09,1.13,-0,-0,-0,0.26,0,2100,0,0.0,0.0,0.0,0.0,0,0,0.0
705,0,0.0,0.37,,,,,,,,,,,,,,,,,,
707,0,0.0,0.37,,,,,,,,,,,,,,,,,,
709,0,0.0,0.37,,,,,,,,,,,,,,,,,,
711,0,0.0,0.38,,,,,,,,,,,,,,,,,,
713,0,0.0,0.37,,-0.03,0.01,1.02,-1,0,-0,0.03,,,,,,,,,,
715,0,0.0,0.38,,,,,,,,,,,,,,,,,,
717,0,0.0,0.38,,,,,,,,,,,,,,,,,,
719,0,0.0,0.37,,,,,,,,,,,,,,,,,,
721,0,0.0,0.37,,,,,,,,,,,,,,,,,,
723,0,0.0,0.37,,-0.2,0.09,1.02,-0,1,-0,0.22,0,2040,0,0.0,0.0,0.0,0.0,0,0,0.0
725,0,0.0,0.37,,,,,,,,,,,,,,,,,,
727,0,0.0,0.37,,,,,,,,,,,,,,,,,,
729,0,0.0,0.38,,,,,,,,,,,,,,,,,,
731,0,0.0,0.38,,,,,,,,,,,,,,,,,,
733,0,0.0,0.38,,-0.07,0.07,1.07,0,1,-0,0.1,,,,,,,,,,
735,0,0.0,0.38,,,,,,,,,,,,,,,,,,
737,0,0.0,0.38,,,,,,,,,,,,,,,,,,
739,0,0.0,0.38,,,,,,,,,,,,,,,,,,
741,0,0.0,0.38,,,,,,,,,,,,,,,,,,
743,0,0.0,0.38,,-0.06,0.01,1.02,-0,1,-1,0.06,0,2040,0,0.0,0.0,0.0,0.0,0,0,0.0
745,0,0.0,0.4,,,,,,,,,,,,,,,,,,
747,0,0.0,0.38,,,,,,,,,,,,,,,,,,
749,0,0.0,0.38,,,,,,,,,,,,,,,,,,
751,0,0.0,0.38,,,,,,,,,,,,,,,,,,
753,0,0.0,0.38,,-0.24,0.04,0.98,-0,1,-1,0.24,,,,,,,,,,
755,0,0.01,0.38,,,,,,,,,,,,,,,,,,
757,0,0.0,0.38,,,,,,,,,,,,,,,,,,
759,0,0.0,0.38,,,,,,,,,,,,,,,,,,
761,0,0.0,0.38,,,,,,,,,,,,,,,,,,
763,0,0.0,0.39,,-0.1,0.03,0.93,1,1,-0,0.1,0,2100,0,0.0,0.0,0.0,0.0,0,0,0.0
765,0,0.0,0.38,,,,,,,,,,,,,,,,,,
767,0,0.0,0.38,,,,,,,,,,,,,,,,,,
769,0,0.01,0.38,,,,,,,,,,,,,,,,,,
771,0,0.0,0.38,,,,,,,,,,,,,,,,,,
773,0,0.0,0.4,,-0.19,0.04,1.05,-0,1,-1,0.2,,,,,,,,,,
775,0,0.0,0.39,,,,,,,,,,,,,,,,,,
777,0,0.0,0.39,,,,,,,,,,,,,,,,,,
779,0,0.0,0.39,,,,,,,,,,,,,,,,,,
781,0,0.0,0.38,,,,,,,,,,,,,,,,,,
783,0,0.0,0.39,,-0.4,0.1,1.0,0,1,-1,0.41,0,2040,0,0.0,0.0,0.0,0.0,0,0,0.0
785,0,0.0,0.38,,,,,,,,,,,,,,,,,,
787,0,0.0,0.38,,,,,,,,,,,,,,,,,,
789,0,0.0,0.39,,,,,,,,,,,,,,,,,,
791,0,0.0,0.39,,,,,,,,,,,,,,,,,,
793,0,0.0,0.39,,-0.05,0.04,0.98,1,0,-1,0.06,,,,,,,,,,
795,0,0.0,0.39,,,,,,,,,,,,,,,,,,
797,0,0.01,0.39,,,,,,,,,,,,,,,,,,
799,0,0.0,0.39,,,,,,,,,,,,,,,,,,
801,0,0.0,0.4,,,,,,,,,,,,,,,,,,
803,0,0.0,0.4,,-0.2,0.07,0.96,0,1,-0,0.21,0,2100,0,0.0,0.0,0.0,0.0,0,0,0.0
805,0,0.0,0.39,,,,,,,,,,,,,,,,,,
807,0,0.0,0.4,,,,,,,,,,,,,,,,,,
809,0,0.0,0.39,,,,,,,,,,,,,,,,,,
811,0,0.0,0.39,,,,,,,,,,,,,,,,,,
813,0,0.0,0.39,,-0.29,0.14,1.01,0,0,-1,0.32,,,,,,,,,,
815,0,0.0,0.39,,,,,,,,,,,,,,,,,,
817,0,0.01,0.39,,,,,,,,,,,,,,,,,,
819,0,0.0,0.39,,,,,,,,,,,,,,,,,,
821,0,0.0,0.39,,,,,,,,,,,,,,,,,,
823,0,0.0,0.4,,-0.08,0.02,0.85,1,-0,-1,0.08,0,2100,0,0.0,0.0,0.0,0.0,0,0,0.0
825,0,0.0,0.39,,,,,,,,,,,,,,,,,,
827,0,0.0,0.39,,,,,,,,,,,,,,,,,,
829,0,0.0,0.39,,,,,,,,,,,,,,,,,,
831,0,0.01,0.39,,,,,,,,,,,,,,,,,,
833,0,0.0,0.39,,-0.18,0.12,1.01,0,1,-1,0.22,,,,,,,,,,
835,0,0.0,0.39,,,,,,,,,,,,,,,,,,
837,0,0.0,0.38,,,,,,,,,,,,,,,,,,
839,0,0.0,0.39,,,,,,,,,,,,,,,,,,
841,0,0.0,0.39,,,,,,,,,,,,,,,,,,
843,0,0.0,0.38,,-0.36,0.16,1.08,1,0,-1,0.4,0,2040,0,0.0,0.0,0.0,0.0,0,0,0.0
845,0,0.0,0.38,,,,,,,,,,,,,,,,,,
847,0,0.0,0.38,,,,,,,,,,,,,,,,,,
849,0,0.0,0.39,,,,,,,,,,,,,,,,,,
851,0,0.0,0.38,,,,,,,,,,,,,,,,,,
853,0,0.0,0.38,,-0.11,-0.01,0.99,1,1,-1,0.11,,,,,,,,,,
855,0,0.0,0.38,,,,,,,,,,,,,,,,,,
857,0,0.0,0.39,,,,,,,,,,,,,,,,,,
859,0,0.01,0.4,,,,,,,,,,,,,,,,,,
861,0,0.0,0.39,,,,,,,,,,,,,,,,,,
863,0,0.0,0.38,,-0.27,0.09,1.0,0,2,-1,0.28,0,2100,0,0.0,0.0,0.0,0.0,0,0,0.0
865,0,0.0,0.38,,,,,,,,,,,,,,,,,,
867,0,0.0,0.38,,,,,,,,,,,,,,,,,,
869,0,0.0,0.38,,,,,,,,,,,,,,,,,,
871,0,0.0,0.38,,,,,,,,,,,,,,,,,,
873,0,0.0,0.38,,-0.32,0.16,1.02,1,0,-1,0.36,,,,,,,,,,
875,0,0.0,0.38,,,,,,,,,,,,,,,,,,
877,0,0.0,0.38,,,,,,,,,,,,,,,,,,
879,0,0.0,0.38,,,,,,,,,,,,,,,,,,
881,0,0.0,0.38,,,,,,,,,,,,,,,,,,
883,0,0.0,0.39,,-0.06,0.03,0.88,0,-0,-2,0.07,0,2100,0,0.0,0.0,0.0,0.0,0,0,0.0
885,0,0.0,0.38,,,,,,,,,,,,,,,,,,
887,0,0.0,0.4,,,,,,,,,,,,,,,,,,
889,0,0.0,0.38,,,,,,,,,,,,,,,,,,
891,0,0.0,0.38,,,,,,,,,,,,,,,,,,
893,0,0.0,0.38,,-0.2,0.12,0.93,-0,1,-2,0.23,,,,,,,,,,
895,0,0.0,0.38,,,,,,,,,,,,,,,,,,
897,0,0.0,0.38,,,,,,,,,,,,,,,,,,
899,0,0.0,0.38,,,,,,,,,,,,,,,,,,
901,0,0.0,0.38,,,,,,,,,,,,,,,,,,
903,0,0.0,0.38,,-0.23,0.07,1.03,1,0,-2,0.24,0,2040,0,0.0,0.0,0.0,0.0,0,0,0.0
905,0,0.0,0.38,,,,,,,,,,,,,,,,,,
907,0,0.0,0.38,,,,,,,,,,,,,,,,,,
909,0,0.0,0.38,,,,,,,,,,,,,,,,,,
911,0,0.0,0.38,,,,,,,,,,,,,,,,,,
913,0,0.0,0.38,,-0.01,-0.02,0.95,0,-1,-2,0.02,,,,,,,,,,
915,0,0.0,0.39,,,,,,,,,,,,,,,,,,
917,0,0.0,0.38,,,,,,,,,,,,,,,,,,
919,0,0.0,0.38,,,,,,,,,,,,,,,,,,
921,0,0.01,0.38,,,,,,,,,,,,,,,,,,
923,0,0.0,0.38,,-0.23,0.09,0.94,0,-0,-2,0.24,0,2100,0,0.0,0.0,0.0,0.0,0,0,0.0
925,0,0.0,0.38,,,,,,,,,,,,,,,,,,
927,0,0.0,0.38,,,,,,,,,,,,,,,,,,
929,0,0.0,0.38,,,,,,,,,,,,,,,,,,
931,0,0.0,0.38,,,,,,,,,,,,,,,,,,
933,0,0.0,0.38,,-0.24,0.03,0.98,1,-1,-1,0.24,,,,,,,,,,
935,0,0.0,0.38,,,,,,,,,,,,,,,,,,
937,0,0.0,0.38,,,,,,,,,,,,,,,,,,
939,0,0.0,0.38,,,,,,,,,,,,,,,,,,
941,0,0.0,0.38,,,,,,,,,,,,,,,,,,
943,0,0.0,0.39,,-0.03,0.04,1.01,1,-1,-1,0.05,0,2040,0,0.0,0.0,0.0,0.0,0,0,0.0
945,0,0.0,0.38,,,,,,,,,,,,,,,,,,
947,0,0.0,0.38,,,,,,,,,,,,,,,,,,
949,0,0.0,0.38,,,,,,,,,,,,,,,,,,
951,0,0.0,0.38,,,,,,,,,,,,,,,,,,
953,0,0.0,0.38,,-0.35,0.04,0.98,1,-0,-1,0.35,,,,,,,,,,
955,0,0.0,0.38,,,,,,,,,,,,,,,,,,
957,0,0.0,0.38,,,,,,,,,,,,,,,,,,
959,0,0.0,0.38,,,,,,,,,,,,,,,,,,
961,0,0.0,0.38,,,,,,,,,,,,,,,,,,
963,0,0.0,0.38,,-0.1,-0.0,1.01,1,-1,-1,0.1,0,2040,0,0.0,0.0,0.0,0.0,0,0,0.0
965,0,0.0,0.38,,,,,,,,,,,,,,,,,,
967,0,0.0,0.38,,,,,,,,,,,,,,,,,,
969,0,0.0,0.38,,,,,,,,,,,,,,,,,,
971,0,0.0,0.38,,,,,,,,,,,,,,,,,,
973,0,0.0,0.39,,0.01,0.06,0.92,1,0,-1,0.06,,,,,,,,,,
975,0,0.0,0.38,,,,,,,,,,,,,,,,,,
977,0,0.0,0.38,,,,,,,,,,,,,,,,,,
979,0,0.0,0.38,,,,,,,,,,,,,,,,,,
981,0,0.0,0.38,,,,,,,,,,,,,,,,,,
983,0,0.01,0.39,,-0.27,0.14,0.99,1,0,-1,0.3,0,2100,0,0.0,0.0,0.0,0.0,0,0,0.0
985,0,0.0,0.39,,,,,,,,,,,,,,,,,,
987,0,0.0,0.38,,,,,,,,,,,,,,,,,,
989,0,0.0,0.39,,,,,,,,,,,,,,,,,,
991,0,0.0,0.39,,,,,,,,,,,,,,,,,,
993,0,0.0,0.39,,-0.09,-0.01,0.94,1,-0,-1,0.09,,,,,,,,,,
995,0,0.0,0.38,,,,,,,,,,,,,,,,,,
997,0,0.01,0.39,,,,,,,,,,,,,,,,,,
999,0,0.0,0.39,,,,,,,,,,,,,,,,,,
1001,0,0.0,0.4,,,,,,,,,,,,,,,,,,
1003,0,0.0,0.39,,-0.06,0.06,1.01,1,1,-1,0.09,0,2040,0,0.0,0.0,0.0,0.0,0,0,0.0
1005,0,0.0,0.39,,,,,,,,,,,,,,,,,,
1007,0,0.0,0.39,,,,,,,,,,,,,,,,,,
1009,0,0.0,0.39,,,,,,,,,,,,,,,,,,
1011,0,0.0,0.39,,,,,,,,,,,,,,,,,,
1013,0,0.0,0.39,,-0.4,0.14,1.1,1,1,-1,0.42,,,,,,,,,,
1015,0,0.0,0.39,,,,,,,,,,,,,,,,,,
1017,0,0.01,0.39,,,,,,,,,,,,,,,,,,
1019,0,0.0,0.39,,,,,,,,,,,,,,,,,,
1021,0,0.0,0.4,,,,,,,,,,,,,,,,,,
1023,0,0.0,0.39,,-0.02,-0.02,0.96,1,-0,-1,0.03,0,2040,0,0.0,0.0,0.0,0.0,0,0,0.0
1025,0,0.0,0.4,,,,,,,,,,,,,,,,,,
1027,0,0.0,0.4,,,,,,,,,,,,,,,,,,
1029,0,0.0,0.41,,,,,,,,,,,,,,,,,,
1031,0,0.0,0.4,,,,,,,,,,,,,,,,,,
1033,0,0.0,0.4,,-0.15,0.07,0.9,1,1,-1,0.17,,,,,,,,,,
1035,0,0.0,0.4,,,,,,,,,,,,,,,,,,
1037,0,0.0,0.4,,,,,,,,,,,,,,,,,,
1039,0,0.0,0.4,,,,,,,,,,,,,,,,,,
1041,0,0.0,0.4,,,,,,,,,,,,,,,,,,
1043,0,0.0,0.4,13.42,-0.29,0.13,0.99,1,-0,-1,0.32,0,2100,0,0.0,0.0,0.0,0.0,0,0,0.0
1045,0,0.01,0.4,,,,,,,,,,,,,,,,,,
1047,0,0.0,0.4,,,,,,,,,,,,,,,,,,
1049,0,0.0,0.4,,,,,,,,,,,,,,,,,,
1051,0,0.0,0.4,,,,,,,,,,,,,,,,,,
1053,0,0.0,0.4,,0.05,-0.02,0.85,1,-1,-1,0.06,,,,,,,,,,
1055,0,0.0,0.4,,,,,,,,,,,,,,,,,,
1057,0,0.0,0.41,,,,,,,,,,,,,,,,,,
1059,0,0.01,0.4,,,,,,,,,,,,,,,,,,
1061,0,0.0,0.4,,,,,,,,,,,,,,,,,,
1063,0,0.0,0.4,,-0.08,0.06,0.93,0,0,-1,0.1,0,2040,0,0.0,0.0,0.0,0.0,0,0,0.0
1065,0,0.0,0.4,,,,,,,,,,,,,,,,,,
1067,0,0.0,0.4,,,,,,,,,,,,,,,,,,
1069,0,0.0,0.41,,,,,,,,,,,,,,,,,,
1071,0,0.0,0.4,,,,,,,,,,,,,,,,,,
1073,0,0.0,0.4,,-0.22,0.14,1.11,1,-0,-1,0.26,,,,,,,,,,
1075,0,0.0,0.41,,,,,,,,,,,,,,,,,,
1077,0,0.0,0.4,,,,,,,,,,,,,,,,,,
1079,0,0.0,0.4,,,,,,,,,,,,,,,,,,
1081,0,0.0,0.4,,,,,,,,,,,,,,,,,,
1083,0,0.0,0.4,,-0.03,0.0,1.05,1,-1,-1,0.03,20,2040,0,0.0,0.0,0.0,0.0,0,0,0.0
1085,0,0.0,0.41,,,,,,,,,,,,,,,,,,
1087,0,0.0,0.4,,,,,,,,,,,,,,,,,,
1089,0,0.0,0.4,,,,,,,,,,,,,,,,,,
1091,0,0.0,0.4,,,,,,,,,,,,,,,,,,
1093,0,0.01,0.39,,-0.28,0.07,1.03,0,0,-1,0.28,,,,,,,,,,
1095,0,0.0,0.4,,,,,,,,,,,,,,,,,,
1097,0,0.0,0.4,,,,,,,,,,,,,,,,,,
1099,0,0.0,0.4,,,,,,,,,,,,,,,,,,
1101,0,0.0,0.4,,,,,,,,,,,,,,,,,,
1103,0,0.0,0.39,,-0.27,0.08,1.05,1,-0,-0,0.28,20,2100,0,0.0,0.0,0.0,0.0,0,0,0.0
1105,0,0.0,0.39,,,,,,,,,,,,,,,,,,
1107,0,0.0,0.39,,,,,,,,,,,,,,,,,,
1109,0,0.0,0.4,,,,,,,,,,,,,,,,,,
1111,0,0.0,0.4,,,,,,,,,,,,,,,,,,
1113,0,0.0,0.4,,-0.0,0.05,0.95,1,-1,-1,0.05,,,,,,,,,,
1115,0,0.0,0.4,,,,,,,,,,,,,,,,,,
1117,0,0.0,0.4,,,,,,,,,,,,,,,,,,
1119,0,0.0,0.4,,,,,,,,,,,,,,,,,,
1121,0,0.01,0.4,,,,,,,,,,,,,,,,,,
1123,0,0.0,0.4,,-0.24,0.11,0.86,0,-1,-1,0.27,20,2100,0,0.0,0.0,0.0,0.0,0,0,0.0
1125,0,0.0,0.4,,,,,,,,,,,,,,,,,,
1127,0,0.0,0.4,,,,,,,,,,,,,,,,,,
1129,0,0.0,0.4,,,,,,,,,,,,,,,,,,
1131,0,0.0,0.4,,,,,,,,,,,,,,,,,,
1133,0,0.0,0.4,,-0.02,0.07,0.96,1,-2,-1,0.07,,,,,,,,,,
1135,0,0.0,0.39,,,,,,,,,,,,,,,,,,
1137,0,0.0,0.39,,,,,,,,,,,,,,,,,,
1139,0,0.0,0.39,,,,,,,,,,,,,,,,,,
1141,0,0.01,0.39,,,,,,,,,,,,,,,,,,
1143,0,0.0,0.4,,0.08,0.03,0.92,0,-1,-1,0.09,20,2100,0,0.0,0.0,0.0,0.0,0,0,0.0
1145,0,0.0,0.4,,,,,,,,,,,,,,,,,,
1147,0,0.0,0.4,,,,,,,,,,,,,,,,,,
1149,0,0.0,0.4,,,,,,,,,,,,,,,,,,
1151,0,0.0,0.4,,,,,,,,,,,,,,,,,,
1153,0,0.0,0.4,,-0.27,0.15,1.07,0,-0,-1,0.31,,,,,,,,,,
1155,0,0.01,0.4,,,,,,,,,,,,,,,,,,
1157,0,0.0,0.4,,,,,,,,,,,,,,,,,,
1159,0,0.0,0.4,,,,,,,,,,,,,,,,,,
1161,0,0.0,0.4,,,,,,,,,,,,,,,,,,
1163,0,0.0,0.41,,-0.19,0.02,1.08,1,0,-1,0.19,20,2100,0,0.0,0.0,0.0,0.0,0,0,0.0
1165,0,0.0,0.4,,,,,,,,,,,,,,,,,,
1167,0,0.0,0.41,,,,,,,,,,,,,,,,,,
1169,0,0.0,0.4,,,,,,,,,,,,,,,,,,
1171,0,0.0,0.42,,,,,,,,,,,,,,,,,,
1173,0,0.0,0.41,,-0.2,0.08,1.18,1,2,-0,0.22,,,,,,,,,,
1175,0,0.0,0.41,,,,,,,,,,,,,,,,,,
1177,0,0.0,0.41,,,,,,,,,,,,,,,,,,
1179,0,0.0,0.41,,,,,,,,,,,,,,,,,,
1181,0,0.0,0.41,,,,,,,,,,,,,,,,,,
1183,0,0.0,0.41,,-0.48,0.14,1.16,1,2,-1,0.5,20,2040,0,0.0,0.0,0.0,0.0,0,0,0.0
1185,0,0.0,0.41,,,,,,,,,,,,,,,,,,
1187,0,0.0,0.41,,,,,,,,,,,,,,,,,,
1189,0,0.0,0.41,,,,,,,,,,,,,,,,,,
1191,0,0.0,0.41,,,,,,,,,,,,,,,,,,
1193,0,0.0,0.41,,-0.08,0.05,0.99,2,2,-1,0.1,,,,,,,,,,
1195,0,0.0,0.41,,,,,,,,,,,,,,,,,,
1197,0,0.01,0.42,,,,,,,,,,,,,,,,,,
1199,0,0.0,0.43,,,,,,,,,,,,,,,,,,
1201,0,0.0,0.42,,,,,,,,,,,,,,,,,,
1203,0,0.01,0.42,,-0.19,0.09,0.81,1,4,-2,0.21,20,2100,0,0.0,0.0,0.0,0.0,0,0,0.0
1205,0,0.0,0.42,,,,,,,,,,,,,,,,,,
1207,0,0.0,0.42,,,,,,,,,,,,,,,,,,
1209,0,0.0,0.42,,,,,,,,,,,,,,,,,,
1211,0,0.0,0.42,,,,,,,,,,,,,,,,,,
1213,0,0.0,0.42,,-0.31,0.19,0.93,1,2,-3,0.36,,,,,,,,,,
1215,0,0.0,0.42,,,,,,,,,,,,,,,,,,
1217,0,0.01,0.42,,,,,,,,,,,,,,,,,,
1219,0,0.0,0.42,,,,,,,,,,,,,,,,,,
1221,0,0.0,0.42,,,,,,,,,,,,,,,,,,
1223,0,0.0,0.42,,0.07,-0.05,0.71,1,2,-3,0.08,20,2100,0,0.0,0.0,0.0,0.0,0,0,0.0
1225,0,0.0,0.42,,,,,,,,,,,,,,,,,,
1227,0,0.0,0.42,,,,,,,,,,,,,,,,,,
1229,0,0.0,0.41,,,,,,,,,,,,,,,,,,
1231,0,0.0,0.41,,,,,,,,,,,,,,,,,,
1233,0,0.0,0.41,,-0.14,0.11,0.9,0,3,-3,0.18,,,,,,,,,,
1235,0,0.0,0.41,,,,,,,,,,,,,,,,,,
1237,0,0.0,0.41,,,,,,,,,,,,,,,,,,
1239,0,0.0,0.41,,,,,,,,,,,,,,,,,,
1241,0,0.0,0.41,,,,,,,,,,,,,,,,,,
1243,0,0.0,0.41,,-0.36,0.17,1.13,1,2,-3,0.4,12,2040,0,0.0,0.0,0.0,0.0,0,0,0.0
1245,0,0.0,0.41,,,,,,,,,,,,,,,,,,
1247,0,0.0,0.41,,,,,,,,,,,,,,,,,,
1249,0,0.0,0.41,,,,,,,,,,,,,,,,,,
1251,0,0.0,0.41,,,,,,,,,,,,,,,,,,
1253,0,0.0,0.41,,-0.18,-0.06,1.06,1,2,-2,0.19,,,,,,,,,,
1255,0,0.0,0.41,,,,,,,,,,,,,,,,,,
1257,0,0.0,0.41,,,,,,,,,,,,,,,,,,
1259,0,0.01,0.41,,,,,,,,,,,,,,,,,,
1261,0,0.0,0.41,,,,,,,,,,,,,,,,,,
1263,0,0.0,0.41,,-0.46,0.02,1.07,0,3,-2,0.46,12,2100,0,0.0,0.0,0.0,0.0,0,0,0.0
1265,0,0.0,0.41,,,,,,,,,,,,,,,,,,
1267,0,0.0,0.41,,,,,,,,,,,,,,,,,,
1269,0,0.0,0.41,,,,,,,,,,,,,,,,,,
1271,0,0.0,0.4,,,,,,,,,,,,,,,,,,
1273,0,0.0,0.41,,-0.47,0.11,1.04,2,2,-2,0.48,,,,,,,,,,
1275,0,0.0,0.41,,,,,,,,,,,,,,,,,,
1277,0,0.0,0.41,,,,,,,,,,,,,,,,,,
1279,0,0.0,0.41,,,,,,,,,,,,,,,,,,
1281,0,0.0,0.41,,,,,,,,,,,,,,,,,,
1283,0,0.0,0.41,,-0.1,0.04,0.83,1,1,-2,0.11,12,2100,0,0.0,0.0,0.0,0.0,0,0,0.0
1285,0,0.0,0.42,,,,,,,,,,,,,,,,,,
1287,0,0.0,0.41,,,,,,,,,,,,,,,,,,
1289,0,0.0,0.42,,,,,,,,,,,,,,,,,,
1291,0,0.0,0.42,,,,,,,,,,,,,,,,,,
1293,0,0.0,0.42,,-0.29,0.12,0.76,1,1,-3,0.31,,,,,,,,,,
1295,0,0.0,0.42,,,,,,,,,,,,,,,,,,
1297,0,0.0,0.42,,,,,,,,,,,,,,,,,,
1299,0,0.0,0.42,,,,,,,,,,,,,,,,,,
1301,0,0.0,0.42,,,,,,,,,,,,,,,,,,
1303,0,0.0,0.42,,-0.12,0.04,0.87,2,-1,-3,0.13,12,2040,0,0.0,0.0,0.0,0.0,0,0,0.0
1305,0,0.0,0.42,,,,,,,,,,,,,,,,,,
1307,0,0.0,0.42,,,,,,,,,,,,,,,,,,
1321,0,0.0,0.42,,,,,,,,,,,,,,,,,,
1323,0,0.0,0.42,,-0.32,0.06,1.03,1,-0,-2,0.33,12,2100,0,0.0,0.0,0.0,0.0,0,0,0.0
1325,0,0.0,0.42,,,,,,,,,,,,,,,,,,
1327,0,0.0,0.42,,,,,,,,,,,,,,,,,,
1339,0,0.0,0.41,,,,,,,,,,,,,,,,,,
1341,0,0.0,0.41,,,,,,,,,,,,,,,,,,
1343,0,0.0,0.42,,-0.18,-0.0,1.2,1,0,-1,0.18,18,2040,0,0.0,0.0,0.0,0.0,0,0,0.0
1345,0,0.0,0.42,,,,,,,,,,,,,,,,,,
1347,0,0.0,0.41,,,,,,,,,,,,,,,,,,
1349,0,0.0,0.41,,,,,,,,,,,,,,,,,,
1351,0,0.0,0.41,,,,,,,,,,,,,,,,,,
1353,0,0.0,0.41,,-0.56,0.05,1.2,2,0,-0,0.57,,,,,,,,,,
1355,0,0.0,0.41,,,,,,,,,,,,,,,,,,
1357,0,0.0,0.41,,,,,,,,,,,,,,,,,,
1359,0,0.0,0.41,,,,,,,,,,,,,,,,,,
1361,0,0.0,0.41,,,,,,,,,,,,,,,,,,
1363,0,0.0,0.41,,-0.13,0.01,1.05,3,-1,0,0.13,18,2040,0,0.0,0.0,0.0,0.0,0,0,0.0
1365,0,0.0,0.41,,,,,,,,,,,,,,,,,,
1367,0,0.0,0.41,,,,,,,,,,,,,,,,,,
1369,0,0.0,0.41,,,,,,,,,,,,,,,,,,
1371,0,0.0,0.41,,,,,,,,,,,,,,,,,,
1373,0,0.0,0.42,,-0.12,0.02,0.82,2,1,-0,0.12,,,,,,,,,,
1375,0,0.0,0.42,,,,,,,,,,,,,,,,,,
1377,0,0.0,0.42,,,,,,,,,,,,,,,,,,
1379,0,0.0,0.42,,,,,,,,,,,,,,,,,,
1381,0,0.0,0.41,,,,,,,,,,,,,,,,,,
1383,0,0.01,0.42,,-0.31,0.15,0.87,2,-0,-1,0.35,18,2100,0,0.0,0.0,0.0,0.0,0,0,0.0
1385,0,0.0,0.42,,,,,,,,,,,,,,,,,,
1387,0,0.0,0.43,,,,,,,,,,,,,,,,,,
1389,0,0.0,0.42,,,,,,,,,,,,,,,,,,
1391,0,0.0,0.43,,,,,,,,,,,,,,,,,,
1393,0,0.0,0.42,,0.04,0.05,0.69,2,-2,-2,0.06,,,,,,,,,,
1395,0,0.0,0.42,,,,,,,,,,,,,,,,,,
1397,0,0.01,0.43,,,,,,,,,,,,,,,,,,
1399,0,0.0,0.44,,,,,,,,,,,,,,,,,,
1401,0,0.0,0.43,,,,,,,,,,,,,,,,,,
1403,0,0.0,0.43,,-0.02,0.02,0.84,1,-1,-2,0.03,18,2040,0,0.0,0.0,0.0,0.0,0,0,0.0
1405,0,0.0,0.43,,,,,,,,,,,,,,,,,,
1407,0,0.0,0.43,,,,,,,,,,,,,,,,,,
1409,0,0.0,0.42,,,,,,,,,,,,,,,,,,
1411,0,0.0,0.42,,,,,,,,,,,,,,,,,,
1413,0,0.0,0.42,,-0.37,0.06,1.16,1,-1,-1,0.37,,,,,,,,,,
1415,0,0.0,0.42,,,,,,,,,,,,,,,,,,
1417,0,0.0,0.42,,,,,,,,,,,,,,,,,,
1419,0,0.0,0.42,,,,,,,,,,,,,,,,,,
1421,0,0.0,0.42,,,,,,,,,,,,,,,,,,
1423,0,0.0,0.42,,-0.13,-0.03,1.14,2,-1,-0,0.13,25,2040,0,0.0,0.0,0.0,0.0,0,0,0.0
1425,0,0.0,0.42,,,,,,,,,,,,,,,,,,
1427,0,0.0,0.43,,,,,,,,,,,,,,,,,,
1429,0,0.0,0.42,,,,,,,,,,,,,,,,,,
1431,0,0.0,0.42,,,,,,,,,,,,,,,,,,
1433,0,0.0,0.42,,-0.35,-0.0,1.17,2,1,0,0.35,,,,,,,,,,
1435,0,0.0,0.42,,,,,,,,,,,,,,,,,,
1437,0,0.0,0.42,,,,,,,,,,,,,,,,,,
1439,0,0.0,0.42,,,,,,,,,,,,,,,,,,
1441,0,0.0,0.41,,,,,,,,,,,,,,,,,,
1443,0,0.0,0.42,,-0.52,0.11,1.21,3,2,1,0.53,25,2100,0,0.0,0.0,0.0,0.0,0,0,0.0
1445,0,0.0,0.41,,,,,,,,,,,,,,,,,,
1447,0,0.0,0.41,,,,,,,,,,,,,,,,,,
1449,0,0.0,0.42,,,,,,,,,,,,,,,,,,
1451,0,0.0,0.42,,,,,,,,,,,,,,,,,,
1453,0,0.0,0.43,,-0.18,-0.02,1.01,3,2,0,0.18,,,,,,,,,,
1455,0,0.0,0.43,,,,,,,,,,,,,,,,,,
1457,0,0.0,0.43,,,,,,,,,,,,,,,,,,
1459,0,0.0,0.43,,,,,,,,,,,,,,,,,,
1461,0,0.0,0.43,,,,,,,,,,,,,,,,,,
1463,0,0.0,0.43,,-0.3,0.05,0.78,2,3,0,0.3,25,2040,0,0.0,0.0,0.0,0.0,0,0,0.0
1465,0,0.0,0.43,,,,,,,,,,,,,,,,,,
1467,0,0.0,0.43,,,,,,,,,,,,,,,,,,
1469,0,0.0,0.43,,,,,,,,,,,,,,,,,,
1471,0,0.0,0.43,,,,,,,,,,,,,,,,,,
1473,0,0.0,0.43,,-0.28,0.17,0.84,3,2,-0,0.33,,,,,,,,,,
1475,0,0.0,0.43,,,,,,,,,,,,,,,,,,
1477,0,0.0,0.43,,,,,,,,,,,,,,,,,,
1479,0,0.0,0.43,,,,,,,,,,,,,,,,,,
1481,0,0.0,0.43,,,,,,,,,,,,,,,,,,
1483,0,0.0,0.44,,-0.01,0.1,0.68,2,1,-1,0.1,25,2040,0,0.0,0.0,0.0,0.0,0,0,0.0
1485,0,0.0,0.45,,,,,,,,,,,,,,,,,,
1487,0,0.0,0.44,,,,,,,,,,,,,,,,,,
1489,0,0.0,0.44,,,,,,,,,,,,,,,,,,
1491,0,0.0,0.43,,,,,,,,,,,,,,,,,,
1493,0,0.01,0.43,,-0.24,0.17,0.7,1,0,-2,0.29,,,,,,,,,,
1495,0,0.0,0.43,,,,,,,,,,,,,,,,,,
1497,0,0.0,0.43,,,,,,,,,,,,,,,,,,
1499,0,0.0,0.43,,,,,,,,,,,,,,,,,,
1501,0,0.0,0.43,,,,,,,,,,,,,,,,,,
1503,0,0.0,0.42,,-0.31,0.11,0.9,2,-2,-1,0.33,38,2040,0,0.0,0.0,0.0,0.0,0,0,0.0
1505,0,0.0,0.43,,,,,,,,,,,,,,,,,,
1507,0,0.01,0.42,,,,,,,,,,,,,,,,,,
1509,0,0.0,0.42,,,,,,,,,,,,,,,,,,
1511,0,0.0,0.43,,,,,,,,,,,,,,,,,,
1513,0,0.0,0.42,,-0.16,-0.02,1.04,1,-2,-0,0.16,,,,,,,,,,
1515,0,0.0,0.44,,,,,,,,,,,,,,,,,,
1517,0,0.0,0.42,,,,,,,,,,,,,,,,,,
1519,0,0.0,0.42,,,,,,,,,,,,,,,,,,
1521,0,0.0,0.42,,,,,,,,,,,,,,,,,,
1523,0,0.0,0.42,,-0.47,0.09,1.04,1,-1,-0,0.48,38,1980,0,0.0,0.0,0.0,0.0,0,0,0.0
1525,0,0.0,0.43,,,,,,,,,,,,,,,,,,
1527,0,0.0,0.43,,,,,,,,,,,,,,,,,,
1529,0,0.0,0.43,,,,,,,,,,,,,,,,,,
1531,0,0.0,0.43,,,,,,,,,,,,,,,,,,
1533,0,0.0,0.43,,-0.23,0.07,1.19,2,-3,-0,0.24,,,,,,,,,,
1535,0,0.0,0.43,,,,,,,,,,,,,,,,,,
1537,0,0.0,0.44,,,,,,,,,,,,,,,,,,
1539,0,0.0,0.44,,,,,,,,,,,,,,,,,,
1541,0,0.0,0.44,,,,,,,,,,,,,,,,,,
1543,0,0.0,0.45,,0.02,0.0,0.95,2,-3,-1,0.02,38,2100,0,0.0,0.0,0.0,0.0,0,0,0.0
1545,0,0.0,0.44,,,,,,,,,,,,,,,,,,
1547,0,0.0,0.44,,,,,,,,,,,,,,,,,,
1549,0,0.0,0.44,,,,,,,,,,,,,,,,,,
1551,0,0.0,0.44,,,,,,,,,,,,,,,,,,
1553,0,0.0,0.44,,-0.16,0.1,0.93,2,-3,-2,0.19,,,,,,,,,,
1555,0,0.01,0.44,,,,,,,,,,,,,,,,,,
1557,0,0.0,0.44,,,,,,,,,,,,,,,,,,
1559,0,0.0,0.44,,,,,,,,,,,,,,,,,,
1561,0,0.0,0.44,,,,,,,,,,,,,,,,,,
1563,0,0.0,0.44,,0.06,-0.05,0.91,3,-4,-2,0.08,38,2100,0,0.0,0.0,0.0,0.0,0,0,0.0
1565,0,0.0,0.44,,,,,,,,,,,,,,,,,,
1567,0,0.0,0.44,,,,,,,,,,,,,,,,,,
1569,0,0.01,0.44,,,,,,,,,,,,,,,,,,
1571,0,0.0,0.45,,,,,,,,,,,,,,,,,,
1573,0,0.0,0.45,,0.19,-0.04,0.97,2,-4,-2,0.19,,,,,,,,,,
1575,0,0.0,0.44,,,,,,,,,,,,,,,,,,
1577,0,0.0,0.44,,,,,,,,,,,,,,,,,,
1579,0,0.0,0.43,,,,,,,,,,,,,,,,,,
1581,0,0.0,0.43,,,,,,,,,,,,,,,,,,
1583,0,0.0,0.43,,-0.22,0.02,1.07,3,-3,-1,0.22,32,2040,0,0.0,0.0,0.0,0.0,0,0,0.0
1585,0,0.0,0.43,,,,,,,,,,,,,,,,,,
1587,0,0.0,0.44,,,,,,,,,,,,,,,,,,
1589,0,0.0,0.43,,,,,,,,,,,,,,,,,,
1591,0,0.0,0.44,,,,,,,,,,,,,,,,,,
1593,0,0.0,0.44,,0.03,-0.06,1.16,4,-3,0,0.06,,,,,,,,,,
1595,0,0.0,0.44,,,,,,,,,,,,,,,,,,
1597,0,0.0,0.44,,,,,,,,,,,,,,,,,,
1599,0,0.0,0.45,,,,,,,,,,,,,,,,,,
1601,0,0.0,0.45,,,,,,,,,,,,,,,,,,
1603,0,0.0,0.44,,-0.07,-0.05,1.15,3,-0,1,0.08,32,2100,0,0.0,0.0,0.0,0.0,0,0,0.0
1605,0,0.0,0.44,,,,,,,,,,,,,,,,,,
1607,0,0.0,0.44,,,,,,,,,,,,,,,,,,
1609,0,0.0,0.44,,,,,,,,,,,,,,,,,,
1611,0,0.0,0.44,,,,,,,,,,,,,,,,,,
1613,0,0.0,0.45,,-0.4,0.11,1.21,4,0,1,0.41,,,,,,,,,,
1615,0,0.0,0.44,,,,,,,,,,,,,,,,,,
1617,0,0.0,0.44,,,,,,,,,,,,,,,,,,
1619,0,0.0,0.45,,,,,,,,,,,,,,,,,,
1621,0,0.0,0.45,,,,,,,,,,,,,,,,,,
1623,0,0.0,0.45,,-0.08,0.03,0.97,4,-0,1,0.08,32,2100,0,0.0,0.0,0.0,0.0,0,0,0.0
1625,0,0.0,0.45,,,,,,,,,,,,,,,,,,
1627,0,0.0,0.45,,,,,,,,,,,,,,,,,,
1629,0,0.0,0.47,,,,,,,,,,,,,,,,,,
1631,0,0.0,0.45,,,,,,,,,,,,,,,,,,
1633,0,0.0,0.46,,-0.07,0.04,0.85,3,2,-0,0.08,,,,,,,,,,
1635,0,0.0,0.46,,,,,,,,,,,,,,,,,,
1637,0,0.0,0.46,,,,,,,,,,,,,,,,,,
1639,0,0.0,0.46,,,,,,,,,,,,,,,,,,
1641,0,0.0,0.46,,,,,,,,,,,,,,,,,,
1643,0,0.0,0.46,,-0.25,0.24,0.88,3,1,-1,0.35,32,2040,0,0.0,0.0,0.0,0.0,0,0,0.0
1645,0,0.0,0.46,,,,,,,,,,,,,,,,,,
1647,0,0.0,0.45,,,,,,,,,,,,,,,,,,
1649,0,0.0,0.46,,,,,,,,,,,,,,,,,,
1651,0,0.0,0.45,,,,,,,,,,,,,,,,,,
1653,0,0.0,0.45,,0.11,0.1,0.68,2,0,-1,0.15,,,,,,,,,,
1655,0,0.0,0.45,,,,,,,,,,,,,,,,,,
1657,0,0.0,0.46,,,,,,,,,,,,,,,,,,
1659,0,0.01,0.45,,,,,,,,,,,,,,,,,,
1661,0,0.0,0.45,,,,,,,,,,,,,,,,,,
1663,0,0.0,0.45,,-0.03,0.13,0.68,1,1,-0,0.13,35,2100,0,0.0,0.0,0.0,0.0,0,0,0.0
1665,0,0.0,0.45,,,,,,,,,,,,,,,,,,
1667,0,0.0,0.45,,,,,,,,,,,,,,,,,,
1669,0,0.0,0.45,,,,,,,,,,,,,,,,,,
1671,0,0.0,0.45,,,,,,,,,,,,,,,,,,
1673,0,0.0,0.45,,-0.24,0.21,0.94,1,-0,0,0.32,,,,,,,,,,
1675,0,0.0,0.46,,,,,,,,,,,,,,,,,,
1677,0,0.0,0.45,,,,,,,,,,,,,,,,,,
1679,0,0.01,0.46,,,,,,,,,,,,,,,,,,
1681,0,0.0,0.46,,,,,,,,,,,,,,,,,,
1683,0,0.0,0.46,,-0.06,0.05,1.0,0,-1,1,0.08,35,2100,0,0.0,0.0,0.0,0.0,0,0,0.0
1685,0,0.0,0.46,,,,,,,,,,,,,,,,,,
1687,0,0.0,0.46,,,,,,,,,,,,,,,,,,
1689,0,0.0,0.46,,,,,,,,,,,,,,,,,,
1691,0,0.0,0.46,,,,,,,,,,,,,,,,,,
1693,0,0.0,0.46,,-0.27,0.12,1.05,-0,1,1,0.29,,,,,,,,,,
1695,0,0.0,0.46,,,,,,,,,,,,,,,,,,
1697,0,0.0,0.46,,,,,,,,,,,,,,,,,,
1699,0,0.0,0.46,,,,,,,,,,,,,,,,,,
1701,0,0.0,0.46,,,,,,,,,,,,,,,,,,
1703,0,0.0,0.46,,-0.2,0.15,1.13,1,1,0,0.26,35,2040,0,0.0,0.0,0.0,0.0,0,0,0.0
1705,0,0.0,0.46,,,,,,,,,,,,,,,,,,
1707,0,0.0,0.46,,,,,,,,,,,,,,,,,,
1709,0,0.0,0.46,,,,,,,,,,,,,,,,,,
1711,0,0.0,0.46,,,,,,,,,,,,,,,,,,
1713,0,0.0,0.47,,0.06,0.01,0.95,0,0,-1,0.06,,,,,,,,,,
1715,0,0.0,0.48,,,,,,,,,,,,,,,,,,
1717,0,0.0,0.47,,,,,,,,,,,,,,,,,,
1719,0,0.0,0.47,,,,,,,,,,,,,,,,,,
1721,0,0.0,0.46,,,,,,,,,,,,,,,,,,
1723,0,0.0,0.46,,-0.12,0.05,0.84,0,1,-1,0.13,32,2100,0,0.0,0.0,0.0,0.0,0,0,0.0
1725,0,0.0,0.46,,,,,,,,,,,,,,,,,,
1727,0,0.0,0.46,,,,,,,,,,,,,,,,,,
1729,0,0.0,0.46,,,,,,,,,,,,,,,,,,
1731,0,0.0,0.46,,,,,,,,,,,,,,,,,,
1733,0,0.0,0.46,,0.01,-0.01,0.87,1,-1,-1,0.02,,,,,,,,,,
1735,0,0.01,0.46,,,,,,,,,,,,,,,,,,
1737,0,0.0,0.46,,,,,,,,,,,,,,,,,,
1739,0,0.0,0.46,,,,,,,,,,,,,,,,,,
1741,0,0.0,0.46,,,,,,,,,,,,,,,,,,
1743,0,0.0,0.47,,0.25,-0.07,0.87,1,-2,-1,0.26,32,2040,0,0.0,0.0,0.0,0.0,0,0,0.0
1745,0,0.0,0.47,,,,,,,,,,,,,,,,,,
1747,0,0.0,0.46,,,,,,,,,,,,,,,,,,
1749,0,0.0,0.46,,,,,,,,,,,,,,,,,,
1751,0,0.0,0.46,,,,,,,,,,,,,,,,,,
1753,0,0.0,0.46,,-0.14,0.02,1.0,1,-1,-0,0.15,,,,,,,,,,
1755,0,0.01,0.46,,,,,,,,,,,,,,,,,,
1757,0,0.0,0.47,,,,,,,,,,,,,,,,,,
1759,0,0.0,0.47,,,,,,,,,,,,,,,,,,
1761,0,0.0,0.47,,,,,,,,,,,,,,,,,,
1763,0,0.0,0.47,,0.0,-0.01,1.2,2,-2,0,0.01,32,2040,0,0.0,0.0,0.0,0.0,0,0,0.0
1765,0,0.0,0.47,,,,,,,,,,,,,,,,,,
1767,0,0.0,0.47,,,,,,,,,,,,,,,,,,
1769,0,0.01,0.47,,,,,,,,,,,,,,,,,,
1771,0,0.0,0.48,,,,,,,,,,,,,,,,,,
1773,0,0.0,0.47,,0.03,-0.12,1.21,2,-0,1,0.12,,,,,,,,,,
1775,0,0.0,0.46,,,,,,,,,,,,,,,,,,
1777,0,0.0,0.46,,,,,,,,,,,,,,,,,,
1779,0,0.0,0.46,,,,,,,,,,,,,,,,,,
1781,0,0.0,0.46,,,,,,,,,,,,,,,,,,
1783,0,0.01,0.46,,-0.27,0.09,1.24,3,-0,2,0.28,32,2100,0,0.0,0.0,0.0,0.0,0,0,0.0
1785,0,0.0,0.46,,,,,,,,,,,,,,,,,,
1787,0,0.0,0.46,,,,,,,,,,,,,,,,,,
1789,0,0.0,0.46,,,,,,,,,,,,,,,,,,
1791,0,0.0,0.46,,,,,,,,,,,,,,,,,,
1793,0,0.0,0.46,,-0.03,0.01,1.02,4,-1,2,0.03,,,,,,,,,,
1795,0,0.0,0.46,,,,,,,,,,,,,,,,,,
1797,0,0.0,0.46,,,,,,,,,,,,,,,,,,
1799,0,0.0,0.46,,,,,,,,,,,,,,,,,,
1801,0,0.0,0.47,,,,,,,,,,,,,,,,,,
1803,0,0.0,0.46,,0.05,0.02,1.02,3,1,2,0.05,32,2040,0,0.0,0.0,0.0,0.0,0,0,0.0
1805,0,0.0,0.46,,,,,,,,,,,,,,,,,,
1807,0,0.0,0.46,,,,,,,,,,,,,,,,,,
1809,0,0.0,0.46,,,,,,,,,,,,,,,,,,
1811,0,0.0,0.46,,,,,,,,,,,,,,,,,,
1813,0,0.0,0.46,,-0.18,0.17,0.95,3,-0,1,0.24,,,,,,,,,,
1815,0,0.0,0.46,,,,,,,,,,,,,,,,,,
1817,0,0.0,0.46,,,,,,,,,,,,,,,,,,
1819,0,0.0,0.46,,,,,,,,,,,,,,,,,,
1821,0,0.0,0.47,,,,,,,,,,,,,,,,,,
1823,0,0.0,0.47,,0.21,0.09,0.81,3,-1,1,0.22,32,2040,0,0.0,0.0,0.0,0.0,0,0,0.0
1825,0,0.0,0.47,,,,,,,,,,,,,,,,,,
1827,0,0.0,0.47,,,,,,,,,,,,,,,,,,
1829,0,0.0,0.48,,,,,,,,,,,,,,,,,,
1831,0,0.01,0.47,,,,,,,,,,,,,,,,,,
1833,0,0.0,0.47,,0.13,0.11,0.8,2,-1,0,0.17,,,,,,,,,,
1835,0,0.0,0.47,,,,,,,,,,,,,,,,,,
1837,0,0.0,0.47,,,,,,,,,,,,,,,,,,
1839,0,0.0,0.47,,,,,,,,,,,,,,,,,,
1841,0,0.0,0.47,,,,,,,,,,,,,,,,,,
1843,0,0.0,0.47,,-0.09,0.24,1.04,2,-2,-0,0.26,32,2100,0,0.0,0.0,0.0,0.0,0,0,0.0
1845,0,0.01,0.47,,,,,,,,,,,,,,,,,,
1847,0,0.0,0.47,,,,,,,,,,,,,,,,,,
1849,0,0.0,0.47,,,,,,,,,,,,,,,,,,
1851,0,0.0,0.47,,,,,,,,,,,,,,,,,,
1853,0,0.0,0.46,,0.14,0.1,1.02,1,-3,1,0.17,,,,,,,,,,
1855,0,0.0,0.47,,,,,,,,,,,,,,,,,,
1857,0,0.0,0.48,,,,,,,,,,,,,,,,,,
1859,0,0.0,0.46,,,,,,,,,,,,,,,,,,
1861,0,0.0,0.46,,,,,,,,,,,,,,,,,,
1863,0,0.0,0.47,,-0.02,0.13,1.12,1,-1,1,0.14,30,2040,0,0.0,0.0,0.0,0.0,0,0,0.0
1865,0,0.0,0.46,,,,,,,,,,,,,,,,,,
1867,0,0.0,0.46,,,,,,,,,,,,,,,,,,
1869,0,0.0,0.46,,,,,,,,,,,,,,,,,,
1871,0,0.0,0.47,,,,,,,,,,,,,,,,,,
1873,0,0.0,0.47,,-0.19,0.14,1.26,1,0,1,0.23,,,,,,,,,,
1875,0,0.0,0.47,,,,,,,,,,,,,,,,,,
1877,0,0.0,0.47,,,,,,,,,,,,,,,,,,
1879,0,0.0,0.47,,,,,,,,,,,,,,,,,,
1881,0,0.0,0.47,,,,,,,,,,,,,,,,,,
1883,0,0.0,0.47,,0.02,0.07,1.11,1,1,1,0.07,30,2040,0,0.0,0.0,0.0,0.0,0,0,0.0
1885,0,0.0,0.48,,,,,,,,,,,,,,,,,,
1887,0,0.0,0.48,,,,,,,,,,,,,,,,,,
1889,0,0.0,0.48,,,,,,,,,,,,,,,,,,
1891,0,0.0,0.48,,,,,,,,,,,,,,,,,,
1893,0,0.0,0.48,,-0.21,0.14,0.98,0,3,0,0.25,,,,,,,,,,
1895,0,0.0,0.47,,,,,,,,,,,,,,,,,,
1897,0,0.0,0.48,,,,,,,,,,,,,,,,,,
1899,0,0.0,0.48,,,,,,,,,,,,,,,,,,
1901,0,0.0,0.48,,,,,,,,,,,,,,,,,,
1903,0,0.0,0.48,,-0.24,0.15,0.97,1,2,-1,0.28,30,2100,0,0.0,0.0,0.0,0.0,0,0,0.0
1905,0,0.0,0.48,,,,,,,,,,,,,,,,,,
1907,0,0.0,0.48,,,,,,,,,,,,,,,,,,
1909,0,0.0,0.48,,,,,,,,,,,,,,,,,,
1911,0,0.0,0.48,,,,,,,,,,,,,,,,,,
1913,0,0.0,0.48,,0.03,0.13,0.82,0,2,-0,0.13,,,,,,,,,,
1915,0,0.0,0.5,,,,,,,,,,,,,,,,,,
1917,0,0.0,0.48,,,,,,,,,,,,,,,,,,
1919,0,0.0,0.48,,,,,,,,,,,,,,,,,,
1921,0,0.01,0.49,,,,,,,,,,,,,,,,,,
1923,0,0.0,0.48,,-0.2,0.22,0.72,-0,2,-1,0.29,30,2040,0,0.0,0.0,0.0,0.0,0,0,0.0
1925,0,0.0,0.49,,,,,,,,,,,,,,,,,,
1927,0,0.0,0.48,,,,,,,,,,,,,,,,,,
1929,0,0.0,0.48,,,,,,,,,,,,,,,,,,
1931,0,0.0,0.48,,,,,,,,,,,,,,,,,,
1933,0,0.0,0.48,,-0.05,0.19,0.88,0,1,-0,0.19,,,,,,,,,,
1935,0,0.0,0.48,,,,,,,,,,,,,,,,,,
1937,0,0.0,0.48,,,,,,,,,,,,,,,,,,
1939,0,0.0,0.48,,,,,,,,,,,,,,,,,,
1941,0,0.0,0.48,,,,,,,,,,,,,,,,,,
1943,0,0.0,0.49,,0.07,0.13,0.81,-1,1,0,0.14,48,2100,0,0.0,0.0,0.0,0.0,0,0,0.0
1945,0,0.0,0.48,,,,,,,,,,,,,,,,,,
1947,0,0.0,0.47,,,,,,,,,,,,,,,,,,
1949,0,0.0,0.47,,,,,,,,,,,,,,,,,,
1951,0,0.0,0.48,,,,,,,,,,,,,,,,,,
1953,0,0.0,0.48,,-0.24,0.26,0.91,-2,-1,0,0.36,,,,,,,,,,
1955,0,0.0,0.48,,,,,,,,,,,,,,,,,,
1957,0,0.0,0.48,,,,,,,,,,,,,,,,,,
1959,0,0.0,0.48,,,,,,,,,,,,,,,,,,
1961,0,0.0,0.48,,,,,,,,,,,,,,,,,,
1963,0,0.0,0.48,,-0.07,0.15,0.94,-1,-2,0,0.16,48,2100,0,0.0,0.0,0.0,0.0,0,0,0.0
1965,0,0.0,0.48,,,,,,,,,,,,,,,,,,
1967,0,0.0,0.48,,,,,,,,,,,,,,,,,,
1969,0,0.01,0.49,,,,,,,,,,,,,,,,,,
1971,0,0.0,0.49,,,,,,,,,,,,,,,,,,
1973,0,0.0,0.49,,0.02,0.13,1.05,-2,-2,-0,0.13,,,,,,,,,,
1975,0,0.0,0.49,,,,,,,,,,,,,,,,,,
1977,0,0.0,0.49,,,,,,,,,,,,,,,,,,
1979,0,0.0,0.49,,,,,,,,,,,,,,,,,,
1981,0,0.0,0.49,,,,,,,,,,,,,,,,,,
1983,0,0.01,0.49,,-0.37,0.13,1.08,-2,-3,-1,0.39,48,2040,0,0.0,0.0,0.0,0.0,0,0,0.0
1985,0,0.0,0.49,,,,,,,,,,,,,,,,,,
1987,0,0.0,0.49,,,,,,,,,,,,,,,,,,
1989,0,0.0,0.49,,,,,,,,,,,,,,,,,,
1991,0,0.0,0.49,,,,,,,,,,,,,,,,,,
1993,0,0.0,0.49,,0.09,-0.06,1.07,-1,-4,-1,0.11,,,,,,,,,,
1995,0,0.0,0.49,,,,,,,,,,,,,,,,,,
1997,0,0.0,0.49,,,,,,,,,,,,,,,,,,
1999,0,0.0,0.49,,,,,,,,,,,,,,,,,,
2001,0,0.01,0.51,,,,,,,,,,,,,,,,,,
2003,0,0.0,0.5,,0.11,-0.03,0.98,-1,-2,-1,0.12,48,2100,0,0.0,0.0,0.0,0.0,0,0,0.0
2005,0,0.0,0.5,,,,,,,,,,,,,,,,,,
2007,0,0.0,0.5,,,,,,,,,,,,,,,,,,
2009,0,0.0,0.49,,,,,,,,,,,,,,,,,,
2011,0,0.01,0.5,,,,,,,,,,,,,,,,,,
2013,0,0.0,0.49,,-0.13,-0.02,1.06,-0,-3,-1,0.13,,,,,,,,,,
2015,0,0.0,0.49,,,,,,,,,,,,,,,,,,
2017,0,0.01,0.49,,,,,,,,,,,,,,,,,,
2019,0,0.0,0.49,,,,,,,,,,,,,,,,,,
2021,0,0.0,0.49,,,,,,,,,,,,,,,,,,
2023,0,0.0,0.48,,0.19,-0.25,0.94,1,-4,-1,0.31,30,2100,0,0.0,0.0,0.0,0.0,0,0,0.0
2025,0,0.0,0.48,,,,,,,,,,,,,,,,,,
2027,0,0.0,0.48,,,,,,,,,,,,,,,,,,
2029,0,0.0,0.49,,,,,,,,,,,,,,,,,,
2031,0,0.0,0.48,,,,,,,,,,,,,,,,,,
2033,0,0.0,0.48,,0.15,-0.15,1.07,1,-2,0,0.21,,,,,,,,,,
2035,0,0.0,0.49,,,,,,,,,,,,,,,,,,
2037,0,0.0,0.49,,,,,,,,,,,,,,,,,,
2039,0,0.0,0.49,,,,,,,,,,,,,,,,,,
2041,0,0.0,0.49,,,,,,,,,,,,,,,,,,
2043,0,0.0,0.49,13.41,-0.17,-0.06,1.21,2,-2,1,0.18,30,2040,0,0.0,0.0,0.0,0.0,0,0,0.0
2045,0,0.0,0.49,,,,,,,,,,,,,,,,,,
2047,0,0.0,0.49,,,,,,,,,,,,,,,,,,
2049,0,0.0,0.5,,,,,,,,,,,,,,,,,,
2051,0,0.0,0.49,,,,,,,,,,,,,,,,,,
2053,0,0.0,0.49,,0.11,-0.13,1.15,3,-1,1,0.17,,,,,,,,,,
2055,0,0.0,0.5,,,,,,,,,,,,,,,,,,
2057,0,0.0,0.51,,,,,,,,,,,,,,,,,,
2059,0,0.0,0.5,,,,,,,,,,,,,,,,,,
2061,0,0.0,0.5,,,,,,,,,,,,,,,,,,
2063,0,0.0,0.5,,-0.13,-0.04,1.14,3,1,1,0.14,30,2100,0,0.0,0.0,0.0,0.0,0,0,0.0
2065,0,0.0,0.49,,,,,,,,,,,,,,,,,,
2067,0,0.0,0.5,,,,,,,,,,,,,,,,,,
2069,0,0.0,0.5,,,,,,,,,,,,,,,,,,
2071,0,0.0,0.5,,,,,,,,,,,,,,,,,,
2073,0,0.01,0.5,,-0.29,0.1,1.2,4,1,-0,0.31,,,,,,,,,,
2075,0,0.0,0.49,,,,,,,,,,,,,,,,,,
2077,0,0.0,0.49,,,,,,,,,,,,,,,,,,
2079,0,0.0,0.49,,,,,,,,,,,,,,,,,,
2081,0,0.0,0.49,,,,,,,,,,,,,,,,,,
2083,0,0.0,0.49,,0.01,0.04,0.97,4,1,-1,0.04,28,2100,0,0.0,0.0,0.0,0.0,0,0,0.0
2085,0,0.0,0.49,,,,,,,,,,,,,,,,,,
2087,0,0.0,0.51,,,,,,,,,,,,,,,,,,
2089,0,0.0,0.5,,,,,,,,,,,,,,,,,,
2091,0,0.0,0.49,,,,,,,,,,,,,,,,,,
2093,0,0.0,0.49,,-0.14,0.12,0.89,3,3,-2,0.19,,,,,,,,,,
2095,0,0.0,0.49,,,,,,,,,,,,,,,,,,
2097,0,0.0,0.49,,,,,,,,,,,,,,,,,,
2099,0,0.0,0.49,,,,,,,,,,,,,,,,,,
2101,0,0.0,0.49,,,,,,,,,,,,,,,,,,
2103,0,0.0,0.49,,-0.14,0.21,0.93,3,2,-2,0.25,28,2040,0,0.0,0.0,0.0,0.0,0,0,0.0
2105,0,0.0,0.49,,,,,,,,,,,,,,,,,,
2107,0,0.01,0.49,,,,,,,,,,,,,,,,,,
2109,0,0.0,0.49,,,,,,,,,,,,,,,,,,
2111,0,0.0,0.49,,,,,,,,,,,,,,,,,,
2113,0,0.0,0.49,,0.12,0.11,0.72,2,1,-1,0.17,,,,,,,,,,
2115,0,0.0,0.5,,,,,,,,,,,,,,,,,,
2117,0,0.0,0.5,,,,,,,,,,,,,,,,,,
2119,0,0.0,0.5,,,,,,,,,,,,,,,,,,
2121,0,0.0,0.5,,,,,,,,,,,,,,,,,,
2123,0,0.0,0.5,,-0.13,0.22,0.78,1,1,-1,0.26,28,2100,0,0.0,0.0,0.0,0.0,0,0,0.0
2125,0,0.0,0.5,,,,,,,,,,,,,,,,,,
2127,0,0.0,0.5,,,,,,,,,,,,,,,,,,
2129,0,0.0,0.5,,,,,,,,,,,,,,,,,,
2131,0,0.0,0.49,,,,,,,,,,,,,,,,,,
2133,0,0.0,0.5,,-0.1,0.19,0.87,1,-0,-0,0.22,,,,,,,,,,
2135,0,0.0,0.5,,,,,,,,,,,,,,,,,,
2137,0,0.0,0.5,,,,,,,,,,,,,,,,,,
2139,0,0.0,0.5,,,,,,,,,,,,,,,,,,
2141,0,0.0,0.5,,,,,,,,,,,,,,,,,,
2143,0,0.0,0.5,,0.11,0.13,0.94,-1,-1,-0,0.17,28,2100,0,0.0,0.0,0.0,0.0,0,0,0.0
2145,0,0.0,0.52,,,,,,,,,,,,,,,,,,
2147,0,0.0,0.5,,,,,,,,,,,,,,,,,,
2149,0,0.01,0.5,,,,,,,,,,,,,,,,,,
2151,0,0.0,0.51,,,,,,,,,,,,,,,,,,
2153,0,0.0,0.5,,-0.22,0.18,0.92,-1,-1,0,0.29,,,,,,,,,,
2155,0,0.0,0.5,,,,,,,,,,,,,,,,,,
2157,0,0.0,0.5,,,,,,,,,,,,,,,,,,
2159,0,0.0,0.51,,,,,,,,,,,,,,,,,,
2161,0,0.0,0.5,,,,,,,,,,,,,,,,,,
2163,0,0.0,0.51,,0.03,0.12,1.09,-1,-3,1,0.12,28,2040,0,0.0,0.0,0.0,0.0,0,0,0.0
2165,0,0.0,0.51,,,,,,,,,,,,,,,,,,
2167,0,0.0,0.51,,,,,,,,,,,,,,,,,,
2169,0,0.0,0.51,,,,,,,,,,,,,,,,,,
2171,0,0.0,0.51,,,,,,,,,,,,,,,,,,
2173,0,0.0,0.52,,0.16,0.09,0.98,-2,-2,0,0.18,,,,,,,,,,
2175,0,0.0,0.51,,,,,,,,,,,,,,,,,,
2177,0,0.0,0.5,,,,,,,,,,,,,,,,,,
2179,0,0.0,0.5,,,,,,,,,,,,,,,,,,
2181,0,0.0,0.5,,,,,,,,,,,,,,,,,,
2183,0,0.0,0.5,,-0.12,0.15,1.02,-2,-3,0,0.19,30,2100,0,0.0,0.0,0.0,0.0,0,0,0.0
2185,0,0.0,0.5,,,,,,,,,,,,,,,,,,
2187,0,0.0,0.5,,,,,,,,,,,,,,,,,,
2189,0,0.0,0.5,,,,,,,,,,,,,,,,,,
2191,0,0.0,0.5,,,,,,,,,,,,,,,,,,
2193,0,0.0,0.5,,0.14,0.01,0.94,-1,-3,0,0.14,,,,,,,,,,
2195,0,0.0,0.5,,,,,,,,,,,,,,,,,,
2197,0,0.01,0.5,,,,,,,,,,,,,,,,,,
2199,0,0.0,0.5,,,,,,,,,,,,,,,,,,
2201,0,0.0,0.51,,,,,,,,,,,,,,,,,,
2203,0,0.0,0.5,,0.22,0.02,1.03,-2,-2,0,0.23,30,2040,0,0.0,0.0,0.0,0.0,0,0,0.0
2205,0,0.0,0.5,,,,,,,,,,,,,,,,,,
2207,0,0.0,0.5,,,,,,,,,,,,,,,,,,
2209,0,0.0,0.5,,,,,,,,,,,,,,,,,,
2211,0,0.0,0.51,,,,,,,,,,,,,,,,,,
2213,0,0.0,0.51,,-0.23,0.07,1.14,-1,-2,0,0.24,,,,,,,,,,
2215,0,0.0,0.5,,,,,,,,,,,,,,,,,,
2217,0,0.01,0.51,,,,,,,,,,,,,,,,,,
2219,0,0.0,0.5,,,,,,,,,,,,,,,,,,
2221,0,0.0,0.51,,,,,,,,,,,,,,,,,,
2223,0,0.0,0.51,,0.14,-0.07,1.1,-0,-3,0,0.16,30,2040,0,0.0,0.0,0.0,0.0,0,0,0.0
2225,0,0.0,0.51,,,,,,,,,,,,,,,,,,
2227,0,0.0,0.51,,,,,,,,,,,,,,,,,,
2229,0,0.0,0.52,,,,,,,,,,,,,,,,,,
2231,0,0.0,0.51,,,,,,,,,,,,,,,,,,
2233,0,0.0,0.51,,0.07,-0.06,1.01,-0,-1,1,0.1,,,,,,,,,,
2235,0,0.0,0.52,,,,,,,,,,,,,,,,,,
2237,0,0.0,0.51,,,,,,,,,,,,,,,,,,
2239,0,0.0,0.51,,,,,,,,,,,,,,,,,,
2241,0,0.0,0.51,,,,,,,,,,,,,,,,,,
2243,0,0.0,0.51,,-0.16,0.07,1.1,1,-2,0,0.18,30,2100,0,0.0,0.0,0.0,0.0,0,0,0.0
2245,0,0.01,0.51,,,,,,,,,,,,,,,,,,
2247,0,0.0,0.51,,,,,,,,,,,,,,,,,,
2249,0,0.0,0.52,,,,,,,,,,,,,,,,,,
2251,0,0.0,0.52,,,,,,,,,,,,,,,,,,
2253,0,0.0,0.52,,0.19,-0.06,0.86,1,-2,0,0.2,,,,,,,,,,
2255,0,0.0,0.52,,,,,,,,,,,,,,,,,,
2257,0,0.0,0.53,,,,,,,,,,,,,,,,,,
2259,0,0.01,0.52,,,,,,,,,,,,,,,,,,
2261,0,0.0,0.52,,,,,,,,,,,,,,,,,,
2263,0,0.0,0.52,,0.18,-0.02,0.91,1,-1,0,0.18,30,2100,0,0.0,0.0,0.0,0.0,0,0,0.0
2265,0,0.0,0.52,,,,,,,,,,,,,,,,,,
2267,0,0.0,0.52,,,,,,,,,,,,,,,,,,
2269,0,0.01,0.51,,,,,,,,,,,,,,,,,,
2271,0,0.0,0.51,,,,,,,,,,,,,,,,,,
2273,0,0.01,0.51,,0.01,0.06,1.04,2,-2,0,0.06,,,,,,,,,,
2275,0,0.0,0.51,,,,,,,,,,,,,,,,,,
2277,0,0.0,0.51,,,,,,,,,,,,,,,,,,
2279,0,0.0,0.51,,,,,,,,,,,,,,,,,,
2281,0,0.0,0.51,,,,,,,,,,,,,,,,,,
2283,0,0.0,0.51,,0.23,0.01,0.94,2,-2,1,0.23,28,2100,0,0.0,0.0,0.0,0.0,0,0,0.0
2285,0,0.0,0.52,,,,,,,,,,,,,,,,,,
2287,0,0.0,0.52,,,,,,,,,,,,,,,,,,
2289,0,0.0,0.51,,,,,,,,,,,,,,,,,,
2291,0,0.0,0.51,,,,,,,,,,,,,,,,,,
2293,0,0.0,0.51,,-0.0,0.07,1.01,1,-1,1,0.07,,,,,,,,,,
2295,0,0.0,0.51,,,,,,,,,,,,,,,,,,
2297,0,0.0,0.51,,,,,,,,,,,,,,,,,,
2299,0,0.0,0.51,,,,,,,,,,,,,,,,,,
2301,0,0.0,0.51,,,,,,,,,,,,,,,,,,
2303,0,0.0,0.51,,-0.09,0.1,1.11,2,-0,1,0.13,28,2100,0,0.0,0.0,0.0,0.0,0,0,0.0
2305,0,0.0,0.51,,,,,,,,,,,,,,,,,,
2307,0,0.01,0.52,,,,,,,,,,,,,,,,,,
2309,0,0.0,0.52,,,,,,,,,,,,,,,,,,
2311,0,0.0,0.52,,,,,,,,,,,,,,,,,,
2313,0,0.0,0.53,,0.1,0.08,1.08,1,0,1,0.13,,,,,,,,,,
2315,0,0.0,0.52,,,,,,,,,,,,,,,,,,
2317,0,0.0,0.52,,,,,,,,,,,,,,,,,,
2319,0,0.0,0.52,,,,,,,,,,,,,,,,,,
2321,0,0.0,0.52,,,,,,,,,,,,,,,,,,
2323,0,0.0,0.52,,-0.14,0.13,1.02,1,1,1,0.19,28,2100,0,0.0,0.0,0.0,0.0,0,0,0.0
2325,0,0.0,0.52,,,,,,,,,,,,,,,,,,
2327,0,0.0,0.52,,,,,,,,,,,,,,,,,,
2329,0,0.0,0.52,,,,,,,,,,,,,,,,,,
2331,0,0.0,0.52,,,,,,,,,,,,,,,,,,
2333,0,0.0,0.52,,0.01,0.14,1.05,1,1,1,0.14,,,,,,,,,,
2335,0,0.0,0.52,,,,,,,,,,,,,,,,,,
2337,0,0.0,0.53,,,,,,,,,,,,,,,,,,
2339,0,0.0,0.53,,,,,,,,,,,,,,,,,,
2341,0,0.0,0.54,,,,,,,,,,,,,,,,,,
2343,0,0.0,0.53,,0.13,0.16,0.92,-0,2,1,0.2,28,2100,0,0.0,0.0,0.0,0.0,0,0,0.0
2345,0,0.0,0.53,,,,,,,,,,,,,,,,,,
2347,0,0.0,0.53,,,,,,,,,,,,,,,,,,
2349,0,0.01,0.53,,,,,,,,,,,,,,,,,,
2351,0,0.0,0.53,,,,,,,,,,,,,,,,,,
2353,0,0.0,0.53,,-0.09,0.22,0.91,-0,1,-0,0.24,,,,,,,,,,
2355,0,0.0,0.53,,,,,,,,,,,,,,,,,,
2357,0,0.0,0.53,,,,,,,,,,,,,,,,,,
2359,0,0.0,0.53,,,,,,,,,,,,,,,,,,
2361,0,0.0,0.53,,,,,,,,,,,,,,,,,,
2363,0,0.0,0.53,,0.09,0.06,0.83,-0,1,-1,0.11,28,2100,0,0.0,0.0,0.0,0.0,0,0,0.0
2365,0,0.0,0.52,,,,,,,,,,,,,,,,,,
2367,0,0.0,0.52,,,,,,,,,,,,,,,,,,
2369,0,0.0,0.52,,,,,,,,,,,,,,,,,,
2371,0,0.0,0.53,,,,,,,,,,,,,,,,,,
2373,0,0.0,0.53,,0.09,0.11,0.99,-1,2,-1,0.14,,,,,,,,,,
2375,0,0.0,0.52,,,,,,,,,,,,,,,,,,
2377,0,0.0,0.52,,,,,,,,,,,,,,,,,,
2379,0,0.0,0.52,,,,,,,,,,,,,,,,,,
2381,0,0.0,0.52,,,,,,,,,,,,,,,,,,
2383,0,0.0,0.52,,-0.27,0.18,1.12,-1,1,-0,0.33,25,2040,0,0.0,0.0,0.0,0.0,0,0,0.0
2385,0,0.0,0.52,,,,,,,,,,,,,,,,,,
2387,0,0.0,0.52,,,,,,,,,,,,,,,,,,
2389,0,0.0,0.52,,,,,,,,,,,,,,,,,,
2391,0,0.0,0.52,,,,,,,,,,,,,,,,,,
2393,0,0.0,0.52,,0.03,0.03,1.03,-1,1,-0,0.04,,,,,,,,,,
2395,0,0.0,0.52,,,,,,,,,,,,,,,,,,
2397,0,0.01,0.52,,,,,,,,,,,,,,,,,,
2399,0,0.0,0.53,,,,,,,,,,,,,,,,,,
2401,0,0.0,0.52,,,,,,,,,,,,,,,,,,
2403,0,0.0,0.52,,-0.1,0.05,1.02,-1,1,0,0.11,25,2100,0,0.0,0.0,0.0,0.0,0,0,0.0
2405,0,0.0,0.52,,,,,,,,,,,,,,,,,,
2407,0,0.0,0.52,,,,,,,,,,,,,,,,,,
2409,0,0.0,0.51,,,,,,,,,,,,,,,,,,
2411,0,0.0,0.52,,,,,,,,,,,,,,,,,,
2413,0,0.0,0.52,,-0.16,0.11,1.04,-0,-1,0,0.2,,,,,,,,,,
2415,0,0.0,0.52,,,,,,,,,,,,,,,,,,
2417,0,0.0,0.52,,,,,,,,,,,,,,,,,,
2419,0,0.0,0.52,,,,,,,,,,,,,,,,,,
2421,0,0.0,0.52,,,,,,,,,,,,,,,,,,
2423,0,0.0,0.52,,0.18,0.04,0.84,-1,-2,-0,0.18,25,2100,0,0.0,0.0,0.0,0.0,0,0,0.0
2425,0,0.0,0.52,,,,,,,,,,,,,,,,,,
2427,0,0.0,0.53,,,,,,,,,,,,,,,,,,
2429,0,0.0,0.52,,,,,,,,,,,,,,,,,,
2431,0,0.0,0.52,,,,,,,,,,,,,,,,,,
2433,0,0.0,0.52,,0.1,0.08,0.89,-1,-1,-1,0.13,,,,,,,,,,
2435,0,0.0,0.53,,,,,,,,,,,,,,,,,,
2437,0,0.0,0.52,,,,,,,,,,,,,,,,,,
2439,0,0.0,0.53,,,,,,,,,,,,,,,,,,
2441,0,0.0,0.52,,,,,,,,,,,,,,,,,,
2443,0,0.0,0.52,,0.06,0.06,0.99,-0,-2,-1,0.08,25,2040,0,0.0,0.0,0.0,0.0,0,0,0.0
2445,0,0.0,0.53,,,,,,,,,,,,,,,,,,
2447,0,0.0,0.52,,,,,,,,,,,,,,,,,,
2449,0,0.0,0.53,,,,,,,,,,,,,,,,,,
2451,0,0.0,0.53,,,,,,,,,,,,,,,,,,
2453,0,0.0,0.53,,0.26,-0.02,0.98,-0,-3,-0,0.27,,,,,,,,,,
2455,0,0.0,0.54,,,,,,,,,,,,,,,,,,
2457,0,0.0,0.53,,,,,,,,,,,,,,,,,,
2459,0,0.0,0.53,,,,,,,,,,,,,,,,,,
2461,0,0.0,0.53,,,,,,,,,,,,,,,,,,
2463,0,0.0,0.53,,-0.07,-0.02,1.11,-0,-1,-0,0.07,25,2100,0,0.0,0.0,0.0,0.0,0,0,0.0
2465,0,0.0,0.53,,,,,,,,,,,,,,,,,,
2467,0,0.0,0.53,,,,,,,,,,,,,,,,,,
2469,0,0.0,0.53,,,,,,,,,,,,,,,,,,
2471,0,0.0,0.53,,,,,,,,,,,,,,,,,,
2473,0,0.0,0.53,,-0.16,-0.01,1.26,1,-1,0,0.16,,,,,,,,,,
2475,0,0.0,0.53,,,,,,,,,,,,,,,,,,
2477,0,0.0,0.53,,,,,,,,,,,,,,,,,,
2479,0,0.0,0.53,,,,,,,,,,,,,,,,,,
2481,0,0.0,0.53,,,,,,,,,,,,,,,,,,
2483,0,0.0,0.55,,0.01,0.02,1.19,1,0,0,0.02,25,2040,0,0.0,0.0,0.0,0.0,0,0,0.0
2485,0,0.0,0.54,,,,,,,,,,,,,,,,,,
2487,0,0.0,0.54,,,,,,,,,,,,,,,,,,
2489,0,0.0,0.54,,,,,,,,,,,,,,,,,,
2491,0,0.0,0.53,,,,,,,,,,,,,,,,,,
2493,0,0.0,0.53,,-0.27,0.04,1.07,1,1,0,0.28,,,,,,,,,,
2495,0,0.0,0.54,,,,,,,,,,,,,,,,,,
2497,0,0.0,0.54,,,,,,,,,,,,,,,,,,
2499,0,0.0,0.53,,,,,,,,,,,,,,,,,,
2501,0,0.0,0.54,,,,,,,,,,,,,,,,,,
2503,0,0.0,0.54,,-0.03,0.02,1.05,2,1,-0,0.03,25,2040,0,0.0,0.0,0.0,0.0,0,0,0.0
2505,0,0.0,0.54,,,,,,,,,,,,,,,,,,
2507,0,0.0,0.54,,,,,,,,,,,,,,,,,,
2509,0,0.0,0.54,,,,,,,,,,,,,,,,,,
2511,0,0.0,0.55,,,,,,,,,,,,,,,,,,
2513,0,0.0,0.54,,0.09,0.07,0.88,2,2,-0,0.11,,,,,,,,,,
2515,0,0.0,0.54,,,,,,,,,,,,,,,,,,
2517,0,0.0,0.54,,,,,,,,,,,,,,,,,,
2519,0,0.0,0.55,,,,,,,,,,,,,,,,,,
2521,0,0.0,0.54,,,,,,,,,,,,,,,,,,
2523,0,0.0,0.54,,-0.13,0.17,0.83,2,1,-1,0.21,18,2100,0,0.0,0.0,0.0,0.0,0,0,0.0
2525,0,0.0,0.54,,,,,,,,,,,,,,,,,,
2527,0,0.0,0.54,,,,,,,,,,,,,,,,,,
2529,0,0.0,0.54,,,,,,,,,,,,,,,,,,
2531,0,0.0,0.54,,,,,,,,,,,,,,,,,,
2533,0,0.0,0.53,,0.11,0.08,0.74,2,-1,-1,0.13,,,,,,,,,,
2535,0,0.0,0.53,,,,,,,,,,,,,,,,,,
2537,0,0.0,0.53,,,,,,,,,,,,,,,,,,
2539,0,0.0,0.55,,,,,,,,,,,,,,,,,,
2541,0,0.0,0.54,,,,,,,,,,,,,,,,,,
2543,0,0.0,0.53,,0.17,0.14,0.89,1,1,-1,0.22,18,2100,0,0.0,0.0,0.0,0.0,0,0,0.0
2545,0,0.0,0.53,,,,,,,,,,,,,,,,,,
2547,0,0.0,0.53,,,,,,,,,,,,,,,,,,
2549,0,0.0,0.54,,,,,,,,,,,,,,,,,,
2551,0,0.0,0.54,,,,,,,,,,,,,,,,,,
2553,0,0.0,0.54,,-0.29,0.18,1.1,1,-0,-2,0.34,,,,,,,,,,
2555,0,0.0,0.54,,,,,,,,,,,,,,,,,,
2557,0,0.0,0.54,,,,,,,,,,,,,,,,,,
2559,0,0.0,0.54,,,,,,,,,,,,,,,,,,
2561,0,0.0,0.54,,,,,,,,,,,,,,,,,,
2563,0,0.0,0.54,,-0.03,0.04,1.08,1,-0,-1,0.05,18,2100,0,0.0,0.0,0.0,0.0,0,0,0.0
2565,0,0.0,0.54,,,,,,,,,,,,,,,,,,
2567,0,0.0,0.55,,,,,,,,,,,,,,,,,,
2569,0,0.0,0.55,,,,,,,,,,,,,,,,,,
2571,0,0.0,0.55,,,,,,,,,,,,,,,,,,
2573,0,0.0,0.55,,-0.15,0.06,1.08,-0,1,-1,0.16,,,,,,,,,,
2575,0,0.0,0.55,,,,,,,,,,,,,,,,,,
2577,0,0.0,0.54,,,,,,,,,,,,,,,,,,
2579,0,0.0,0.55,,,,,,,,,,,,,,,,,,
2581,0,0.0,0.54,,,,,,,,,,,,,,,,,,
2583,0,0.0,0.55,,-0.27,0.17,1.09,0,0,-0,0.32,18,2100,0,0.0,0.0,0.0,0.0,0,0,0.0
2585,0,0.0,0.55,,,,,,,,,,,,,,,,,,
2587,0,0.0,0.55,,,,,,,,,,,,,,,,,,
2589,0,0.0,0.55,,,,,,,,,,,,,,,,,,
2591,0,0.0,0.55,,,,,,,,,,,,,,,,,,
2593,0,0.0,0.55,,0.04,0.09,0.84,0,-0,-1,0.1,,,,,,,,,,
2595,0,0.0,0.55,,,,,,,,,,,,,,,,,,
2597,0,0.0,0.57,,,,,,,,,,,,,,,,,,
2599,0,0.0,0.55,,,,,,,,,,,,,,,,,,
2601,0,0.0,0.55,,,,,,,,,,,,,,,,,,
2603,0,0.0,0.55,,0.01,0.13,0.83,-0,1,-1,0.13,18,2100,0,0.0,0.0,0.0,0.0,0,0,0.0
2605,0,0.0,0.55,,,,,,,,,,,,,,,,,,
2607,0,0.0,0.55,,,,,,,,,,,,,,,,,,
2609,0,0.01,0.55,,,,,,,,,,,,,,,,,,
2611,0,0.01,0.55,,,,,,,,,,,,,,,,,,
2613,0,0.0,0.55,,-0.03,0.1,0.94,-0,0,-1,0.1,,,,,,,,,,
2615,0,0.0,0.55,,,,,,,,,,,,,,,,,,
2617,0,0.0,0.55,,,,,,,,,,,,,,,,,,
2619,0,0.0,0.55,,,,,,,,,,,,,,,,,,
2621,0,0.0,0.56,,,,,,,,,,,,,,,,,,
2623,0,0.0,0.55,,0.16,0.01,0.89,-1,-1,-1,0.16,18,2100,0,0.0,0.0,0.0,0.0,0,0,0.0
2625,0,0.0,0.57,,,,,,,,,,,,,,,,,,
2627,0,0.0,0.56,,,,,,,,,,,,,,,,,,
2629,0,0.0,0.55,,,,,,,,,,,,,,,,,,
2631,0,0.01,0.55,,,,,,,,,,,,,,,,,,
2633,0,0.0,0.55,,-0.07,0.06,0.99,-1,-0,-1,0.09,,,,,,,,,,
2635,0,0.0,0.56,,,,,,,,,,,,,,,,,,
2637,0,0.0,0.55,,,,,,,,,,,,,,,,,,
2639,0,0.0,0.55,,,,,,,,,,,,,,,,,,
2641,0,0.0,0.55,,,,,,,,,,,,,,,,,,
2643,0,0.0,0.55,,-0.14,0.01,1.11,0,-0,-1,0.14,20,2100,0,0.0,0.0,0.0,0.0,0,0,0.0
2645,0,0.01,0.55,,,,,,,,,,,,,,,,,,
2647,0,0.0,0.55,,,,,,,,,,,,,,,,,,
2649,0,0.0,0.55,,,,,,,,,,,,,,,,,,
2651,0,0.0,0.55,,,,,,,,,,,,,,,,,,
2653,0,0.0,0.56,,-0.0,-0.02,1.15,-0,0,0,0.02,,,,,,,,,,
2655,0,0.0,0.55,,,,,,,,,,,,,,,,,,
2657,0,0.0,0.55,,,,,,,,,,,,,,,,,,
2659,0,0.01,0.54,,,,,,,,,,,,,,,,,,
2661,0,0.0,0.54,,,,,,,,,,,,,,,,,,
2663,0,0.0,0.55,,-0.31,-0.0,1.1,0,1,1,0.31,20,2100,0,0.0,0.0,0.0,0.0,0,0,0.0
2665,0,0.0,0.54,,,,,,,,,,,,,,,,,,
2667,0,0.0,0.54,,,,,,,,,,,,,,,,,,
2669,0,0.0,0.54,,,,,,,,,,,,,,,,,,
2671,0,0.0,0.54,,,,,,,,,,,,,,,,,,
2673,0,0.0,0.54,,-0.06,-0.03,1.04,1,-1,1,0.07,,,,,,,,,,
2675,0,0.0,0.54,,,,,,,,,,,,,,,,,,
2677,0,0.0,0.55,,,,,,,,,,,,,,,,,,
2679,0,0.0,0.55,,,,,,,,,,,,,,,,,,
2681,0,0.0,0.56,,,,,,,,,,,,,,,,,,
2683,0,0.0,0.55,,0.02,0.03,0.94,1,1,0,0.03,20,2100,0,0.0,0.0,0.0,0.0,0,0,0.0
2685,0,0.0,0.55,,,,,,,,,,,,,,,,,,
2687,0,0.0,0.55,,,,,,,,,,,,,,,,,,
2689,0,0.0,0.55,,,,,,,,,,,,,,,,,,
2691,0,0.0,0.54,,,,,,,,,,,,,,,,,,
2693,0,0.01,0.54,,-0.18,0.14,0.92,1,-1,-1,0.23,,,,,,,,,,
2695,0,0.0,0.55,,,,,,,,,,,,,,,,,,
2697,0,0.0,0.55,,,,,,,,,,,,,,,,,,
2699,0,0.0,0.54,,,,,,,,,,,,,,,,,,
2701,0,0.0,0.55,,,,,,,,,,,,,,,,,,
2703,0,0.0,0.54,,0.09,0.02,0.77,1,-2,-1,0.1,20,2100,0,0.0,0.0,0.0,0.0,0,0,0.0
2705,0,0.0,0.54,,,,,,,,,,,,,,,,,,
2707,0,0.0,0.55,,,,,,,,,,,,,,,,,,
2709,0,0.0,0.56,,,,,,,,,,,,,,,,,,
2711,0,0.0,0.55,,,,,,,,,,,,,,,,,,
2713,0,0.0,0.55,,0.09,0.1,0.94,0,-1,-2,0.13,,,,,,,,,,
2715,0,0.0,0.55,,,,,,,,,,,,,,,,,,
2717,0,0.0,0.55,,,,,,,,,,,,,,,,,,
2719,0,0.0,0.55,,,,,,,,,,,,,,,,,,
2721,0,0.01,0.55,,,,,,,,,,,,,,,,,,
2723,0,0.0,0.55,,-0.28,0.1,1.15,1,-1,-2,0.29,20,2100,0,0.0,0.0,0.0,0.0,0,0,0.0
2725,0,0.0,0.55,,,,,,,,,,,,,,,,,,
2727,0,0.0,0.55,,,,,,,,,,,,,,,,,,
2729,0,0.0,0.55,,,,,,,,,,,,,,,,,,
2731,0,0.0,0.55,,,,,,,,,,,,,,,,,,
2733,0,0.0,0.55,,-0.07,0.01,1.13,1,0,-1,0.07,,,,,,,,,,
2735,0,0.0,0.55,,,,,,,,,,,,,,,,,,
2737,0,0.0,0.57,,,,,,,,,,,,,,,,,,
2739,0,0.0,0.56,,,,,,,,,,,,,,,,,,
2741,0,0.0,0.56,,,,,,,,,,,,,,,,,,
2743,0,0.0,0.56,,-0.25,0.09,1.18,1,2,-1,0.27,20,2100,0,0.0,0.0,0.0,0.0,0,0,0.0
2745,0,0.0,0.56,,,,,,,,,,,,,,,,,,
2747,0,0.0,0.56,,,,,,,,,,,,,,,,,,
2749,0,0.01,0.56,,,,,,,,,,,,,,,,,,
2751,0,0.0,0.56,,,,,,,,,,,,,,,,,,
2753,0,0.0,0.56,,-0.4,0.15,1.18,1,3,-1,0.42,,,,,,,,,,
2755,0,0.0,0.56,,,,,,,,,,,,,,,,,,
2757,0,0.0,0.56,,,,,,,,,,,,,,,,,,
2759,0,0.0,0.56,,,,,,,,,,,,,,,,,,
2761,0,0.0,0.56,,,,,,,,,,,,,,,,,,
2763,0,0.0,0.56,,-0.07,0.07,0.95,1,2,-0,0.1,20,2100,0,0.0,0.0,0.0,0.0,0,0,0.0
2765,0,0.0,0.56,,,,,,,,,,,,,,,,,,
2767,0,0.0,0.58,,,,,,,,,,,,,,,,,,
2769,0,0.01,0.57,,,,,,,,,,,,,,,,,,
2771,0,0.0,0.57,,,,,,,,,,,,,,,,,,
2773,0,0.0,0.57,,-0.17,0.12,0.82,0,3,-1,0.21,,,,,,,,,,
2775,0,0.0,0.57,,,,,,,,,,,,,,,,,,
2777,0,0.0,0.57,,,,,,,,,,,,,,,,,,
2779,0,0.0,0.57,,,,,,,,,,,,,,,,,,
2781,0,0.0,0.57,,,,,,,,,,,,,,,,,,
2783,0,0.0,0.57,,-0.15,0.21,0.86,1,2,-1,0.26,20,2040,0,0.0,0.0,0.0,0.0,0,0,0.0
2785,0,0.0,0.57,,,,,,,,,,,,,,,,,,
2787,0,0.0,0.57,,,,,,,,,,,,,,,,,,
2789,0,0.0,0.56,,,,,,,,,,,,,,,,,,
2791,0,0.0,0.56,,,,,,,,,,,,,,,,,,
2793,0,0.0,0.56,,0.12,0.11,0.69,-1,1,-1,0.16,,,,,,,,,,
2795,0,0.0,0.58,,,,,,,,,,,,,,,,,,
2797,0,0.0,0.56,,,,,,,,,,,,,,,,,,
2799,0,0.0,0.56,,,,,,,,,,,,,,,,,,
2801,0,0.0,0.56,,,,,,,,,,,,,,,,,,
2803,0,0.0,0.56,,-0.14,0.19,0.82,-1,0,-2,0.24,15,2100,0,0.0,0.0,0.0,0.0,0,0,0.0
2805,0,0.0,0.56,,,,,,,,,,,,,,,,,,
2807,0,0.0,0.56,,,,,,,,,,,,,,,,,,
2809,0,0.0,0.56,,,,,,,,,,,,,,,,,,
2811,0,0.01,0.55,,,,,,,,,,,,,,,,,,
2813,0,0.0,0.55,,-0.22,0.12,0.98,-1,-0,-2,0.25,,,,,,,,,,
2815,0,0.0,0.56,,,,,,,,,,,,,,,,,,
2817,0,0.0,0.56,,,,,,,,,,,,,,,,,,
2819,0,0.0,0.56,,,,,,,,,,,,,,,,,,
2821,0,0.0,0.56,,,,,,,,,,,,,,,,,,
2823,0,0.0,0.57,,-0.09,-0.0,1.18,-1,0,-2,0.09,15,2040,0,0.0,0.0,0.0,0.0,0,0,0.0
2825,0,0.0,0.57,,,,,,,,,,,,,,,,,,
2827,0,0.0,0.57,,,,,,,,,,,,,,,,,,
2829,0,0.0,0.56,,,,,,,,,,,,,,,,,,
2831,0,0.0,0.57,,,,,,,,,,,,,,,,,,
2833,0,0.0,0.56,,-0.46,0.07,1.12,-1,1,-1,0.47,,,,,,,,,,
2835,0,0.0,0.57,,,,,,,,,,,,,,,,,,
2837,0,0.0,0.57,,,,,,,,,,,,,,,,,,
2839,0,0.0,0.57,,,,,,,,,,,,,,,,,,
2841,0,0.0,0.57,,,,,,,,,,,,,,,,,,
2843,0,0.0,0.57,,-0.2,0.02,1.18,-0,-0,-1,0.2,15,2040,0,0.0,0.0,0.0,0.0,0,0,0.0
2845,0,0.0,0.57,,,,,,,,,,,,,,,,,,
2847,0,0.0,0.57,,,,,,,,,,,,,,,,,,
2849,0,0.0,0.57,,,,,,,,,,,,,,,,,,
2851,0,0.0,0.58,,,,,,,,,,,,,,,,,,
2853,0,0.0,0.58,,-0.01,-0.03,0.95,-0,0,-1,0.03,,,,,,,,,,
2855,0,0.0,0.57,,,,,,,,,,,,,,,,,,
2857,0,0.0,0.58,,,,,,,,,,,,,,,,,,
2859,0,0.01,0.57,,,,,,,,,,,,,,,,,,
2861,0,0.0,0.57,,,,,,,,,,,,,,,,,,
2863,0,0.0,0.58,,-0.24,0.11,0.88,0,-0,-1,0.27,15,2100,0,0.0,0.0,0.0,0.0,0,0,0.0
2865,0,0.0,0.58,,,,,,,,,,,,,,,,,,
2867,0,0.0,0.57,,,,,,,,,,,,,,,,,,
2869,0,0.0,0.58,,,,,,,,,,,,,,,,,,
2871,0,0.0,0.58,,,,,,,,,,,,,,,,,,
2873,0,0.01,0.58,,0.03,-0.02,0.81,1,-1,-1,0.04,,,,,,,,,,
2875,0,0.0,0.58,,,,,,,,,,,,,,,,,,
2877,0,0.0,0.58,,,,,,,,,,,,,,,,,,
2879,0,0.0,0.58,,,,,,,,,,,,,,,,,,
2881,0,0.0,0.59,,,,,,,,,,,,,,,,,,
2883,0,0.0,0.58,,0.12,0.02,0.86,0,0,-1,0.12,15,2040,0,0.0,0.0,0.0,0.0,0,0,0.0
2885,0,0.0,0.58,,,,,,,,,,,,,,,,,,
2887,0,0.0,0.58,,,,,,,,,,,,,,,,,,
2889,0,0.0,0.58,,,,,,,,,,,,,,,,,,
2891,0,0.0,0.57,,,,,,,,,,,,,,,,,,
2893,0,0.01,0.57,,-0.37,0.12,1.05,1,-1,-2,0.39,,,,,,,,,,
2895,0,0.0,0.57,,,,,,,,,,,,,,,,,,
2897,0,0.0,0.57,,,,,,,,,,,,,,,,,,
2899,0,0.0,0.57,,,,,,,,,,,,,,,,,,
2901,0,0.0,0.57,,,,,,,,,,,,,,,,,,
2903,0,0.0,0.57,,-0.1,-0.04,1.08,1,-0,-1,0.11,22,2040,0,0.0,0.0,0.0,0.0,0,0,0.0
2905,0,0.0,0.57,,,,,,,,,,,,,,,,,,
2907,0,0.0,0.57,,,,,,,,,,,,,,,,,,
2909,0,0.0,0.58,,,,,,,,,,,,,,,,,,
2911,0,0.0,0.57,,,,,,,,,,,,,,,,,,
2913,0,0.0,0.57,,-0.27,-0.05,1.1,1,1,-0,0.27,,,,,,,,,,
2915,0,0.0,0.57,,,,,,,,,,,,,,,,,,
2917,0,0.0,0.57,,,,,,,,,,,,,,,,,,
2919,0,0.0,0.57,,,,,,,,,,,,,,,,,,
2921,0,0.01,0.56,,,,,,,,,,,,,,,,,,
2923,0,0.0,0.57,,-0.46,0.04,1.15,2,0,0,0.46,22,2100,0,0.0,0.0,0.0,0.0,0,0,0.0
2925,0,0.0,0.57,,,,,,,,,,,,,,,,,,
2927,0,0.0,0.56,,,,,,,,,,,,,,,,,,
2929,0,0.0,0.57,,,,,,,,,,,,,,,,,,
2931,0,0.0,0.57,,,,,,,,,,,,,,,,,,
2933,0,0.0,0.57,,-0.04,-0.06,0.87,2,-1,1,0.07,,,,,,,,,,
2935,0,0.0,0.57,,,,,,,,,,,,,,,,,,
2937,0,0.0,0.58,,,,,,,,,,,,,,,,,,
2939,0,0.0,0.57,,,,,,,,,,,,,,,,,,
2941,0,0.0,0.57,,,,,,,,,,,,,,,,,,
2943,0,0.0,0.57,,-0.03,0.08,0.78,1,-0,0,0.08,22,2040,0,0.0,0.0,0.0,0.0,0,0,0.0
2945,0,0.0,0.57,,,,,,,,,,,,,,,,,,
2947,0,0.0,0.57,,,,,,,,,,,,,,,,,,
2949,0,0.01,0.57,,,,,,,,,,,,,,,,,,
2951,0,0.0,0.57,,,,,,,,,,,,,,,,,,
2953,0,0.0,0.57,,-0.15,0.22,0.93,2,-2,-0,0.27,,,,,,,,,,
2955,0,0.0,0.57,,,,,,,,,,,,,,,,,,
2957,0,0.0,0.57,,,,,,,,,,,,,,,,,,
2959,0,0.0,0.57,,,,,,,,,,,,,,,,,,
2961,0,0.0,0.57,,,,,,,,,,,,,,,,,,
2963,0,0.0,0.57,,0.16,0.02,0.77,1,-3,-1,0.16,22,2040,0,0.0,0.0,0.0,0.0,0,0,0.0
2965,0,0.0,0.58,,,,,,,,,,,,,,,,,,
2967,0,0.0,0.57,,,,,,,,,,,,,,,,,,
2969,0,0.01,0.57,,,,,,,,,,,,,,,,,,
2971,0,0.0,0.57,,,,,,,,,,,,,,,,,,
2973,0,0.0,0.57,,-0.01,0.07,0.88,-0,-2,-1,0.07,,,,,,,,,,
2975,0,0.0,0.57,,,,,,,,,,,,,,,,,,
2977,0,0.0,0.57,,,,,,,,,,,,,,,,,,
2979,0,0.0,0.57,,,,,,,,,,,,,,,,,,
2981,0,0.0,0.57,,,,,,,,,,,,,,,,,,
2983,0,0.0,0.57,,-0.11,0.1,1.07,1,-3,-1,0.15,22,2100,0,0.0,0.0,0.0,0.0,0,0,0.0
2985,0,0.0,0.58,,,,,,,,,,,,,,,,,,
2987,0,0.0,0.58,,,,,,,,,,,,,,,,,,
2989,0,0.0,0.58,,,,,,,,,,,,,,,,,,
2991,0,0.0,0.58,,,,,,,,,,,,,,,,,,
2993,0,0.0,0.59,,0.05,0.02,1.16,0,-2,-0,0.05,,,,,,,,,,
2995,0,0.0,0.58,,,,,,,,,,,,,,,,,,
2997,0,0.01,0.58,,,,,,,,,,,,,,,,,,
2999,0,0.0,0.58,,,,,,,,,,,,,,,,,,
3001,0,0.0,0.58,,,,,,,,,,,,,,,,,,
3003,0,0.0,0.58,,-0.23,0.07,1.16,-0,-1,-0,0.24,22,2100,0,0.0,0.0,0.0,0.0,0,0,0.0
3005,0,0.0,0.57,,,,,,,,,,,,,,,,,,
3007,0,0.0,0.58,,,,,,,,,,,,,,,,,,
3009,0,0.0,0.57,,,,,,,,,,,,,,,,,,
3011,0,0.01,0.57,,,,,,,,,,,,,,,,,,
3013,0,0.0,0.57,,-0.12,0.04,1.21,1,-1,0,0.12,,,,,,,,,,
3015,0,0.0,0.57,,,,,,,,,,,,,,,,,,
3017,0,0.01,0.57,,,,,,,,,,,,,,,,,,
3031,0,0.01,0.57,,,,,,,,,,,,,,,,,,
3033,0,0.0,0.57,,-0.21,0.12,0.95,0,-0,1,0.24,,,,,,,,,,
3035,0,0.0,0.57,,,,,,,,,,,,,,,,,,
3037,0,0.0,0.57,,,,,,,,,,,,,,,,,,
3047,0,0.0,0.57,,,,,,,,,,,,,,,,,,
3049,0,0.0,0.58,,,,,,,,,,,,,,,,,,
3051,0,0.0,0.57,,,,,,,,,,,,,,,,,,
3053,0,0.0,0.57,,0.14,0.12,0.81,-0,-0,-1,0.18,,,,,,,,,,
3055,0,0.0,0.57,,,,,,,,,,,,,,,,,,
3057,0,0.0,0.57,,,,,,,,,,,,,,,,,,
3059,0,0.01,0.57,,,,,,,,,,,,,,,,,,
3061,0,0.0,0.57,,,,,,,,,,,,,,,,,,
3063,0,0.0,0.57,,-0.14,0.17,0.95,-0,-2,-1,0.22,15,2100,0,0.0,0.0,0.0,0.0,0,0,0.0
3065,0,0.0,0.56,,,,,,,,,,,,,,,,,,
3067,0,0.0,0.57,,,,,,,,,,,,,,,,,,
3069,0,0.0,0.57,,,,,,,,,,,,,,,,,,
3071,0,0.0,0.57,,,,,,,,,,,,,,,,,,
3073,0,0.0,0.57,,0.16,0.0,0.94,-0,-2,-1,0.16,,,,,,,,,,
3075,0,0.0,0.58,,,,,,,,,,,,,,,,,,
3077,0,0.0,0.57,,,,,,,,,,,,,,,,,,
3079,0,0.0,0.58,,,,,,,,,,,,,,,,,,
3081,0,0.0,0.58,,,,,,,,,,,,,,,,,,
3083,0,0.0,0.58,,-0.05,0.04,1.11,-1,0,-1,0.06,15,2100,0,0.0,0.0,0.0,0.0,0,0,0.0
3085,0,0.0,0.57,,,,,,,,,,,,,,,,,,
3087,0,0.0,0.58,,,,,,,,,,,,,,,,,,
3089,0,0.0,0.58,,,,,,,,,,,,,,,,,,
3091,0,0.0,0.58,,,,,,,,,,,,,,,,,,
