"Interval"|"ms"|0|0|1,"Utc"|"ms"|0|0|1,"Analog4"|"Volts"|0.0|5.0|500,"Analog5"|"Volts"|0.0|5.0|500,"Battery"|"Volts"|0.0|20.0|1,"AccelX"|"G"|-3.0|3.0|200,"AccelY"|"G"|-3.0|3.0|200,"AccelZ"|"G"|-3.0|3.0|200,"Yaw"|"Deg/Sec"|-120|120|200,"Pitch"|"Deg/Sec"|-120|120|200,"Roll"|"Deg/Sec"|-120|120|200,"Gsum"|"G"|0.0|3.0|200,"RPM2"|"rpm"|0|8000|50,"RPM3"|"rpm"|0|8000|50,"GPIO1"|""|0.0|1.0|50,"Latitude"|"Degrees"|-180.0|180.0|50,"Longitude"|"Degrees"|-180.0|180.0|50,"Speed"|"mph"|0.0|150.0|50,"Altitude"|"ft"|0.0|4000.0|50,"GPSSats"|""|0|20|50,"GPSQual"|""|0|5|50,"GPSDOP"|""|0.0|20.0|50
125,0,0.0,0.26,,,,,,,,,,,,,,,,,,
127,0,0.0,0.26,,,,,,,,,,,,,,,,,,
129,0,0.0,0.26,,,,,,,,,,,,,,,,,,
131,0,0.0,0.26,,,,,,,,,,,,,,,,,,
133,0,0.0,0.26,,-0.23,0.1,1.07,0,0,-0,0.25,,,,,,,,,,
135,0,0.0,0.26,,,,,,,,,,,,,,,,,,
137,0,0.0,0.26,,,,,,,,,,,,,,,,,,
139,0,0.0,0.26,,,,,,,,,,,,,,,,,,
141,0,0.0,0.26,,,,,,,,,,,,,,,,,,
143,0,0.0,0.26,,0.01,0.06,0.96,0,-1,-0,0.07,0,2040,0,0.0,0.0,0.0,0.0,0,0,0.0
145,0,0.0,0.27,,,,,,,,,,,,,,,,,,
147,0,0.0,0.28,,,,,,,,,,,,,,,,,,
149,0,0.0,0.27,,,,,,,,,,,,,,,,,,
151,0,0.0,0.27,,,,,,,,,,,,,,,,,,
153,0,0.0,0.27,,-0.07,0.09,0.93,-0,-0,-1,0.11,,,,,,,,,,
155,0,0.0,0.27,,,,,,,,,,,,,,,,,,
157,0,0.0,0.27,,,,,,,,,,,,,,,,,,
159,0,0.0,0.27,,,,,,,,,,,,,,,,,,
161,0,0.0,0.27,,,,,,,,,,,,,,,,,,
163,0,0.0,0.27,,-0.13,0.05,1.02,1,0,-0,0.14,0,2040,0,0.0,0.0,0.0,0.0,0,0,0.0
165,0,0.0,0.26,,,,,,,,,,,,,,,,,,
167,0,0.0,0.27,,,,,,,,,,,,,,,,,,
169,0,0.0,0.27,,,,,,,,,,,,,,,,,,
171,0,0.0,0.27,,,,,,,,,,,,,,,,,,
173,0,0.0,0.27,,0.06,0.03,0.96,-0,-1,-0,0.07,,,,,,,,,,
175,0,0.0,0.28,,,,,,,,,,,,,,,,,,
177,0,0.0,0.27,,,,,,,,,,,,,,,,,,
179,0,0.0,0.27,,,,,,,,,,,,,,,,,,
181,0,0.0,0.27,,,,,,,,,,,,,,,,,,
183,0,0.0,0.27,,-0.08,0.1,0.92,-0,0,-1,0.13,0,2040,0,0.0,0.0,0.0,0.0,0,0,0.0
185,0,0.0,0.27,,,,,,,,,,,,,,,,,,
187,0,0.0,0.27,,,,,,,,,,,,,,,,,,
189,0,0.0,0.27,,,,,,,,,,,,,,,,,,
191,0,0.0,0.27,,,,,,,,,,,,,,,,,,
193,0,0.0,0.27,,-0.17,0.06,1.02,0,0,-0,0.18,,,,,,,,,,
195,0,0.0,0.27,,,,,,,,,,,,,,,,,,
197,0,0.0,0.27,,,,,,,,,,,,,,,,,,
199,0,0.0,0.27,,,,,,,,,,,,,,,,,,
201,0,0.0,0.27,,,,,,,,,,,,,,,,,,
203,0,0.0,0.27,,0.04,0.08,0.99,0,-0,-0,0.09,0,2040,0,0.0,0.0,0.0,0.0,0,0,0.0
205,0,0.0,0.28,,,,,,,,,,,,,,,,,,
207,0,0.0,0.28,,,,,,,,,,,,,,,,,,
209,0,0.0,0.28,,,,,,,,,,,,,,,,,,
211,0,0.0,0.28,,,,,,,,,,,,,,,,,,
213,0,0.0,0.27,,-0.16,0.09,0.94,-0,0,-1,0.18,,,,,,,,,,
215,0,0.0,0.28,,,,,,,,,,,,,,,,,,
217,0,0.0,0.27,,,,,,,,,,,,,,,,,,
219,0,0.0,0.28,,,,,,,,,,,,,,,,,,
221,0,0.0,0.28,,,,,,,,,,,,,,,,,,
223,0,0.0,0.27,,-0.11,0.02,1.05,1,-1,-0,0.11,0,2040,0,0.0,0.0,0.0,0.0,0,0,0.0
225,0,0.0,0.28,,,,,,,,,,,,,,,,,,
227,0,0.0,0.27,,,,,,,,,,,,,,,,,,
229,0,0.0,0.28,,,,,,,,,,,,,,,,,,
231,0,0.0,0.28,,,,,,,,,,,,,,,,,,
233,0,0.0,0.29,,0.06,0.08,0.96,0,-0,-0,0.1,,,,,,,,,,
235,0,0.0,0.28,,,,,,,,,,,,,,,,,,
237,0,0.0,0.29,,,,,,,,,,,,,,,,,,
239,0,0.0,0.28,,,,,,,,,,,,,,,,,,
241,0,0.0,0.28,,,,,,,,,,,,,,,,,,
243,0,0.0,0.28,,-0.14,0.12,0.95,-0,-0,-1,0.19,0,2040,0,0.0,0.0,0.0,0.0,0,0,0.0
245,0,0.0,0.28,,,,,,,,,,,,,,,,,,
247,0,0.0,0.28,,,,,,,,,,,,,,,,,,
249,0,0.0,0.28,,,,,,,,,,,,,,,,,,
251,0,0.0,0.28,,,,,,,,,,,,,,,,,,
253,0,0.0,0.28,,-0.13,0.02,0.95,1,-1,-0,0.13,,,,,,,,,,
255,0,0.0,0.28,,,,,,,,,,,,,,,,,,
257,0,0.0,0.28,,,,,,,,,,,,,,,,,,
259,0,0.0,0.28,,,,,,,,,,,,,,,,,,
261,0,0.0,0.28,,,,,,,,,,,,,,,,,,
263,0,0.0,0.29,,0.04,0.12,0.99,-0,0,-0,0.13,0,2040,0,0.0,0.0,0.0,0.0,0,0,0.0
265,0,0.0,0.28,,,,,,,,,,,,,,,,,,
267,0,0.0,0.29,,,,,,,,,,,,,,,,,,
269,0,0.0,0.29,,,,,,,,,,,,,,,,,,
271,0,0.0,0.28,,,,,,,,,,,,,,,,,,
273,0,0.0,0.28,,-0.24,0.09,1.0,-0,0,-1,0.26,,,,,,,,,,
275,0,0.0,0.28,,,,,,,,,,,,,,,,,,
277,0,0.0,0.28,,,,,,,,,,,,,,,,,,
279,0,0.0,0.28,,,,,,,,,,,,,,,,,,
281,0,0.0,0.28,,,,,,,,,,,,,,,,,,
283,0,0.0,0.29,,-0.06,-0.0,1.03,1,-1,-0,0.06,0,2040,0,0.0,0.0,0.0,0.0,0,0,0.0
285,0,0.0,0.29,,,,,,,,,,,,,,,,,,
287,0,0.0,0.29,,,,,,,,,,,,,,,,,,
289,0,0.0,0.29,,,,,,,,,,,,,,,,,,
291,0,0.0,0.3,,,,,,,,,,,,,,,,,,
293,0,0.0,0.29,,0.01,0.06,0.93,0,0,-0,0.07,,,,,,,,,,
295,0,0.0,0.29,,,,,,,,,,,,,,,,,,
297,0,0.0,0.29,,,,,,,,,,,,,,,,,,
299,0,0.0,0.29,,,,,,,,,,,,,,,,,,
301,0,0.0,0.29,,,,,,,,,,,,,,,,,,
303,0,0.0,0.29,,-0.24,0.13,1.06,-0,-0,-1,0.27,0,2040,0,0.0,0.0,0.0,0.0,0,0,0.0
305,0,0.0,0.29,,,,,,,,,,,,,,,,,,
307,0,0.0,0.29,,,,,,,,,,,,,,,,,,
309,0,0.0,0.29,,,,,,,,,,,,,,,,,,
311,0,0.0,0.29,,,,,,,,,,,,,,,,,,
313,0,0.0,0.29,,-0.08,0.01,0.91,0,-1,0,0.08,,,,,,,,,,
315,0,0.0,0.29,,,,,,,,,,,,,,,,,,
317,0,0.0,0.29,,,,,,,,,,,,,,,,,,
319,0,0.0,0.29,,,,,,,,,,,,,,,,,,
321,0,0.0,0.3,,,,,,,,,,,,,,,,,,
323,0,0.0,0.29,,0.04,0.13,0.96,0,0,-0,0.14,0,2040,0,0.0,0.0,0.0,0.0,0,0,0.0
325,0,0.0,0.29,,,,,,,,,,,,,,,,,,
327,0,0.0,0.29,,,,,,,,,,,,,,,,,,
329,0,0.0,0.29,,,,,,,,,,,,,,,,,,
331,0,0.0,0.29,,,,,,,,,,,,,,,,,,
333,0,0.0,0.29,,-0.24,0.11,1.06,0,-0,-1,0.27,,,,,,,,,,
335,0,0.0,0.29,,,,,,,,,,,,,,,,,,
337,0,0.0,0.29,,,,,,,,,,,,,,,,,,
339,0,0.0,0.29,,,,,,,,,,,,,,,,,,
341,0,0.0,0.29,,,,,,,,,,,,,,,,,,
343,0,0.0,0.29,,0.01,-0.02,0.96,0,-1,0,0.02,0,2040,0,0.0,0.0,0.0,0.0,0,0,0.0
345,0,0.0,0.3,,,,,,,,,,,,,,,,,,
347,0,0.0,0.3,,,,,,,,,,,,,,,,,,
349,0,0.0,0.31,,,,,,,,,,,,,,,,,,
351,0,0.0,0.3,,,,,,,,,,,,,,,,,,
353,0,0.0,0.3,,-0.02,0.08,0.93,-0,0,-0,0.08,,,,,,,,,,
355,0,0.0,0.3,,,,,,,,,,,,,,,,,,
357,0,0.0,0.3,,,,,,,,,,,,,,,,,,
359,0,0.0,0.3,,,,,,,,,,,,,,,,,,
361,0,0.0,0.3,,,,,,,,,,,,,,,,,,
363,0,0.0,0.3,,-0.26,0.12,1.12,-0,0,-1,0.28,0,2040,0,0.0,0.0,0.0,0.0,0,0,0.0
365,0,0.0,0.3,,,,,,,,,,,,,,,,,,
367,0,0.0,0.3,,,,,,,,,,,,,,,,,,
369,0,0.0,0.3,,,,,,,,,,,,,,,,,,
371,0,0.0,0.3,,,,,,,,,,,,,,,,,,
373,0,0.0,0.3,,-0.03,0.03,0.94,0,-1,-0,0.05,,,,,,,,,,
375,0,0.0,0.3,,,,,,,,,,,,,,,,,,
377,0,0.0,0.3,,,,,,,,,,,,,,,,,,
379,0,0.0,0.31,,,,,,,,,,,,,,,,,,
381,0,0.0,0.3,,,,,,,,,,,,,,,,,,
383,0,0.0,0.3,,0.02,0.12,0.94,-0,0,-0,0.12,0,2040,0,0.0,0.0,0.0,0.0,0,0,0.0
385,0,0.0,0.3,,,,,,,,,,,,,,,,,,
387,0,0.0,0.3,,,,,,,,,,,,,,,,,,
389,0,0.0,0.3,,,,,,,,,,,,,,,,,,
391,0,0.0,0.3,,,,,,,,,,,,,,,,,,
393,0,0.0,0.3,,-0.19,0.08,1.07,0,-0,-1,0.2,,,,,,,,,,
395,0,0.0,0.3,,,,,,,,,,,,,,,,,,
397,0,0.0,0.3,,,,,,,,,,,,,,,,,,
399,0,0.0,0.3,,,,,,,,,,,,,,,,,,
401,0,0.0,0.3,,,,,,,,,,,,,,,,,,
403,0,0.0,0.31,,0.05,0.0,0.95,0,-1,0,0.05,0,2040,0,0.0,0.0,0.0,0.0,0,0,0.0
405,0,0.0,0.31,,,,,,,,,,,,,,,,,,
407,0,0.0,0.32,,,,,,,,,,,,,,,,,,
409,0,0.0,0.31,,,,,,,,,,,,,,,,,,
411,0,0.0,0.31,,,,,,,,,,,,,,,,,,
413,0,0.0,0.31,,-0.04,0.07,0.92,-0,0,-0,0.08,,,,,,,,,,
415,0,0.0,0.31,,,,,,,,,,,,,,,,,,
417,0,0.0,0.31,,,,,,,,,,,,,,,,,,
419,0,0.0,0.31,,,,,,,,,,,,,,,,,,
421,0,0.0,0.31,,,,,,,,,,,,,,,,,,
423,0,0.0,0.31,,-0.23,0.11,1.08,0,-0,-0,0.25,0,2040,0,0.0,0.0,0.0,0.0,0,0,0.0
425,0,0.0,0.31,,,,,,,,,,,,,,,,,,
427,0,0.0,0.3,,,,,,,,,,,,,,,,,,
429,0,0.0,0.31,,,,,,,,,,,,,,,,,,
431,0,0.0,0.31,,,,,,,,,,,,,,,,,,
433,0,0.0,0.31,,0.0,0.05,0.96,0,-1,-0,0.05,,,,,,,,,,
435,0,0.0,0.31,,,,,,,,,,,,,,,,,,
437,0,0.0,0.32,,,,,,,,,,,,,,,,,,
439,0,0.0,0.31,,,,,,,,,,,,,,,,,,
441,0,0.0,0.31,,,,,,,,,,,,,,,,,,
443,0,0.0,0.31,,-0.03,0.07,0.92,-0,-0,-0,0.08,0,2040,0,0.0,0.0,0.0,0.0,0,0,0.0
445,0,0.0,0.31,,,,,,,,,,,,,,,,,,
447,0,0.0,0.31,,,,,,,,,,,,,,,,,,
449,0,0.0,0.31,,,,,,,,,,,,,,,,,,
451,0,0.0,0.31,,,,,,,,,,,,,,,,,,
453,0,0.0,0.31,,-0.13,0.06,1.04,1,0,-0,0.15,,,,,,,,,,
455,0,0.0,0.31,,,,,,,,,,,,,,,,,,
457,0,0.0,0.31,,,,,,,,,,,,,,,,,,
459,0,0.0,0.31,,,,,,,,,,,,,,,,,,
461,0,0.0,0.31,,,,,,,,,,,,,,,,,,
463,0,0.0,0.32,,0.06,0.02,0.98,0,-1,-0,0.06,0,2040,0,0.0,0.0,0.0,0.0,0,0,0.0
465,0,0.0,0.33,,,,,,,,,,,,,,,,,,
467,0,0.0,0.32,,,,,,,,,,,,,,,,,,
469,0,0.0,0.32,,,,,,,,,,,,,,,,,,
471,0,0.0,0.32,,,,,,,,,,,,,,,,,,
473,0,0.0,0.32,,-0.06,0.09,0.89,-0,0,-1,0.11,,,,,,,,,,
475,0,0.0,0.32,,,,,,,,,,,,,,,,,,
477,0,0.0,0.32,,,,,,,,,,,,,,,,,,
479,0,0.0,0.32,,,,,,,,,,,,,,,,,,
481,0,0.0,0.32,,,,,,,,,,,,,,,,,,
483,0,0.0,0.32,,-0.18,0.08,1.04,0,0,-0,0.2,0,2040,0,0.0,0.0,0.0,0.0,0,0,0.0
485,0,0.0,0.32,,,,,,,,,,,,,,,,,,
487,0,0.0,0.32,,,,,,,,,,,,,,,,,,
489,0,0.0,0.32,,,,,,,,,,,,,,,,,,
491,0,0.0,0.31,,,,,,,,,,,,,,,,,,
493,0,0.0,0.32,,0.03,0.07,0.98,0,-0,-0,0.08,,,,,,,,,,
495,0,0.0,0.33,,,,,,,,,,,,,,,,,,
497,0,0.0,0.32,,,,,,,,,,,,,,,,,,
499,0,0.0,0.32,,,,,,,,,,,,,,,,,,
501,0,0.0,0.32,,,,,,,,,,,,,,,,,,
503,0,0.0,0.32,,-0.14,0.09,0.92,-0,0,-1,0.16,0,2040,0,0.0,0.0,0.0,0.0,0,0,0.0
505,0,0.0,0.32,,,,,,,,,,,,,,,,,,
507,0,0.0,0.32,,,,,,,,,,,,,,,,,,
509,0,0.0,0.32,,,,,,,,,,,,,,,,,,
511,0,0.0,0.32,,,,,,,,,,,,,,,,,,
513,0,0.0,0.32,,-0.12,0.03,1.04,1,-0,0,0.13,,,,,,,,,,
515,0,0.0,0.32,,,,,,,,,,,,,,,,,,
517,0,0.0,0.32,,,,,,,,,,,,,,,,,,
519,0,0.0,0.32,,,,,,,,,,,,,,,,,,
521,0,0.0,0.32,,,,,,,,,,,,,,,,,,
523,0,0.0,0.34,,0.06,0.07,0.94,0,-0,-0,0.09,0,2040,0,0.0,0.0,0.0,0.0,0,0,0.0
525,0,0.0,0.33,,,,,,,,,,,,,,,,,,
527,0,0.0,0.33,,,,,,,,,,,,,,,,,,
529,0,0.0,0.33,,,,,,,,,,,,,,,,,,
531,0,0.0,0.33,,,,,,,,,,,,,,,,,,
533,0,0.0,0.33,,-0.12,0.13,0.94,-0,-0,-1,0.17,,,,,,,,,,
535,0,0.0,0.33,,,,,,,,,,,,,,,,,,
537,0,0.0,0.32,,,,,,,,,,,,,,,,,,
539,0,0.0,0.33,,,,,,,,,,,,,,,,,,
541,0,0.0,0.33,,,,,,,,,,,,,,,,,,
543,0,0.0,0.33,,-0.14,0.02,0.94,1,-1,-0,0.14,0,2040,0,0.0,0.0,0.0,0.0,0,0,0.0
545,0,0.0,0.33,,,,,,,,,,,,,,,,,,
547,0,0.0,0.33,,,,,,,,,,,,,,,,,,
549,0,0.0,0.33,,,,,,,,,,,,,,,,,,
551,0,0.0,0.33,,,,,,,,,,,,,,,,,,
553,0,0.0,0.34,,0.04,0.12,0.98,-0,0,-1,0.12,,,,,,,,,,
555,0,0.0,0.33,,,,,,,,,,,,,,,,,,
557,0,0.0,0.33,,,,,,,,,,,,,,,,,,
559,0,0.0,0.33,,,,,,,,,,,,,,,,,,
561,0,0.0,0.33,,,,,,,,,,,,,,,,,,
563,0,0.0,0.33,,-0.23,0.09,1.0,-0,0,-1,0.25,0,2040,0,0.0,0.0,0.0,0.0,0,0,0.0
565,0,0.0,0.33,,,,,,,,,,,,,,,,,,
567,0,0.0,0.33,,,,,,,,,,,,,,,,,,
569,0,0.0,0.33,,,,,,,,,,,,,,,,,,
571,0,0.0,0.33,,,,,,,,,,,,,,,,,,
573,0,0.0,0.33,,-0.08,0.01,1.03,1,-1,-0,0.09,,,,,,,,,,
575,0,0.0,0.33,,,,,,,,,,,,,,,,,,
577,0,0.0,0.33,,,,,,,,,,,,,,,,,,
579,0,0.0,0.33,,,,,,,,,,,,,,,,,,
581,0,0.0,0.35,,,,,,,,,,,,,,,,,,
583,0,0.0,0.34,,0.02,0.06,0.92,0,0,-0,0.06,0,2040,0,0.0,0.0,0.0,0.0,0,0,0.0
585,0,0.0,0.33,,,,,,,,,,,,,,,,,,
587,0,0.0,0.33,,,,,,,,,,,,,,,,,,
589,0,0.0,0.34,,,,,,,,,,,,,,,,,,
591,0,0.0,0.34,,,,,,,,,,,,,,,,,,
593,0,0.0,0.34,,-0.22,0.13,1.04,-0,-0,-1,0.26,,,,,,,,,,
595,0,0.0,0.34,,,,,,,,,,,,,,,,,,
597,0,0.0,0.34,,,,,,,,,,,,,,,,,,
599,0,0.0,0.33,,,,,,,,,,,,,,,,,,
601,0,0.0,0.34,,,,,,,,,,,,,,,,,,
603,0,0.0,0.34,,-0.08,0.02,0.88,0,-1,0,0.08,0,2040,0,0.0,0.0,0.0,0.0,0,0,0.0
605,0,0.0,0.34,,,,,,,,,,,,,,,,,,
607,0,0.0,0.34,,,,,,,,,,,,,,,,,,
609,0,0.0,0.34,,,,,,,,,,,,,,,,,,
611,0,0.0,0.35,,,,,,,,,,,,,,,,,,
613,0,0.0,0.34,,0.05,0.12,0.95,0,0,-0,0.13,,,,,,,,,,
615,0,0.0,0.34,,,,,,,,,,,,,,,,,,
617,0,0.0,0.34,,,,,,,,,,,,,,,,,,
619,0,0.0,0.34,,,,,,,,,,,,,,,,,,
621,0,0.0,0.34,,,,,,,,,,,,,,,,,,
623,0,0.0,0.34,,-0.24,0.1,1.05,0,-0,-1,0.26,0,2040,0,0.0,0.0,0.0,0.0,0,0,0.0
625,0,0.0,0.34,,,,,,,,,,,,,,,,,,
627,0,0.0,0.34,,,,,,,,,,,,,,,,,,
629,0,0.0,0.34,,,,,,,,,,,,,,,,,,
631,0,0.0,0.34,,,,,,,,,,,,,,,,,,
633,0,0.0,0.34,,-0.01,-0.02,0.97,1,-1,-0,0.02,,,,,,,,,,
635,0,0.0,0.34,,,,,,,,,,,,,,,,,,
637,0,0.0,0.35,,,,,,,,,,,,,,,,,,
639,0,0.0,0.36,,,,,,,,,,,,,,,,,,
641,0,0.0,0.34,,,,,,,,,,,,,,,,,,
643,0,0.0,0.35,,-0.02,0.08,0.93,-0,0,-0,0.08,0,2040,0,0.0,0.0,0.0,0.0,0,0,0.0
645,0,0.0,0.35,,,,,,,,,,,,,,,,,,
647,0,0.0,0.35,,,,,,,,,,,,,,,,,,
649,0,0.0,0.35,,,,,,,,,,,,,,,,,,
651,0,0.0,0.35,,,,,,,,,,,,,,,,,,
653,0,0.0,0.34,,-0.24,0.11,1.12,0,-0,-1,0.26,,,,,,,,,,
655,0,0.0,0.35,,,,,,,,,,,,,,,,,,
657,0,0.0,0.35,,,,,,,,,,,,,,,,,,
659,0,0.0,0.35,,,,,,,,,,,,,,,,,,
661,0,0.0,0.34,,,,,,,,,,,,,,,,,,
663,0,0.0,0.35,,-0.05,0.04,0.93,0,-1,0,0.06,0,2040,0,0.0,0.0,0.0,0.0,0,0,0.0
665,0,0.0,0.34,,,,,,,,,,,,,,,,,,
667,0,0.0,0.35,,,,,,,,,,,,,,,,,,
669,0,0.0,0.36,,,,,,,,,,,,,,,,,,
671,0,0.0,0.35,,,,,,,,,,,,,,,,,,
673,0,0.0,0.35,,0.03,0.12,0.96,-0,0,-0,0.12,,,,,,,,,,
675,0,0.0,0.35,,,,,,,,,,,,,,,,,,
677,0,0.0,0.35,,,,,,,,,,,,,,,,,,
679,0,0.0,0.35,,,,,,,,,,,,,,,,,,
681,0,0.0,0.35,,,,,,,,,,,,,,,,,,
683,0,0.0,0.35,,-0.17,0.08,1.06,0,-0,-1,0.19,0,2040,0,0.0,0.0,0.0,0.0,0,0,0.0
685,0,0.0,0.35,,,,,,,,,,,,,,,,,,
687,0,0.0,0.35,,,,,,,,,,,,,,,,,,
689,0,0.0,0.35,,,,,,,,,,,,,,,,,,
691,0,0.0,0.35,,,,,,,,,,,,,,,,,,
693,0,0.0,0.35,,0.06,0.01,0.9,0,-1,0,0.07,,,,,,,,,,
695,0,0.0,0.35,,,,,,,,,,,,,,,,,,
697,0,0.0,0.37,,,,,,,,,,,,,,,,,,
699,0,0.0,0.35,,,,,,,,,,,,,,,,,,
701,0,0.0,0.35,,,,,,,,,,,,,,,,,,
703,0,0.0,0.36,,-0.03,0.07,0.92,-0,0,-0,0.07,0,2040,0,0.0,0.0,0.0,0.0,0,0,0.0
705,0,0.0,0.36,,,,,,,,,,,,,,,,,,
707,0,0.0,0.36,,,,,,,,,,,,,,,,,,
709,0,0.0,0.35,,,,,,,,,,,,,,,,,,
711,0,0.0,0.36,,,,,,,,,,,,,,,,,,
713,0,0.0,0.35,,-0.19,0.09,1.08,0,-0,-0,0.21,,,,,,,,,,
715,0,0.0,0.36,,,,,,,,,,,,,,,,,,
717,0,0.0,0.35,,,,,,,,,,,,,,,,,,
719,0,0.0,0.35,,,,,,,,,,,,,,,,,,
721,0,0.0,0.35,,,,,,,,,,,,,,,,,,
723,0,0.0,0.35,,0.01,0.03,0.99,0,-1,-0,0.04,0,2040,0,0.0,0.0,0.0,0.0,0,0,0.0
725,0,0.0,0.36,,,,,,,,,,,,,,,,,,
727,0,0.0,0.37,,,,,,,,,,,,,,,,,,
729,0,0.0,0.36,,,,,,,,,,,,,,,,,,
731,0,0.0,0.36,,,,,,,,,,,,,,,,,,
733,0,0.0,0.36,,-0.02,0.07,0.93,-0,-0,-0,0.07,,,,,,,,,,
735,0,0.0,0.36,,,,,,,,,,,,,,,,,,
737,0,0.0,0.36,,,,,,,,,,,,,,,,,,
739,0,0.0,0.36,,,,,,,,,,,,,,,,,,
741,0,0.0,0.36,,,,,,,,,,,,,,,,,,
743,0,0.0,0.36,,-0.08,0.07,1.0,1,0,-0,0.11,0,2040,0,0.0,0.0,0.0,0.0,0,0,0.0
745,0,0.0,0.36,,,,,,,,,,,,,,,,,,
747,0,0.0,0.36,,,,,,,,,,,,,,,,,,
749,0,0.0,0.36,,,,,,,,,,,,,,,,,,
751,0,0.0,0.36,,,,,,,,,,,,,,,,,,
753,0,0.0,0.36,,0.07,0.05,0.94,0,-1,-0,0.09,,,,,,,,,,
755,0,0.0,0.38,,,,,,,,,,,,,,,,,,
757,0,0.0,0.37,,,,,,,,,,,,,,,,,,
759,0,0.0,0.37,,,,,,,,,,,,,,,,,,
761,0,0.0,0.37,,,,,,,,,,,,,,,,,,
763,0,0.0,0.37,,-0.05,0.1,0.9,-0,0,-1,0.11,0,2040,0,0.0,0.0,0.0,0.0,0,0,0.0
765,0,0.0,0.36,,,,,,,,,,,,,,,,,,
767,0,0.0,0.36,,,,,,,,,,,,,,,,,,
769,0,0.0,0.36,,,,,,,,,,,,,,,,,,
771,0,0.0,0.37,,,,,,,,,,,,,,,,,,
773,0,0.0,0.37,,-0.15,0.06,0.98,0,0,-0,0.17,,,,,,,,,,
775,0,0.0,0.37,,,,,,,,,,,,,,,,,,
777,0,0.0,0.37,,,,,,,,,,,,,,,,,,
779,0,0.0,0.36,,,,,,,,,,,,,,,,,,
781,0,0.0,0.36,,,,,,,,,,,,,,,,,,
783,0,0.0,0.37,,0.02,0.09,0.99,-0,-0,-0,0.1,0,2040,0,0.0,0.0,0.0,0.0,0,0,0.0
785,0,0.0,0.38,,,,,,,,,,,,,,,,,,
787,0,0.0,0.37,,,,,,,,,,,,,,,,,,
789,0,0.0,0.37,,,,,,,,,,,,,,,,,,
791,0,0.0,0.37,,,,,,,,,,,,,,,,,,
793,0,0.0,0.37,,-0.16,0.1,0.94,-0,0,-1,0.19,,,,,,,,,,
795,0,0.0,0.37,,,,,,,,,,,,,,,,,,
797,0,0.0,0.37,,,,,,,,,,,,,,,,,,
799,0,0.0,0.37,,,,,,,,,,,,,,,,,,
801,0,0.0,0.37,,,,,,,,,,,,,,,,,,
803,0,0.0,0.37,,-0.11,0.02,1.04,1,-0,-0,0.12,0,2040,0,0.0,0.0,0.0,0.0,0,0,0.0
805,0,0.0,0.37,,,,,,,,,,,,,,,,,,
807,0,0.0,0.37,,,,,,,,,,,,,,,,,,
809,0,0.0,0.37,,,,,,,,,,,,,,,,,,
811,0,0.0,0.37,,,,,,,,,,,,,,,,,,
813,0,0.0,0.38,,0.05,0.06,0.94,0,0,-0,0.08,,,,,,,,,,
815,0,0.0,0.37,,,,,,,,,,,,,,,,,,
817,0,0.0,0.38,,,,,,,,,,,,,,,,,,
819,0,0.0,0.38,,,,,,,,,,,,,,,,,,
821,0,0.0,0.38,,,,,,,,,,,,,,,,,,
823,0,0.0,0.38,,-0.13,0.12,0.96,-0,0,-1,0.18,0,2040,0,0.0,0.0,0.0,0.0,0,0,0.0
825,0,0.0,0.37,,,,,,,,,,,,,,,,,,
827,0,0.0,0.37,,,,,,,,,,,,,,,,,,
829,0,0.0,0.37,,,,,,,,,,,,,,,,,,
831,0,0.0,0.38,,,,,,,,,,,,,,,,,,
833,0,0.0,0.37,,-0.13,0.03,0.97,1,-0,-0,0.13,,,,,,,,,,
835,0,0.0,0.37,,,,,,,,,,,,,,,,,,
837,0,0.0,0.38,,,,,,,,,,,,,,,,,,
839,0,0.0,0.37,,,,,,,,,,,,,,,,,,
841,0,0.0,0.37,,,,,,,,,,,,,,,,,,
843,0,0.0,0.39,,0.05,0.12,0.99,0,0,-0,0.13,0,1980,0,0.0,0.0,0.0,0.0,0,0,0.0
845,0,0.0,0.38,,,,,,,,,,,,,,,,,,
847,0,0.0,0.38,,,,,,,,,,,,,,,,,,
849,0,0.0,0.38,,,,,,,,,,,,,,,,,,
851,0,0.0,0.38,,,,,,,,,,,,,,,,,,
853,0,0.0,0.38,,-0.22,0.09,1.01,-0,0,-1,0.24,,,,,,,,,,
855,0,0.0,0.38,,,,,,,,,,,,,,,,,,
857,0,0.0,0.38,,,,,,,,,,,,,,,,,,
859,0,0.0,0.38,,,,,,,,,,,,,,,,,,
861,0,0.0,0.38,,,,,,,,,,,,,,,,,,
863,0,0.0,0.38,,-0.06,0.01,1.03,1,-1,-0,0.06,0,1980,0,0.0,0.0,0.0,0.0,0,0,0.0
865,0,0.0,0.38,,,,,,,,,,,,,,,,,,
867,0,0.0,0.38,,,,,,,,,,,,,,,,,,
869,0,0.0,0.38,,,,,,,,,,,,,,,,,,
871,0,0.0,0.39,,,,,,,,,,,,,,,,,,
873,0,0.0,0.39,,0.04,0.09,0.92,0,0,-0,0.09,,,,,,,,,,
875,0,0.0,0.38,,,,,,,,,,,,,,,,,,
877,0,0.0,0.38,,,,,,,,,,,,,,,,,,
879,0,0.0,0.39,,,,,,,,,,,,,,,,,,
881,0,0.0,0.38,,,,,,,,,,,,,,,,,,
883,0,0.0,0.38,,-0.2,0.12,1.04,-0,-0,-1,0.24,0,2040,0,0.0,0.0,0.0,0.0,0,0,0.0
885,0,0.0,0.38,,,,,,,,,,,,,,,,,,
887,0,0.0,0.39,,,,,,,,,,,,,,,,,,
889,0,0.0,0.38,,,,,,,,,,,,,,,,,,
891,0,0.0,0.38,,,,,,,,,,,,,,,,,,
893,0,0.0,0.38,,-0.09,0.01,0.88,0,-1,0,0.09,,,,,,,,,,
895,0,0.0,0.38,,,,,,,,,,,,,,,,,,
897,0,0.0,0.39,,,,,,,,,,,,,,,,,,
899,0,0.0,0.38,,,,,,,,,,,,,,,,,,
901,0,0.0,0.4,,,,,,,,,,,,,,,,,,
903,0,0.0,0.39,,0.05,0.13,0.94,0,0,-0,0.14,0,1980,0,0.0,0.0,0.0,0.0,0,0,0.0
905,0,0.0,0.39,,,,,,,,,,,,,,,,,,
907,0,0.0,0.39,,,,,,,,,,,,,,,,,,
909,0,0.0,0.39,,,,,,,,,,,,,,,,,,
911,0,0.0,0.39,,,,,,,,,,,,,,,,,,
913,0,0.0,0.39,,-0.24,0.1,1.05,-0,-0,-1,0.26,,,,,,,,,,
915,0,0.0,0.39,,,,,,,,,,,,,,,,,,
917,0,0.0,0.39,,,,,,,,,,,,,,,,,,
919,0,0.0,0.39,,,,,,,,,,,,,,,,,,
921,0,0.0,0.39,,,,,,,,,,,,,,,,,,
923,0,0.0,0.39,,0.0,-0.02,0.97,0,-1,-0,0.02,0,1980,0,0.0,0.0,0.0,0.0,0,0,0.0
925,0,0.0,0.39,,,,,,,,,,,,,,,,,,
927,0,0.0,0.39,,,,,,,,,,,,,,,,,,
929,0,0.0,0.39,,,,,,,,,,,,,,,,,,
931,0,0.0,0.4,,,,,,,,,,,,,,,,,,
933,0,0.0,0.4,,-0.03,0.1,0.93,-0,1,-0,0.11,,,,,,,,,,
935,0,0.0,0.39,,,,,,,,,,,,,,,,,,
937,0,0.0,0.39,,,,,,,,,,,,,,,,,,
939,0,0.0,0.39,,,,,,,,,,,,,,,,,,
941,0,0.0,0.39,,,,,,,,,,,,,,,,,,
943,0,0.0,0.39,,-0.25,0.1,1.12,-0,-0,-1,0.27,0,2040,0,0.0,0.0,0.0,0.0,0,0,0.0
945,0,0.0,0.39,,,,,,,,,,,,,,,,,,
947,0,0.0,0.39,,,,,,,,,,,,,,,,,,
949,0,0.0,0.39,,,,,,,,,,,,,,,,,,
951,0,0.0,0.39,,,,,,,,,,,,,,,,,,
953,0,0.0,0.39,,-0.05,0.02,0.91,0,-1,0,0.05,,,,,,,,,,
955,0,0.0,0.39,,,,,,,,,,,,,,,,,,
957,0,0.0,0.39,,,,,,,,,,,,,,,,,,
959,0,0.0,0.41,,,,,,,,,,,,,,,,,,
961,0,0.0,0.4,,,,,,,,,,,,,,,,,,
963,0,0.0,0.4,,0.03,0.12,0.94,0,0,-0,0.12,0,2040,0,0.0,0.0,0.0,0.0,0,0,0.0
965,0,0.0,0.4,,,,,,,,,,,,,,,,,,
967,0,0.0,0.4,,,,,,,,,,,,,,,,,,
969,0,0.0,0.4,,,,,,,,,,,,,,,,,,
971,0,0.0,0.4,,,,,,,,,,,,,,,,,,
973,0,0.0,0.4,,-0.17,0.08,1.08,0,-0,-1,0.19,,,,,,,,,,
975,0,0.0,0.4,,,,,,,,,,,,,,,,,,
977,0,0.0,0.4,,,,,,,,,,,,,,,,,,
979,0,0.0,0.4,,,,,,,,,,,,,,,,,,
981,0,0.0,0.4,,,,,,,,,,,,,,,,,,
983,0,0.0,0.4,,-0.0,0.02,0.95,0,-1,-0,0.02,0,2040,0,0.0,0.0,0.0,0.0,0,0,0.0
985,0,0.0,0.4,,,,,,,,,,,,,,,,,,
987,0,0.0,0.4,,,,,,,,,,,,,,,,,,
989,0,0.0,0.41,,,,,,,,,,,,,,,,,,
991,0,0.0,0.4,,,,,,,,,,,,,,,,,,
993,0,0.0,0.4,,-0.06,0.06,0.95,-0,0,-0,0.08,,,,,,,,,,
995,0,0.0,0.4,,,,,,,,,,,,,,,,,,
997,0,0.0,0.41,,,,,,,,,,,,,,,,,,
999,0,0.0,0.4,,,,,,,,,,,,,,,,,,
1001,0,0.0,0.4,,,,,,,,,,,,,,,,,,
1003,0,0.0,0.4,,-0.2,0.08,1.09,0,-0,-1,0.22,0,2040,0,0.0,0.0,0.0,0.0,0,0,0.0
1005,0,0.0,0.4,,,,,,,,,,,,,,,,,,
1007,0,0.0,0.4,,,,,,,,,,,,,,,,,,
1009,0,0.0,0.4,,,,,,,,,,,,,,,,,,
1011,0,0.0,0.4,,,,,,,,,,,,,,,,,,
1013,0,0.0,0.4,,-0.03,0.06,0.96,0,-1,-0,0.07,,,,,,,,,,
1015,0,0.0,0.4,,,,,,,,,,,,,,,,,,
1017,0,0.0,0.41,,,,,,,,,,,,,,,,,,
1019,0,0.0,0.41,,,,,,,,,,,,,,,,,,
1021,0,0.0,0.41,,,,,,,,,,,,,,,,,,
1023,0,0.0,0.41,,-0.04,0.08,0.92,0,-0,-0,0.09,0,2040,0,0.0,0.0,0.0,0.0,0,0,0.0
1025,0,0.0,0.41,,,,,,,,,,,,,,,,,,
1027,0,0.0,0.4,,,,,,,,,,,,,,,,,,
1029,0,0.0,0.41,,,,,,,,,,,,,,,,,,
1031,0,0.0,0.4,,,,,,,,,,,,,,,,,,
1033,0,0.0,0.41,,-0.11,0.08,1.06,1,-0,-0,0.14,,,,,,,,,,
1035,0,0.0,0.41,,,,,,,,,,,,,,,,,,
1037,0,0.0,0.41,,,,,,,,,,,,,,,,,,
1039,0,0.0,0.41,,,,,,,,,,,,,,,,,,
1041,0,0.0,0.41,,,,,,,,,,,,,,,,,,
1043,0,0.0,0.41,13.34,-0.0,0.04,0.99,0,-1,0,0.04,0,2040,0,0.0,0.0,0.0,0.0,0,0,0.0
1045,0,0.0,0.42,,,,,,,,,,,,,,,,,,
1047,0,0.0,0.41,,,,,,,,,,,,,,,,,,
1049,0,0.0,0.41,,,,,,,,,,,,,,,,,,
1051,0,0.0,0.41,,,,,,,,,,,,,,,,,,
1053,0,0.0,0.41,,-0.06,0.08,0.91,-0,-0,-0,0.1,,,,,,,,,,
1055,0,0.0,0.41,,,,,,,,,,,,,,,,,,
1057,0,0.0,0.42,,,,,,,,,,,,,,,,,,
1059,0,0.0,0.41,,,,,,,,,,,,,,,,,,
1061,0,0.0,0.41,,,,,,,,,,,,,,,,,,
1063,0,0.0,0.41,,-0.13,0.07,1.04,0,0,-0,0.15,0,2040,0,0.0,0.0,0.0,0.0,0,0,0.0
1065,0,0.0,0.41,,,,,,,,,,,,,,,,,,
1067,0,0.0,0.41,,,,,,,,,,,,,,,,,,
1069,0,0.0,0.41,,,,,,,,,,,,,,,,,,
1071,0,0.0,0.41,,,,,,,,,,,,,,,,,,
1073,0,0.0,0.41,,-0.02,0.1,1.04,0,-1,-0,0.1,,,,,,,,,,
1075,0,0.0,0.42,,,,,,,,,,,,,,,,,,
1077,0,0.0,0.41,,,,,,,,,,,,,,,,,,
1079,0,0.0,0.42,,,,,,,,,,,,,,,,,,
1081,0,0.0,0.42,,,,,,,,,,,,,,,,,,
1083,0,0.0,0.42,,-0.1,0.07,0.95,0,-0,-0,0.12,0,2040,0,0.0,0.0,0.0,0.0,0,0,0.0
1085,0,0.0,0.42,,,,,,,,,,,,,,,,,,
1087,0,0.0,0.42,,,,,,,,,,,,,,,,,,
1089,0,0.0,0.41,,,,,,,,,,,,,,,,,,
1091,0,0.0,0.41,,,,,,,,,,,,,,,,,,
1093,0,0.0,0.42,,-0.08,0.03,1.06,0,0,-0,0.09,,,,,,,,,,
1095,0,0.0,0.42,,,,,,,,,,,,,,,,,,
1097,0,0.0,0.42,,,,,,,,,,,,,,,,,,
1099,0,0.0,0.42,,,,,,,,,,,,,,,,,,
1101,0,0.0,0.42,,,,,,,,,,,,,,,,,,
1103,0,0.0,0.43,,0.0,0.08,1.01,0,-0,-0,0.08,0,2040,0,0.0,0.0,0.0,0.0,0,0,0.0
1105,0,0.0,0.42,,,,,,,,,,,,,,,,,,
1107,0,0.0,0.42,,,,,,,,,,,,,,,,,,
1109,0,0.0,0.42,,,,,,,,,,,,,,,,,,
1111,0,0.0,0.42,,,,,,,,,,,,,,,,,,
1113,0,0.0,0.42,,-0.09,0.1,0.95,0,0,-0,0.14,,,,,,,,,,
1115,0,0.0,0.42,,,,,,,,,,,,,,,,,,
1117,0,0.0,0.42,,,,,,,,,,,,,,,,,,
1119,0,0.0,0.42,,,,,,,,,,,,,,,,,,
1121,0,0.0,0.42,,,,,,,,,,,,,,,,,,
1123,0,0.0,0.42,,-0.1,0.04,0.97,0,-0,-0,0.11,0,2040,0,0.0,0.0,0.0,0.0,0,0,0.0
1125,0,0.0,0.42,,,,,,,,,,,,,,,,,,
1127,0,0.0,0.42,,,,,,,,,,,,,,,,,,
1129,0,0.0,0.42,,,,,,,,,,,,,,,,,,
1131,0,0.0,0.42,,,,,,,,,,,,,,,,,,
1133,0,0.0,0.43,,-0.01,0.12,1.02,0,-0,-0,0.12,,,,,,,,,,
1135,0,0.0,0.42,,,,,,,,,,,,,,,,,,
1137,0,0.0,0.42,,,,,,,,,,,,,,,,,,
1139,0,0.0,0.42,,,,,,,,,,,,,,,,,,
1141,0,0.0,0.42,,,,,,,,,,,,,,,,,,
1143,0,0.0,0.42,,-0.21,0.07,0.97,0,-0,-1,0.23,0,2040,0,0.0,0.0,0.0,0.0,0,0,0.0
1145,0,0.0,0.42,,,,,,,,,,,,,,,,,,
1147,0,0.0,0.43,,,,,,,,,,,,,,,,,,
1149,0,0.0,0.43,,,,,,,,,,,,,,,,,,
1151,0,0.0,0.42,,,,,,,,,,,,,,,,,,
1153,0,0.0,0.43,,-0.08,0.02,1.05,0,-1,-0,0.08,,,,,,,,,,
1155,0,0.0,0.43,,,,,,,,,,,,,,,,,,
1157,0,0.0,0.43,,,,,,,,,,,,,,,,,,
1159,0,0.0,0.43,,,,,,,,,,,,,,,,,,
1161,0,0.0,0.44,,,,,,,,,,,,,,,,,,
1163,0,0.0,0.43,,-0.02,0.09,0.96,0,0,-0,0.09,0,2040,0,0.0,0.0,0.0,0.0,0,0,0.0
1165,0,0.0,0.43,,,,,,,,,,,,,,,,,,
1167,0,0.0,0.43,,,,,,,,,,,,,,,,,,
1169,0,0.0,0.43,,,,,,,,,,,,,,,,,,
1171,0,0.0,0.43,,,,,,,,,,,,,,,,,,
1173,0,0.0,0.43,,-0.18,0.13,1.02,0,-0,-1,0.22,,,,,,,,,,
1175,0,0.0,0.43,,,,,,,,,,,,,,,,,,
1177,0,0.0,0.43,,,,,,,,,,,,,,,,,,
1179,0,0.0,0.43,,,,,,,,,,,,,,,,,,
1181,0,0.0,0.43,,,,,,,,,,,,,,,,,,
1183,0,0.0,0.43,,-0.1,0.04,0.92,1,-1,-0,0.11,0,2040,0,0.0,0.0,0.0,0.0,0,0,0.0
1185,0,0.0,0.43,,,,,,,,,,,,,,,,,,
1187,0,0.0,0.43,,,,,,,,,,,,,,,,,,
1189,0,0.0,0.43,,,,,,,,,,,,,,,,,,
1191,0,0.0,0.44,,,,,,,,,,,,,,,,,,
1193,0,0.0,0.43,,0.01,0.11,0.95,0,0,-0,0.11,,,,,,,,,,
1195,0,0.0,0.44,,,,,,,,,,,,,,,,,,
1197,0,0.0,0.43,,,,,,,,,,,,,,,,,,
1199,0,0.0,0.43,,,,,,,,,,,,,,,,,,
1201,0,0.0,0.43,,,,,,,,,,,,,,,,,,
1203,0,0.0,0.43,,-0.2,0.11,1.02,0,-0,-1,0.23,0,2040,0,0.0,0.0,0.0,0.0,0,0,0.0
1205,0,0.0,0.43,,,,,,,,,,,,,,,,,,
1207,0,0.0,0.43,,,,,,,,,,,,,,,,,,
1209,0,0.0,0.43,,,,,,,,,,,,,,,,,,
1211,0,0.0,0.44,,,,,,,,,,,,,,,,,,
1213,0,0.0,0.43,,-0.02,0.02,1.0,1,-1,-0,0.03,,,,,,,,,,
1215,0,0.0,0.44,,,,,,,,,,,,,,,,,,
1217,0,0.0,0.43,,,,,,,,,,,,,,,,,,
1219,0,0.0,0.45,,,,,,,,,,,,,,,,,,
1221,0,0.0,0.44,,,,,,,,,,,,,,,,,,
1223,0,0.0,0.44,,-0.05,0.1,0.92,0,0,-0,0.12,0,2040,0,0.0,0.0,0.0,0.0,0,0,0.0
1225,0,0.0,0.44,,,,,,,,,,,,,,,,,,
1227,0,0.0,0.44,,,,,,,,,,,,,,,,,,
1229,0,0.0,0.44,,,,,,,,,,,,,,,,,,
1231,0,0.0,0.44,,,,,,,,,,,,,,,,,,
1233,0,0.0,0.44,,-0.21,0.11,1.06,0,-1,-1,0.23,,,,,,,,,,
1235,0,0.0,0.44,,,,,,,,,,,,,,,,,,
1237,0,0.0,0.44,,,,,,,,,,,,,,,,,,
1239,0,0.0,0.44,,,,,,,,,,,,,,,,,,
1241,0,0.0,0.44,,,,,,,,,,,,,,,,,,
1243,0,0.0,0.44,,-0.07,0.03,0.93,0,-1,-0,0.07,0,2040,0,0.0,0.0,0.0,0.0,0,0,0.0
1245,0,0.0,0.44,,,,,,,,,,,,,,,,,,
1247,0,0.0,0.44,,,,,,,,,,,,,,,,,,
1249,0,0.0,0.45,,,,,,,,,,,,,,,,,,
1251,0,0.0,0.44,,,,,,,,,,,,,,,,,,
1253,0,0.0,0.44,,-0.0,0.1,0.95,0,0,-0,0.1,,,,,,,,,,
1255,0,0.0,0.44,,,,,,,,,,,,,,,,,,
1257,0,0.0,0.44,,,,,,,,,,,,,,,,,,
1259,0,0.0,0.44,,,,,,,,,,,,,,,,,,
1261,0,0.0,0.44,,,,,,,,,,,,,,,,,,
1263,0,0.0,0.45,,-0.13,0.08,1.09,0,-0,-1,0.15,0,2040,0,0.0,0.0,0.0,0.0,0,0,0.0
1265,0,0.0,0.44,,,,,,,,,,,,,,,,,,
1267,0,0.0,0.44,,,,,,,,,,,,,,,,,,
1269,0,0.0,0.45,,,,,,,,,,,,,,,,,,
1271,0,0.0,0.45,,,,,,,,,,,,,,,,,,
1273,0,0.0,0.45,,-0.02,0.02,0.99,0,-1,-0,0.03,,,,,,,,,,
1275,0,0.0,0.44,,,,,,,,,,,,,,,,,,
1277,0,0.0,0.46,,,,,,,,,,,,,,,,,,
1279,0,0.0,0.45,,,,,,,,,,,,,,,,,,
1281,0,0.0,0.45,,,,,,,,,,,,,,,,,,
1283,0,0.0,0.45,,-0.08,0.05,0.94,-0,0,-1,0.09,0,2100,0,0.0,0.0,0.0,0.0,0,0,0.0
1285,0,0.0,0.45,,,,,,,,,,,,,,,,,,
1287,0,0.0,0.45,,,,,,,,,,,,,,,,,,
1289,0,0.0,0.44,,,,,,,,,,,,,,,,,,
1291,0,0.0,0.45,,,,,,,,,,,,,,,,,,
1293,0,0.0,0.45,,-0.17,0.06,1.08,0,0,-1,0.18,,,,,,,,,,
1295,0,0.0,0.45,,,,,,,,,,,,,,,,,,
1297,0,0.0,0.45,,,,,,,,,,,,,,,,,,
1299,0,0.0,0.45,,,,,,,,,,,,,,,,,,
1301,0,0.0,0.45,,,,,,,,,,,,,,,,,,
1303,0,0.0,0.45,,-0.05,0.05,1.01,0,-1,-0,0.07,0,2100,0,0.0,0.0,0.0,0.0,0,0,0.0
1305,0,0.0,0.45,,,,,,,,,,,,,,,,,,
1307,0,0.0,0.46,,,,,,,,,,,,,,,,,,
1309,0,0.0,0.45,,,,,,,,,,,,,,,,,,
1311,0,0.0,0.45,,,,,,,,,,,,,,,,,,
1313,0,0.0,0.45,,-0.09,0.06,0.93,0,-0,-0,0.1,,,,,,,,,,
1315,0,0.0,0.45,,,,,,,,,,,,,,,,,,
1317,0,0.0,0.45,,,,,,,,,,,,,,,,,,
1319,0,0.0,0.45,,,,,,,,,,,,,,,,,,
1321,0,0.0,0.45,,,,,,,,,,,,,,,,,,
1323,0,0.0,0.45,,-0.09,0.06,1.07,0,0,-0,0.11,0,2040,0,0.0,0.0,0.0,0.0,0,0,0.0
1325,0,0.0,0.45,,,,,,,,,,,,,,,,,,
1327,0,0.0,0.45,,,,,,,,,,,,,,,,,,
1329,0,0.0,0.45,,,,,,,,,,,,,,,,,,
1331,0,0.0,0.45,,,,,,,,,,,,,,,,,,
1333,0,0.0,0.46,,-0.02,0.03,1.01,0,-1,0,0.04,,,,,,,,,,
1335,0,0.0,0.47,,,,,,,,,,,,,,,,,,
1337,0,0.0,0.46,,,,,,,,,,,,,,,,,,
1339,0,0.0,0.46,,,,,,,,,,,,,,,,,,
1341,0,0.0,0.46,,,,,,,,,,,,,,,,,,
1343,0,0.0,0.46,,-0.08,0.07,0.91,-0,-0,-0,0.11,0,2100,0,0.0,0.0,0.0,0.0,0,0,0.0
1345,0,0.0,0.46,,,,,,,,,,,,,,,,,,
1347,0,0.0,0.46,,,,,,,,,,,,,,,,,,
1349,0,0.0,0.46,,,,,,,,,,,,,,,,,,
1351,0,0.0,0.46,,,,,,,,,,,,,,,,,,
1353,0,0.0,0.46,,-0.12,0.06,0.99,0,0,-0,0.13,,,,,,,,,,
1355,0,0.0,0.46,,,,,,,,,,,,,,,,,,
1357,0,0.0,0.46,,,,,,,,,,,,,,,,,,
1359,0,0.0,0.46,,,,,,,,,,,,,,,,,,
1361,0,0.0,0.46,,,,,,,,,,,,,,,,,,
1363,0,0.0,0.46,,-0.04,0.09,1.03,0,-0,-0,0.09,0,2100,0,0.0,0.0,0.0,0.0,0,0,0.0
1365,0,0.0,0.46,,,,,,,,,,,,,,,,,,
1367,0,0.0,0.46,,,,,,,,,,,,,,,,,,
1369,0,0.0,0.46,,,,,,,,,,,,,,,,,,
1371,0,0.0,0.46,,,,,,,,,,,,,,,,,,
1373,0,0.0,0.46,,-0.2,0.08,0.92,0,-0,-1,0.22,,,,,,,,,,
1375,0,0.0,0.46,,,,,,,,,,,,,,,,,,
1377,0,0.0,0.46,,,,,,,,,,,,,,,,,,
1379,0,0.0,0.46,,,,,,,,,,,,,,,,,,
1381,0,0.0,0.46,,,,,,,,,,,,,,,,,,
1383,0,0.0,0.46,,-0.06,0.05,1.08,0,-0,-0,0.08,0,2040,0,0.0,0.0,0.0,0.0,0,0,0.0
1385,0,0.0,0.46,,,,,,,,,,,,,,,,,,
1387,0,0.0,0.47,,,,,,,,,,,,,,,,,,
1389,0,0.0,0.46,,,,,,,,,,,,,,,,,,
1391,0,0.0,0.46,,,,,,,,,,,,,,,,,,
1393,0,0.0,0.48,,-0.03,0.07,0.95,-0,0,-0,0.07,,,,,,,,,,
1395,0,0.0,0.47,,,,,,,,,,,,,,,,,,
1397,0,0.0,0.47,,,,,,,,,,,,,,,,,,
1399,0,0.0,0.46,,,,,,,,,,,,,,,,,,
1401,0,0.0,0.46,,,,,,,,,,,,,,,,,,
1403,0,0.0,0.46,,-0.16,0.15,0.96,-0,-0,-1,0.21,0,2100,0,0.0,0.0,0.0,0.0,0,0,0.0
1405,0,0.0,0.46,,,,,,,,,,,,,,,,,,
1407,0,0.0,0.47,,,,,,,,,,,,,,,,,,
1409,0,0.0,0.47,,,,,,,,,,,,,,,,,,
1411,0,0.0,0.46,,,,,,,,,,,,,,,,,,
1413,0,0.0,0.46,,-0.09,0.05,0.91,0,-1,-0,0.1,,,,,,,,,,
1415,0,0.0,0.47,,,,,,,,,,,,,,,,,,
1417,0,0.0,0.47,,,,,,,,,,,,,,,,,,
1419,0,0.0,0.47,,,,,,,,,,,,,,,,,,
1421,0,0.0,0.48,,,,,,,,,,,,,,,,,,
1423,0,0.0,0.47,,-0.0,0.1,0.97,0,0,-0,0.1,0,2040,0,0.0,0.0,0.0,0.0,0,0,0.0
1425,0,0.0,0.47,,,,,,,,,,,,,,,,,,
1427,0,0.0,0.47,,,,,,,,,,,,,,,,,,
1429,0,0.0,0.47,,,,,,,,,,,,,,,,,,
1431,0,0.0,0.47,,,,,,,,,,,,,,,,,,
1433,0,0.0,0.47,,-0.24,0.13,1.03,0,-0,-1,0.27,,,,,,,,,,
1435,0,0.0,0.47,,,,,,,,,,,,,,,,,,
1437,0,0.0,0.47,,,,,,,,,,,,,,,,,,
1439,0,0.0,0.47,,,,,,,,,,,,,,,,,,
1441,0,0.0,0.47,,,,,,,,,,,,,,,,,,
1443,0,0.0,0.47,,-0.0,0.05,0.98,0,-0,-0,0.05,0,2040,0,0.0,0.0,0.0,0.0,0,0,0.0
1445,0,0.0,0.47,,,,,,,,,,,,,,,,,,
1447,0,0.0,0.47,,,,,,,,,,,,,,,,,,
1449,0,0.0,0.49,,,,,,,,,,,,,,,,,,
1451,0,0.0,0.48,,,,,,,,,,,,,,,,,,
1453,0,0.0,0.48,,-0.08,0.09,0.95,-0,1,-0,0.12,,,,,,,,,,
1455,0,0.0,0.47,,,,,,,,,,,,,,,,,,
1457,0,0.0,0.47,,,,,,,,,,,,,,,,,,
1459,0,0.0,0.47,,,,,,,,,,,,,,,,,,
1461,0,0.0,0.47,,,,,,,,,,,,,,,,,,
1463,0,0.0,0.47,,-0.25,0.14,1.05,0,-0,-1,0.29,0,2100,0,0.0,0.0,0.0,0.0,0,0,0.0
1465,0,0.0,0.47,,,,,,,,,,,,,,,,,,
1467,0,0.0,0.48,,,,,,,,,,,,,,,,,,
1469,0,0.0,0.47,,,,,,,,,,,,,,,,,,
1471,0,0.0,0.48,,,,,,,,,,,,,,,,,,
1473,0,0.0,0.48,,-0.11,0.05,0.95,0,-0,-0,0.11,,,,,,,,,,
1475,0,0.0,0.47,,,,,,,,,,,,,,,,,,
1477,0,0.0,0.48,,,,,,,,,,,,,,,,,,
1479,0,0.0,0.48,,,,,,,,,,,,,,,,,,
1481,0,0.0,0.48,,,,,,,,,,,,,,,,,,
1483,0,0.0,0.48,,-0.1,0.1,0.97,-0,1,-1,0.14,0,2100,0,0.0,0.0,0.0,0.0,0,0,0.0
1485,0,0.0,0.48,,,,,,,,,,,,,,,,,,
1487,0,0.0,0.48,,,,,,,,,,,,,,,,,,
1489,0,0.0,0.48,,,,,,,,,,,,,,,,,,
1491,0,0.0,0.47,,,,,,,,,,,,,,,,,,
1493,0,0.0,0.48,,-0.14,0.11,1.07,0,1,-1,0.17,,,,,,,,,,
1495,0,0.0,0.48,,,,,,,,,,,,,,,,,,
1497,0,0.0,0.48,,,,,,,,,,,,,,,,,,
1499,0,0.0,0.48,,,,,,,,,,,,,,,,,,
1501,0,0.0,0.48,,,,,,,,,,,,,,,,,,
1503,0,0.0,0.48,,-0.04,0.02,0.96,-0,-0,-0,0.04,0,2100,0,0.0,0.0,0.0,0.0,0,0,0.0
1505,0,0.0,0.49,,,,,,,,,,,,,,,,,,
1507,0,0.0,0.48,,,,,,,,,,,,,,,,,,
1509,0,0.0,0.48,,,,,,,,,,,,,,,,,,
1511,0,0.0,0.48,,,,,,,,,,,,,,,,,,
1513,0,0.0,0.48,,-0.16,0.1,0.92,-0,2,-1,0.19,,,,,,,,,,
1515,0,0.0,0.48,,,,,,,,,,,,,,,,,,
1517,0,0.0,0.48,,,,,,,,,,,,,,,,,,
1519,0,0.0,0.48,,,,,,,,,,,,,,,,,,
1521,0,0.0,0.48,,,,,,,,,,,,,,,,,,
1523,0,0.0,0.48,,-0.2,0.06,0.99,0,1,-1,0.21,0,2160,0,0.0,0.0,0.0,0.0,0,0,0.0
1525,0,0.0,0.48,,,,,,,,,,,,,,,,,,
1527,0,0.0,0.48,,,,,,,,,,,,,,,,,,
1529,0,0.0,0.48,,,,,,,,,,,,,,,,,,
1531,0,0.0,0.48,,,,,,,,,,,,,,,,,,
1533,0,0.0,0.49,,-0.06,0.05,1.01,-0,1,-1,0.08,,,,,,,,,,
1535,0,0.0,0.49,,,,,,,,,,,,,,,,,,
1537,0,0.0,0.49,,,,,,,,,,,,,,,,,,
1539,0,0.0,0.48,,,,,,,,,,,,,,,,,,
1541,0,0.0,0.48,,,,,,,,,,,,,,,,,,
1543,0,0.0,0.49,,-0.36,0.1,0.93,-0,2,-1,0.37,0,2100,0,0.0,0.0,0.0,0.0,0,0,0.0
1545,0,0.0,0.48,,,,,,,,,,,,,,,,,,
1547,0,0.0,0.49,,,,,,,,,,,,,,,,,,
1549,0,0.0,0.49,,,,,,,,,,,,,,,,,,
1551,0,0.0,0.48,,,,,,,,,,,,,,,,,,
1553,0,0.0,0.49,,-0.22,0.02,1.08,0,1,-1,0.22,,,,,,,,,,
1555,0,0.0,0.49,,,,,,,,,,,,,,,,,,
1557,0,0.0,0.49,,,,,,,,,,,,,,,,,,
1559,0,0.0,0.49,,,,,,,,,,,,,,,,,,
1561,0,0.0,0.5,,,,,,,,,,,,,,,,,,
1563,0,0.0,0.49,,-0.1,0.04,0.91,-0,2,-1,0.11,0,2160,0,0.0,0.0,0.0,0.0,0,0,0.0
1565,0,0.0,0.49,,,,,,,,,,,,,,,,,,
1567,0,0.0,0.49,,,,,,,,,,,,,,,,,,
1569,0,0.0,0.49,,,,,,,,,,,,,,,,,,
1571,0,0.0,0.49,,,,,,,,,,,,,,,,,,
1573,0,0.0,0.49,,-0.32,0.14,0.99,-0,1,-1,0.35,,,,,,,,,,
1575,0,0.0,0.49,,,,,,,,,,,,,,,,,,
1577,0,0.0,0.49,,,,,,,,,,,,,,,,,,
1579,0,0.0,0.49,,,,,,,,,,,,,,,,,,
1581,0,0.0,0.49,,,,,,,,,,,,,,,,,,
1583,0,0.0,0.49,,-0.14,-0.01,0.82,0,-0,-1,0.14,0,2160,0,0.0,0.0,0.0,0.0,0,0,0.0
1585,0,0.0,0.49,,,,,,,,,,,,,,,,,,
1587,0,0.0,0.49,,,,,,,,,,,,,,,,,,
1589,0,0.0,0.5,,,,,,,,,,,,,,,,,,
1591,0,0.0,0.5,,,,,,,,,,,,,,,,,,
1593,0,0.0,0.49,,-0.08,0.09,0.91,-0,1,-1,0.12,,,,,,,,,,
1595,0,0.0,0.49,,,,,,,,,,,,,,,,,,
1597,0,0.0,0.49,,,,,,,,,,,,,,,,,,
1599,0,0.0,0.49,,,,,,,,,,,,,,,,,,
1601,0,0.0,0.49,,,,,,,,,,,,,,,,,,
1603,0,0.0,0.49,,-0.35,0.13,1.1,0,-0,-1,0.37,0,2100,0,0.0,0.0,0.0,0.0,0,0,0.0
1605,0,0.0,0.49,,,,,,,,,,,,,,,,,,
1607,0,0.0,0.49,,,,,,,,,,,,,,,,,,
1609,0,0.0,0.49,,,,,,,,,,,,,,,,,,
1611,0,0.0,0.5,,,,,,,,,,,,,,,,,,
1613,0,0.0,0.49,,-0.08,0.0,0.94,0,-0,-1,0.08,,,,,,,,,,
1615,0,0.0,0.5,,,,,,,,,,,,,,,,,,
1617,0,0.0,0.51,,,,,,,,,,,,,,,,,,
1619,0,0.0,0.5,,,,,,,,,,,,,,,,,,
1621,0,0.0,0.49,,,,,,,,,,,,,,,,,,
1623,0,0.0,0.49,,-0.26,0.07,0.99,-0,1,-1,0.27,0,2160,0,0.0,0.0,0.0,0.0,0,0,0.0
1625,0,0.0,0.49,,,,,,,,,,,,,,,,,,
1627,0,0.0,0.49,,,,,,,,,,,,,,,,,,
1629,0,0.0,0.49,,,,,,,,,,,,,,,,,,
1631,0,0.0,0.49,,,,,,,,,,,,,,,,,,
1633,0,0.0,0.49,,-0.37,0.1,1.07,0,0,-1,0.38,,,,,,,,,,
1635,0,0.0,0.49,,,,,,,,,,,,,,,,,,
1637,0,0.0,0.49,,,,,,,,,,,,,,,,,,
1639,0,0.0,0.48,,,,,,,,,,,,,,,,,,
1641,0,0.0,0.48,,,,,,,,,,,,,,,,,,
1643,0,0.0,0.48,,-0.08,0.02,0.96,0,-0,-1,0.08,0,2160,0,0.0,0.0,0.0,0.0,0,0,0.0
1645,0,0.0,0.5,,,,,,,,,,,,,,,,,,
1647,0,0.0,0.49,,,,,,,,,,,,,,,,,,
1649,0,0.0,0.49,,,,,,,,,,,,,,,,,,
1651,0,0.0,0.49,,,,,,,,,,,,,,,,,,
1653,0,0.0,0.48,,-0.3,0.08,0.89,-0,1,-1,0.31,,,,,,,,,,
1655,0,0.0,0.48,,,,,,,,,,,,,,,,,,
1657,0,0.0,0.48,,,,,,,,,,,,,,,,,,
1659,0,0.0,0.48,,,,,,,,,,,,,,,,,,
1661,0,0.0,0.48,,,,,,,,,,,,,,,,,,
1663,0,0.0,0.48,,-0.18,0.05,1.0,1,-0,-1,0.19,0,2100,0,0.0,0.0,0.0,0.0,0,0,0.0
1665,0,0.0,0.48,,,,,,,,,,,,,,,,,,
1667,0,0.0,0.48,,,,,,,,,,,,,,,,,,
1669,0,0.0,0.48,,,,,,,,,,,,,,,,,,
1671,0,0.0,0.48,,,,,,,,,,,,,,,,,,
1673,0,0.0,0.49,,-0.07,0.04,0.93,-0,0,-1,0.08,,,,,,,,,,
1675,0,0.0,0.48,,,,,,,,,,,,,,,,,,
1677,0,0.0,0.48,,,,,,,,,,,,,,,,,,
1679,0,0.0,0.48,,,,,,,,,,,,,,,,,,
1681,0,0.0,0.48,,,,,,,,,,,,,,,,,,
1683,0,0.0,0.48,,-0.34,0.12,0.98,-0,0,-1,0.36,0,2160,0,0.0,0.0,0.0,0.0,0,0,0.0
1685,0,0.0,0.48,,,,,,,,,,,,,,,,,,
1687,0,0.0,0.48,,,,,,,,,,,,,,,,,,
1689,0,0.0,0.48,,,,,,,,,,,,,,,,,,
1691,0,0.0,0.48,,,,,,,,,,,,,,,,,,
1693,0,0.0,0.48,,-0.16,0.01,0.91,1,-1,-1,0.16,,,,,,,,,,
1695,0,0.0,0.48,,,,,,,,,,,,,,,,,,
1697,0,0.0,0.48,,,,,,,,,,,,,,,,,,
1699,0,0.0,0.48,,,,,,,,,,,,,,,,,,
1701,0,0.0,0.49,,,,,,,,,,,,,,,,,,
1703,0,0.0,0.48,,-0.12,0.07,1.0,-0,1,-1,0.14,0,2100,0,0.0,0.0,0.0,0.0,0,0,0.0
1705,0,0.0,0.48,,,,,,,,,,,,,,,,,,
1707,0,0.0,0.48,,,,,,,,,,,,,,,,,,
1709,0,0.0,0.48,,,,,,,,,,,,,,,,,,
1711,0,0.0,0.48,,,,,,,,,,,,,,,,,,
1713,0,0.0,0.48,,-0.48,0.14,1.13,0,-0,-1,0.5,,,,,,,,,,
1715,0,0.0,0.48,,,,,,,,,,,,,,,,,,
1717,0,0.0,0.47,,,,,,,,,,,,,,,,,,
1719,0,0.0,0.48,,,,,,,,,,,,,,,,,,
1721,0,0.0,0.48,,,,,,,,,,,,,,,,,,
1723,0,0.0,0.48,,-0.1,-0.02,0.97,1,-1,-1,0.1,0,2100,0,0.0,0.0,0.0,0.0,0,0,0.0
1725,0,0.0,0.48,,,,,,,,,,,,,,,,,,
1727,0,0.0,0.48,,,,,,,,,,,,,,,,,,
1729,0,0.0,0.49,,,,,,,,,,,,,,,,,,
1731,0,0.0,0.49,,,,,,,,,,,,,,,,,,
1733,0,0.01,0.49,,-0.22,0.07,0.93,-0,1,-1,0.23,,,,,,,,,,
1735,0,0.0,0.49,,,,,,,,,,,,,,,,,,
1737,0,0.0,0.49,,,,,,,,,,,,,,,,,,
1739,0,0.0,0.49,,,,,,,,,,,,,,,,,,
1741,0,0.0,0.49,,,,,,,,,,,,,,,,,,
1743,0,0.0,0.49,,-0.34,0.12,1.03,1,-0,-1,0.36,0,2160,0,0.0,0.0,0.0,0.0,0,0,0.0
1745,0,0.0,0.49,,,,,,,,,,,,,,,,,,
1747,0,0.0,0.49,,,,,,,,,,,,,,,,,,
1749,0,0.0,0.49,,,,,,,,,,,,,,,,,,
1751,0,0.0,0.49,,,,,,,,,,,,,,,,,,
1753,0,0.0,0.49,,-0.01,0.01,0.87,0,-1,-1,0.01,,,,,,,,,,
1755,0,0.0,0.49,,,,,,,,,,,,,,,,,,
1757,0,0.0,0.5,,,,,,,,,,,,,,,,,,
1759,0,0.0,0.49,,,,,,,,,,,,,,,,,,
1761,0,0.0,0.49,,,,,,,,,,,,,,,,,,
1763,0,0.0,0.49,,-0.14,0.07,0.92,-0,0,-1,0.16,0,2100,0,0.0,0.0,0.0,0.0,0,0,0.0
1765,0,0.0,0.49,,,,,,,,,,,,,,,,,,
1767,0,0.0,0.49,,,,,,,,,,,,,,,,,,
1769,0,0.0,0.49,,,,,,,,,,,,,,,,,,
1771,0,0.0,0.49,,,,,,,,,,,,,,,,,,
1773,0,0.0,0.49,,-0.19,0.08,1.06,1,0,-1,0.21,,,,,,,,,,
1775,0,0.0,0.49,,,,,,,,,,,,,,,,,,
1777,0,0.0,0.49,,,,,,,,,,,,,,,,,,
1779,0,0.0,0.49,,,,,,,,,,,,,,,,,,
1781,0,0.0,0.5,,,,,,,,,,,,,,,,,,
1783,0,0.0,0.51,,-0.05,0.01,1.04,0,-0,-1,0.06,0,2160,0,0.0,0.0,0.0,0.0,0,0,0.0
1785,0,0.0,0.5,,,,,,,,,,,,,,,,,,
1787,0,0.0,0.5,,,,,,,,,,,,,,,,,,
1789,0,0.0,0.5,,,,,,,,,,,,,,,,,,
1791,0,0.0,0.5,,,,,,,,,,,,,,,,,,
1793,0,0.0,0.49,,-0.29,0.1,1.0,0,1,-1,0.3,,,,,,,,,,
1795,0,0.0,0.5,,,,,,,,,,,,,,,,,,
1797,0,0.0,0.49,,,,,,,,,,,,,,,,,,
1799,0,0.0,0.49,,,,,,,,,,,,,,,,,,
1801,0,0.0,0.49,,,,,,,,,,,,,,,,,,
1803,0,0.0,0.5,,-0.23,0.04,1.0,1,0,-0,0.23,0,2160,0,0.0,0.0,0.0,0.0,0,0,0.0
1805,0,0.0,0.5,,,,,,,,,,,,,,,,,,
1807,0,0.0,0.5,,,,,,,,,,,,,,,,,,
1809,0,0.0,0.5,,,,,,,,,,,,,,,,,,
1811,0,0.0,0.51,,,,,,,,,,,,,,,,,,
1813,0,0.0,0.5,,-0.06,0.07,0.96,0,1,-0,0.09,,,,,,,,,,
1815,0,0.0,0.5,,,,,,,,,,,,,,,,,,
1817,0,0.0,0.5,,,,,,,,,,,,,,,,,,
1819,0,0.0,0.5,,,,,,,,,,,,,,,,,,
1821,0,0.0,0.5,,,,,,,,,,,,,,,,,,
1823,0,0.0,0.5,,-0.4,0.14,0.97,0,0,-1,0.43,0,2100,0,0.0,0.0,0.0,0.0,0,0,0.0
1825,0,0.0,0.5,,,,,,,,,,,,,,,,,,
1827,0,0.0,0.49,,,,,,,,,,,,,,,,,,
1829,0,0.0,0.49,,,,,,,,,,,,,,,,,,
1831,0,0.0,0.49,,,,,,,,,,,,,,,,,,
1833,0,0.0,0.49,,-0.03,0.03,0.92,1,-1,-1,0.04,,,,,,,,,,
1835,0,0.0,0.5,,,,,,,,,,,,,,,,,,
1837,0,0.0,0.49,,,,,,,,,,,,,,,,,,
1839,0,0.0,0.51,,,,,,,,,,,,,,,,,,
1841,0,0.0,0.49,,,,,,,,,,,,,,,,,,
1843,0,0.0,0.49,,-0.11,0.06,0.91,-0,1,-1,0.12,325,2160,0,0.0,0.0,0.0,0.0,0,0,0.0
1845,0,0.0,0.49,,,,,,,,,,,,,,,,,,
1847,0,0.0,0.49,,,,,,,,,,,,,,,,,,
1849,0,0.0,0.49,,,,,,,,,,,,,,,,,,
1851,0,0.0,0.49,,,,,,,,,,,,,,,,,,
1853,0,0.0,0.49,,-0.42,0.17,1.09,0,-0,-1,0.45,,,,,,,,,,
1855,0,0.0,0.49,,,,,,,,,,,,,,,,,,
1857,0,0.0,0.49,,,,,,,,,,,,,,,,,,
1859,0,0.0,0.5,,,,,,,,,,,,,,,,,,
1861,0,0.0,0.49,,,,,,,,,,,,,,,,,,
1863,0,0.0,0.49,,-0.12,-0.02,0.93,0,-1,-1,0.12,325,2160,0,0.0,0.0,0.0,0.0,0,0,0.0
1865,0,0.0,0.49,,,,,,,,,,,,,,,,,,
1867,0,0.0,0.51,,,,,,,,,,,,,,,,,,
1869,0,0.0,0.5,,,,,,,,,,,,,,,,,,
1871,0,0.0,0.5,,,,,,,,,,,,,,,,,,
1873,0,0.0,0.5,,-0.23,0.08,1.02,-0,1,-1,0.24,,,,,,,,,,
1875,0,0.0,0.5,,,,,,,,,,,,,,,,,,
1877,0,0.0,0.5,,,,,,,,,,,,,,,,,,
1879,0,0.0,0.5,,,,,,,,,,,,,,,,,,
1881,0,0.0,0.5,,,,,,,,,,,,,,,,,,
1883,0,0.0,0.5,,-0.34,0.14,1.11,1,1,-1,0.36,325,2100,0,0.0,0.0,0.0,0.0,0,0,0.0
1885,0,0.0,0.5,,,,,,,,,,,,,,,,,,
1887,0,0.0,0.5,,,,,,,,,,,,,,,,,,
1889,0,0.0,0.5,,,,,,,,,,,,,,,,,,
1891,0,0.0,0.5,,,,,,,,,,,,,,,,,,
1893,0,0.0,0.5,,-0.06,-0.01,0.9,0,0,-1,0.07,,,,,,,,,,
1895,0,0.0,0.52,,,,,,,,,,,,,,,,,,
1897,0,0.0,0.51,,,,,,,,,,,,,,,,,,
1899,0,0.0,0.51,,,,,,,,,,,,,,,,,,
1901,0,0.0,0.51,,,,,,,,,,,,,,,,,,
1903,0,0.0,0.51,,-0.23,0.08,0.87,-0,1,-1,0.24,325,2160,0,0.0,0.0,0.0,0.0,0,0,0.0
1905,0,0.0,0.51,,,,,,,,,,,,,,,,,,
1907,0,0.0,0.51,,,,,,,,,,,,,,,,,,
1909,0,0.0,0.51,,,,,,,,,,,,,,,,,,
1911,0,0.0,0.51,,,,,,,,,,,,,,,,,,
1913,0,0.0,0.51,,-0.18,0.08,0.91,1,-0,-2,0.19,,,,,,,,,,
1915,0,0.0,0.51,,,,,,,,,,,,,,,,,,
1917,0,0.0,0.51,,,,,,,,,,,,,,,,,,
1919,0,0.0,0.51,,,,,,,,,,,,,,,,,,
1921,0,0.0,0.51,,,,,,,,,,,,,,,,,,
1923,0,0.0,0.52,,0.03,0.03,0.93,-0,0,-1,0.04,325,2100,0,0.0,0.0,0.0,0.0,0,0,0.0
1925,0,0.0,0.51,,,,,,,,,,,,,,,,,,
1927,0,0.0,0.51,,,,,,,,,,,,,,,,,,
1929,0,0.0,0.51,,,,,,,,,,,,,,,,,,
1931,0,0.0,0.51,,,,,,,,,,,,,,,,,,
1933,0,0.0,0.51,,-0.36,0.08,1.0,-0,0,-1,0.37,,,,,,,,,,
1935,0,0.0,0.51,,,,,,,,,,,,,,,,,,
1937,0,0.0,0.51,,,,,,,,,,,,,,,,,,
1939,0,0.0,0.51,,,,,,,,,,,,,,,,,,
1941,0,0.0,0.51,,,,,,,,,,,,,,,,,,
1943,0,0.0,0.5,,-0.17,-0.02,1.08,1,-1,-1,0.17,18,2100,0,0.0,0.0,0.0,0.0,0,0,0.0
1945,0,0.0,0.5,,,,,,,,,,,,,,,,,,
1947,0,0.0,0.5,,,,,,,,,,,,,,,,,,
1949,0,0.0,0.5,,,,,,,,,,,,,,,,,,
1951,0,0.0,0.5,,,,,,,,,,,,,,,,,,
1953,0,0.0,0.5,,-0.14,0.01,1.04,1,0,-0,0.14,,,,,,,,,,
1955,0,0.0,0.5,,,,,,,,,,,,,,,,,,
1957,0,0.0,0.5,,,,,,,,,,,,,,,,,,
1959,0,0.0,0.5,,,,,,,,,,,,,,,,,,
1961,0,0.0,0.5,,,,,,,,,,,,,,,,,,
1963,0,0.0,0.5,,-0.38,0.1,1.08,1,-1,-0,0.39,18,2160,0,0.0,0.0,0.0,0.0,0,0,0.0
1965,0,0.0,0.5,,,,,,,,,,,,,,,,,,
1967,0,0.0,0.5,,,,,,,,,,,,,,,,,,
1969,0,0.0,0.5,,,,,,,,,,,,,,,,,,
1971,0,0.0,0.5,,,,,,,,,,,,,,,,,,
1973,0,0.0,0.5,,-0.02,-0.01,0.81,1,-2,0,0.02,,,,,,,,,,
1975,0,0.0,0.5,,,,,,,,,,,,,,,,,,
1977,0,0.0,0.51,,,,,,,,,,,,,,,,,,
1979,0,0.0,0.5,,,,,,,,,,,,,,,,,,
1981,0,0.0,0.5,,,,,,,,,,,,,,,,,,
1983,0,0.0,0.5,,0.07,0.08,0.83,1,-1,-0,0.1,18,2100,0,0.0,0.0,0.0,0.0,0,0,0.0
1985,0,0.0,0.5,,,,,,,,,,,,,,,,,,
1987,0,0.0,0.5,,,,,,,,,,,,,,,,,,
1989,0,0.0,0.5,,,,,,,,,,,,,,,,,,
1991,0,0.0,0.5,,,,,,,,,,,,,,,,,,
1993,0,0.0,0.5,,-0.13,0.16,0.98,1,-2,-1,0.2,,,,,,,,,,
1995,0,0.0,0.5,,,,,,,,,,,,,,,,,,
1997,0,0.0,0.49,,,,,,,,,,,,,,,,,,
1999,0,0.0,0.5,,,,,,,,,,,,,,,,,,
2001,0,0.0,0.5,,,,,,,,,,,,,,,,,,
2003,0,0.0,0.5,,0.04,0.04,0.93,1,-2,-1,0.05,18,2100,0,0.0,0.0,0.0,0.0,0,0,0.0
2005,0,0.0,0.51,,,,,,,,,,,,,,,,,,
2007,0,0.0,0.51,,,,,,,,,,,,,,,,,,
2009,0,0.0,0.51,,,,,,,,,,,,,,,,,,
2011,0,0.0,0.5,,,,,,,,,,,,,,,,,,
2013,0,0.0,0.5,,-0.12,0.06,1.06,0,-1,-1,0.13,,,,,,,,,,
2015,0,0.0,0.5,,,,,,,,,,,,,,,,,,
2017,0,0.0,0.5,,,,,,,,,,,,,,,,,,
2019,0,0.0,0.5,,,,,,,,,,,,,,,,,,
2021,0,0.0,0.51,,,,,,,,,,,,,,,,,,
2023,0,0.0,0.51,,-0.27,0.07,1.21,1,-0,-1,0.28,18,2160,0,0.0,0.0,0.0,0.0,0,0,0.0
2025,0,0.0,0.51,,,,,,,,,,,,,,,,,,
2027,0,0.0,0.51,,,,,,,,,,,,,,,,,,
2029,0,0.0,0.51,,,,,,,,,,,,,,,,,,
2031,0,0.0,0.51,,,,,,,,,,,,,,,,,,
2033,0,0.0,0.52,,-0.15,0.04,1.2,0,1,-0,0.15,,,,,,,,,,
2035,0,0.0,0.51,,,,,,,,,,,,,,,,,,
2037,0,0.0,0.51,,,,,,,,,,,,,,,,,,
2039,0,0.0,0.51,,,,,,,,,,,,,,,,,,
2041,0,0.0,0.51,,,,,,,,,,,,,,,,,,
2043,0,0.0,0.51,13.11,-0.42,0.09,1.07,0,2,-1,0.43,18,2100,0,0.0,0.0,0.0,0.0,0,0,0.0
2045,0,0.0,0.51,,,,,,,,,,,,,,,,,,
2047,0,0.0,0.51,,,,,,,,,,,,,,,,,,
2049,0,0.0,0.51,,,,,,,,,,,,,,,,,,
2051,0,0.0,0.51,,,,,,,,,,,,,,,,,,
2053,0,0.0,0.51,,-0.19,0.04,1.07,1,2,-1,0.19,,,,,,,,,,
2055,0,0.0,0.51,,,,,,,,,,,,,,,,,,
2057,0,0.0,0.51,,,,,,,,,,,,,,,,,,
2059,0,0.0,0.51,,,,,,,,,,,,,,,,,,
2061,0,0.0,0.53,,,,,,,,,,,,,,,,,,
2063,0,0.0,0.52,,-0.07,0.05,0.82,0,3,-1,0.08,18,2160,0,0.0,0.0,0.0,0.0,0,0,0.0
2065,0,0.0,0.52,,,,,,,,,,,,,,,,,,
2067,0,0.0,0.51,,,,,,,,,,,,,,,,,,
2069,0,0.0,0.51,,,,,,,,,,,,,,,,,,
2071,0,0.0,0.51,,,,,,,,,,,,,,,,,,
2073,0,0.0,0.51,,-0.25,0.14,0.78,0,1,-1,0.29,,,,,,,,,,
2075,0,0.0,0.51,,,,,,,,,,,,,,,,,,
2077,0,0.0,0.51,,,,,,,,,,,,,,,,,,
2079,0,0.0,0.51,,,,,,,,,,,,,,,,,,
2081,0,0.0,0.51,,,,,,,,,,,,,,,,,,
2083,0,0.0,0.51,,0.02,0.1,0.68,0,0,-1,0.1,18,2160,0,0.0,0.0,0.0,0.0,0,0,0.0
2085,0,0.0,0.51,,,,,,,,,,,,,,,,,,
2087,0,0.0,0.51,,,,,,,,,,,,,,,,,,
2089,0,0.0,0.52,,,,,,,,,,,,,,,,,,
2091,0,0.0,0.51,,,,,,,,,,,,,,,,,,
2093,0,0.0,0.51,,0.03,0.13,0.81,-1,1,-1,0.13,,,,,,,,,,
2095,0,0.0,0.51,,,,,,,,,,,,,,,,,,
2097,0,0.0,0.51,,,,,,,,,,,,,,,,,,
2099,0,0.0,0.51,,,,,,,,,,,,,,,,,,
2101,0,0.0,0.51,,,,,,,,,,,,,,,,,,
2103,0,0.0,0.51,,-0.33,0.22,1.03,-1,-0,-1,0.4,18,2100,0,0.0,0.0,0.0,0.0,0,0,0.0
2105,0,0.0,0.51,,,,,,,,,,,,,,,,,,
2107,0,0.0,0.51,,,,,,,,,,,,,,,,,,
2109,0,0.0,0.51,,,,,,,,,,,,,,,,,,
2111,0,0.0,0.51,,,,,,,,,,,,,,,,,,
2113,0,0.0,0.52,,-0.12,0.05,1.04,-1,-0,-1,0.13,,,,,,,,,,
2115,0,0.0,0.52,,,,,,,,,,,,,,,,,,
2117,0,0.0,0.53,,,,,,,,,,,,,,,,,,
2119,0,0.0,0.52,,,,,,,,,,,,,,,,,,
2121,0,0.0,0.52,,,,,,,,,,,,,,,,,,
2123,0,0.0,0.52,,-0.35,0.06,1.13,-1,1,-1,0.35,18,2100,0,0.0,0.0,0.0,0.0,0,0,0.0
2125,0,0.0,0.52,,,,,,,,,,,,,,,,,,
2127,0,0.0,0.52,,,,,,,,,,,,,,,,,,
2129,0,0.0,0.52,,,,,,,,,,,,,,,,,,
2131,0,0.0,0.52,,,,,,,,,,,,,,,,,,
2133,0,0.0,0.52,,-0.51,0.1,1.14,-0,1,-1,0.52,,,,,,,,,,
2135,0,0.0,0.52,,,,,,,,,,,,,,,,,,
2137,0,0.0,0.52,,,,,,,,,,,,,,,,,,
2139,0,0.0,0.52,,,,,,,,,,,,,,,,,,
2141,0,0.0,0.52,,,,,,,,,,,,,,,,,,
2143,0,0.0,0.52,,-0.1,-0.02,0.97,-1,1,-1,0.1,18,2100,0,0.0,0.0,0.0,0.0,0,0,0.0
2145,0,0.0,0.53,,,,,,,,,,,,,,,,,,
2147,0,0.0,0.53,,,,,,,,,,,,,,,,,,
2149,0,0.0,0.53,,,,,,,,,,,,,,,,,,
2151,0,0.0,0.52,,,,,,,,,,,,,,,,,,
2153,0,0.0,0.53,,-0.16,0.06,0.73,-1,1,-1,0.17,,,,,,,,,,
2155,0,0.0,0.52,,,,,,,,,,,,,,,,,,
2157,0,0.0,0.52,,,,,,,,,,,,,,,,,,
2159,0,0.0,0.52,,,,,,,,,,,,,,,,,,
2161,0,0.0,0.52,,,,,,,,,,,,,,,,,,
2163,0,0.0,0.52,,-0.11,0.12,0.88,0,-1,-0,0.16,25,2040,0,0.0,0.0,0.0,0.0,0,0,0.0
2165,0,0.0,0.52,,,,,,,,,,,,,,,,,,
2167,0,0.0,0.52,,,,,,,,,,,,,,,,,,
2169,0,0.0,0.52,,,,,,,,,,,,,,,,,,
2171,0,0.0,0.52,,,,,,,,,,,,,,,,,,
2173,0,0.0,0.53,,0.16,-0.03,0.75,-1,-2,-1,0.16,,,,,,,,,,
2175,0,0.0,0.52,,,,,,,,,,,,,,,,,,
2177,0,0.0,0.52,,,,,,,,,,,,,,,,,,
2179,0,0.0,0.51,,,,,,,,,,,,,,,,,,
2181,0,0.0,0.51,,,,,,,,,,,,,,,,,,
2183,0,0.0,0.52,,-0.05,0.08,0.87,-1,-2,-1,0.09,25,2100,0,0.0,0.0,0.0,0.0,0,0,0.0
2185,0,0.0,0.52,,,,,,,,,,,,,,,,,,
2187,0,0.0,0.52,,,,,,,,,,,,,,,,,,
2189,0,0.0,0.52,,,,,,,,,,,,,,,,,,
2191,0,0.0,0.52,,,,,,,,,,,,,,,,,,
2193,0,0.0,0.52,,-0.12,0.03,1.02,0,-3,-1,0.12,,,,,,,,,,
2195,0,0.0,0.52,,,,,,,,,,,,,,,,,,
2197,0,0.0,0.52,,,,,,,,,,,,,,,,,,
2199,0,0.0,0.52,,,,,,,,,,,,,,,,,,
2201,0,0.0,0.52,,,,,,,,,,,,,,,,,,
2203,0,0.0,0.52,,-0.09,-0.03,1.19,-0,-2,-1,0.09,25,2100,0,0.0,0.0,0.0,0.0,0,0,0.0
2205,0,0.0,0.52,,,,,,,,,,,,,,,,,,
2207,0,0.0,0.52,,,,,,,,,,,,,,,,,,
2209,0,0.0,0.52,,,,,,,,,,,,,,,,,,
2211,0,0.0,0.52,,,,,,,,,,,,,,,,,,
2213,0,0.0,0.52,,-0.43,0.04,1.2,0,-2,-1,0.44,,,,,,,,,,
2215,0,0.0,0.52,,,,,,,,,,,,,,,,,,
2217,0,0.0,0.52,,,,,,,,,,,,,,,,,,
2219,0,0.0,0.52,,,,,,,,,,,,,,,,,,
2221,0,0.0,0.53,,,,,,,,,,,,,,,,,,
2223,0,0.0,0.53,,-0.04,0.02,1.09,1,-2,-1,0.04,25,2100,0,0.0,0.0,0.0,0.0,0,0,0.0
2225,0,0.0,0.53,,,,,,,,,,,,,,,,,,
2227,0,0.0,0.53,,,,,,,,,,,,,,,,,,
2229,0,0.0,0.54,,,,,,,,,,,,,,,,,,
2231,0,0.0,0.53,,,,,,,,,,,,,,,,,,
2233,0,0.0,0.53,,0.05,-0.02,0.89,1,-1,-1,0.05,,,,,,,,,,
2235,0,0.0,0.53,,,,,,,,,,,,,,,,,,
2237,0,0.0,0.53,,,,,,,,,,,,,,,,,,
2239,0,0.0,0.53,,,,,,,,,,,,,,,,,,
2241,0,0.0,0.53,,,,,,,,,,,,,,,,,,
2243,0,0.0,0.53,,-0.13,0.07,0.9,2,-2,-1,0.15,25,2100,0,0.0,0.0,0.0,0.0,0,0,0.0
2245,0,0.0,0.53,,,,,,,,,,,,,,,,,,
2247,0,0.0,0.53,,,,,,,,,,,,,,,,,,
2249,0,0.0,0.53,,,,,,,,,,,,,,,,,,
2251,0,0.0,0.54,,,,,,,,,,,,,,,,,,
2253,0,0.0,0.53,,0.14,-0.05,0.78,2,-3,-0,0.15,,,,,,,,,,
2255,0,0.0,0.53,,,,,,,,,,,,,,,,,,
2257,0,0.0,0.54,,,,,,,,,,,,,,,,,,
2259,0,0.0,0.53,,,,,,,,,,,,,,,,,,
2261,0,0.0,0.53,,,,,,,,,,,,,,,,,,
2263,0,0.0,0.53,,0.26,0.07,0.84,1,-3,1,0.27,28,2100,0,0.0,0.0,0.0,0.0,0,0,0.0
2265,0,0.0,0.53,,,,,,,,,,,,,,,,,,
2267,0,0.0,0.52,,,,,,,,,,,,,,,,,,
2269,0,0.0,0.52,,,,,,,,,,,,,,,,,,
2271,0,0.0,0.52,,,,,,,,,,,,,,,,,,
2273,0,0.0,0.53,,0.01,0.13,1.12,1,-3,0,0.13,,,,,,,,,,
2275,0,0.0,0.53,,,,,,,,,,,,,,,,,,
2277,0,0.0,0.53,,,,,,,,,,,,,,,,,,
2279,0,0.0,0.53,,,,,,,,,,,,,,,,,,
2281,0,0.0,0.53,,,,,,,,,,,,,,,,,,
2283,0,0.0,0.53,,0.05,0.04,1.17,1,-2,0,0.07,28,2100,0,0.0,0.0,0.0,0.0,0,0,0.0
2285,0,0.0,0.54,,,,,,,,,,,,,,,,,,
2287,0,0.0,0.53,,,,,,,,,,,,,,,,,,
2289,0,0.0,0.53,,,,,,,,,,,,,,,,,,
2291,0,0.0,0.53,,,,,,,,,,,,,,,,,,
2293,0,0.0,0.53,,-0.12,0.03,1.18,1,-0,0,0.12,,,,,,,,,,
2295,0,0.0,0.53,,,,,,,,,,,,,,,,,,
2297,0,0.0,0.53,,,,,,,,,,,,,,,,,,
2299,0,0.0,0.53,,,,,,,,,,,,,,,,,,
2301,0,0.0,0.53,,,,,,,,,,,,,,,,,,
2303,0,0.0,0.53,,-0.22,0.06,1.17,1,1,0,0.23,28,2160,0,0.0,0.0,0.0,0.0,0,0,0.0
2305,0,0.0,0.53,,,,,,,,,,,,,,,,,,
2307,0,0.0,0.53,,,,,,,,,,,,,,,,,,
2309,0,0.0,0.54,,,,,,,,,,,,,,,,,,
2311,0,0.0,0.54,,,,,,,,,,,,,,,,,,
2313,0,0.0,0.55,,-0.08,0.07,1.08,1,1,-0,0.11,,,,,,,,,,
2315,0,0.0,0.54,,,,,,,,,,,,,,,,,,
2317,0,0.0,0.54,,,,,,,,,,,,,,,,,,
2319,0,0.0,0.54,,,,,,,,,,,,,,,,,,
2321,0,0.0,0.54,,,,,,,,,,,,,,,,,,
2323,0,0.0,0.54,,-0.24,0.11,0.89,1,2,-1,0.26,28,2100,0,0.0,0.0,0.0,0.0,0,0,0.0
2325,0,0.0,0.54,,,,,,,,,,,,,,,,,,
2327,0,0.0,0.53,,,,,,,,,,,,,,,,,,
2329,0,0.0,0.53,,,,,,,,,,,,,,,,,,
2331,0,0.0,0.53,,,,,,,,,,,,,,,,,,
2333,0,0.0,0.53,,-0.08,0.06,0.88,1,1,-1,0.1,,,,,,,,,,
2335,0,0.0,0.53,,,,,,,,,,,,,,,,,,
2337,0,0.0,0.53,,,,,,,,,,,,,,,,,,
2339,0,0.0,0.53,,,,,,,,,,,,,,,,,,
2341,0,0.0,0.54,,,,,,,,,,,,,,,,,,
2343,0,0.0,0.53,,0.03,0.09,0.75,1,2,-0,0.09,28,2160,0,0.0,0.0,0.0,0.0,0,0,0.0
2345,0,0.0,0.53,,,,,,,,,,,,,,,,,,
2347,0,0.0,0.53,,,,,,,,,,,,,,,,,,
2349,0,0.0,0.53,,,,,,,,,,,,,,,,,,
2351,0,0.0,0.53,,,,,,,,,,,,,,,,,,
2353,0,0.0,0.53,,-0.12,0.21,0.75,0,-0,0,0.24,,,,,,,,,,
2355,0,0.0,0.53,,,,,,,,,,,,,,,,,,
2357,0,0.0,0.53,,,,,,,,,,,,,,,,,,
2359,0,0.0,0.53,,,,,,,,,,,,,,,,,,
2361,0,0.0,0.53,,,,,,,,,,,,,,,,,,
2363,0,0.0,0.53,,0.06,0.15,0.75,0,-1,0,0.16,28,2160,0,0.0,0.0,0.0,0.0,0,0,0.0
2365,0,0.0,0.53,,,,,,,,,,,,,,,,,,
2367,0,0.0,0.53,,,,,,,,,,,,,,,,,,
2369,0,0.0,0.54,,,,,,,,,,,,,,,,,,
2371,0,0.0,0.54,,,,,,,,,,,,,,,,,,
2373,0,0.0,0.54,,0.02,0.2,0.99,-1,-1,-0,0.2,,,,,,,,,,
2375,0,0.0,0.54,,,,,,,,,,,,,,,,,,
2377,0,0.0,0.54,,,,,,,,,,,,,,,,,,
2379,0,0.0,0.53,,,,,,,,,,,,,,,,,,
2381,0,0.0,0.53,,,,,,,,,,,,,,,,,,
2383,0,0.0,0.54,,-0.27,0.26,1.19,-1,-1,-1,0.38,28,2100,0,0.0,0.0,0.0,0.0,0,0,0.0
2385,0,0.0,0.54,,,,,,,,,,,,,,,,,,
2387,0,0.0,0.54,,,,,,,,,,,,,,,,,,
2389,0,0.0,0.54,,,,,,,,,,,,,,,,,,
2391,0,0.0,0.54,,,,,,,,,,,,,,,,,,
2393,0,0.0,0.54,,0.0,0.1,1.11,-1,-1,-1,0.1,,,,,,,,,,
2395,0,0.0,0.54,,,,,,,,,,,,,,,,,,
2397,0,0.0,0.55,,,,,,,,,,,,,,,,,,
2399,0,0.0,0.54,,,,,,,,,,,,,,,,,,
2401,0,0.0,0.54,,,,,,,,,,,,,,,,,,
2403,0,0.0,0.54,,-0.21,0.06,1.14,-2,0,-1,0.21,28,2100,0,0.0,0.0,0.0,0.0,0,0,0.0
2405,0,0.0,0.54,,,,,,,,,,,,,,,,,,
2407,0,0.0,0.54,,,,,,,,,,,,,,,,,,
2409,0,0.0,0.54,,,,,,,,,,,,,,,,,,
2411,0,0.0,0.54,,,,,,,,,,,,,,,,,,
2413,0,0.0,0.54,,-0.22,0.11,1.14,-1,-1,-1,0.25,,,,,,,,,,
2415,0,0.0,0.54,,,,,,,,,,,,,,,,,,
2417,0,0.0,0.54,,,,,,,,,,,,,,,,,,
2419,0,0.0,0.55,,,,,,,,,,,,,,,,,,
2421,0,0.0,0.55,,,,,,,,,,,,,,,,,,
2423,0,0.0,0.55,,0.15,-0.07,0.88,-2,-1,-1,0.16,28,2100,0,0.0,0.0,0.0,0.0,0,0,0.0
2425,0,0.0,0.55,,,,,,,,,,,,,,,,,,
2427,0,0.0,0.56,,,,,,,,,,,,,,,,,,
2429,0,0.0,0.55,,,,,,,,,,,,,,,,,,
2431,0,0.0,0.55,,,,,,,,,,,,,,,,,,
2433,0,0.0,0.55,,0.05,-0.06,0.81,-2,-1,-1,0.07,,,,,,,,,,
2435,0,0.0,0.55,,,,,,,,,,,,,,,,,,
2437,0,0.0,0.54,,,,,,,,,,,,,,,,,,
2439,0,0.0,0.54,,,,,,,,,,,,,,,,,,
2441,0,0.0,0.54,,,,,,,,,,,,,,,,,,
2443,0,0.0,0.54,,0.11,-0.04,0.91,-0,-3,-0,0.11,28,2100,0,0.0,0.0,0.0,0.0,0,0,0.0
2445,0,0.0,0.54,,,,,,,,,,,,,,,,,,
2447,0,0.0,0.54,,,,,,,,,,,,,,,,,,
2449,0,0.0,0.54,,,,,,,,,,,,,,,,,,
2451,0,0.0,0.54,,,,,,,,,,,,,,,,,,
2453,0,0.0,0.54,,0.33,-0.14,0.89,-1,-4,-0,0.35,,,,,,,,,,
2455,0,0.0,0.54,,,,,,,,,,,,,,,,,,
2457,0,0.0,0.54,,,,,,,,,,,,,,,,,,
2459,0,0.0,0.54,,,,,,,,,,,,,,,,,,
2461,0,0.0,0.54,,,,,,,,,,,,,,,,,,
2463,0,0.0,0.54,,0.0,-0.1,1.01,-0,-3,0,0.1,28,2100,0,0.0,0.0,0.0,0.0,0,0,0.0
2465,0,0.0,0.54,,,,,,,,,,,,,,,,,,
2467,0,0.0,0.54,,,,,,,,,,,,,,,,,,
2469,0,0.0,0.54,,,,,,,,,,,,,,,,,,
2471,0,0.0,0.54,,,,,,,,,,,,,,,,,,
2473,0,0.0,0.54,,-0.06,-0.11,1.12,1,-3,1,0.13,,,,,,,,,,
2475,0,0.0,0.54,,,,,,,,,,,,,,,,,,
2477,0,0.0,0.55,,,,,,,,,,,,,,,,,,
2479,0,0.0,0.54,,,,,,,,,,,,,,,,,,
2481,0,0.0,0.55,,,,,,,,,,,,,,,,,,
2483,0,0.0,0.56,,0.07,-0.15,1.16,1,-3,2,0.17,28,2100,0,0.0,0.0,0.0,0.0,0,0,0.0
2485,0,0.0,0.55,,,,,,,,,,,,,,,,,,
2487,0,0.0,0.55,,,,,,,,,,,,,,,,,,
2489,0,0.0,0.55,,,,,,,,,,,,,,,,,,
2491,0,0.0,0.55,,,,,,,,,,,,,,,,,,
2493,0,0.0,0.55,,-0.21,0.03,1.08,2,-2,2,0.21,,,,,,,,,,
2495,0,0.0,0.55,,,,,,,,,,,,,,,,,,
2497,0,0.0,0.55,,,,,,,,,,,,,,,,,,
2499,0,0.0,0.55,,,,,,,,,,,,,,,,,,
2501,0,0.0,0.55,,,,,,,,,,,,,,,,,,
2503,0,0.0,0.55,,0.13,-0.01,0.99,3,-3,1,0.13,28,2100,0,0.0,0.0,0.0,0.0,0,0,0.0
2505,0,0.0,0.55,,,,,,,,,,,,,,,,,,
2507,0,0.0,0.55,,,,,,,,,,,,,,,,,,
2509,0,0.0,0.55,,,,,,,,,,,,,,,,,,
2511,0,0.0,0.56,,,,,,,,,,,,,,,,,,
2513,0,0.0,0.56,,0.23,0.01,0.85,3,-1,1,0.23,,,,,,,,,,
2515,0,0.0,0.56,,,,,,,,,,,,,,,,,,
2517,0,0.0,0.55,,,,,,,,,,,,,,,,,,
2519,0,0.0,0.55,,,,,,,,,,,,,,,,,,
2521,0,0.0,0.56,,,,,,,,,,,,,,,,,,
2523,0,0.0,0.56,,0.0,0.19,0.93,3,-2,1,0.19,28,2160,0,0.0,0.0,0.0,0.0,0,0,0.0
2525,0,0.0,0.56,,,,,,,,,,,,,,,,,,
2527,0,0.0,0.56,,,,,,,,,,,,,,,,,,
2529,0,0.0,0.56,,,,,,,,,,,,,,,,,,
2531,0,0.0,0.55,,,,,,,,,,,,,,,,,,
2533,0,0.0,0.56,,0.26,0.05,0.8,3,-3,1,0.26,,,,,,,,,,
2535,0,0.0,0.56,,,,,,,,,,,,,,,,,,
2537,0,0.0,0.56,,,,,,,,,,,,,,,,,,
2539,0,0.0,0.57,,,,,,,,,,,,,,,,,,
2541,0,0.0,0.56,,,,,,,,,,,,,,,,,,
2543,0,0.0,0.56,,0.27,0.13,0.92,2,-2,1,0.3,25,2100,0,0.0,0.0,0.0,0.0,0,0,0.0
2545,0,0.0,0.56,,,,,,,,,,,,,,,,,,
2547,0,0.0,0.55,,,,,,,,,,,,,,,,,,
2549,0,0.0,0.55,,,,,,,,,,,,,,,,,,
2551,0,0.0,0.55,,,,,,,,,,,,,,,,,,
2553,0,0.0,0.55,,-0.05,0.23,1.16,2,-2,1,0.24,,,,,,,,,,
2555,0,0.0,0.55,,,,,,,,,,,,,,,,,,
2557,0,0.0,0.55,,,,,,,,,,,,,,,,,,
2559,0,0.0,0.55,,,,,,,,,,,,,,,,,,
2561,0,0.0,0.55,,,,,,,,,,,,,,,,,,
2563,0,0.0,0.55,,0.17,0.11,1.08,2,-1,2,0.2,25,2100,0,0.0,0.0,0.0,0.0,0,0,0.0
2565,0,0.0,0.56,,,,,,,,,,,,,,,,,,
2567,0,0.0,0.55,,,,,,,,,,,,,,,,,,
2569,0,0.0,0.55,,,,,,,,,,,,,,,,,,
2571,0,0.0,0.55,,,,,,,,,,,,,,,,,,
2573,0,0.0,0.55,,-0.04,0.12,1.09,1,0,2,0.13,,,,,,,,,,
2575,0,0.0,0.55,,,,,,,,,,,,,,,,,,
2577,0,0.0,0.55,,,,,,,,,,,,,,,,,,
2579,0,0.0,0.54,,,,,,,,,,,,,,,,,,
2581,0,0.0,0.54,,,,,,,,,,,,,,,,,,
2583,0,0.0,0.54,,-0.18,0.18,1.13,1,0,2,0.25,25,2160,0,0.0,0.0,0.0,0.0,0,0,0.0
2585,0,0.0,0.54,,,,,,,,,,,,,,,,,,
2587,0,0.0,0.54,,,,,,,,,,,,,,,,,,
2589,0,0.0,0.55,,,,,,,,,,,,,,,,,,
2591,0,0.0,0.54,,,,,,,,,,,,,,,,,,
2593,0,0.0,0.56,,0.13,0.15,0.93,-0,0,2,0.2,,,,,,,,,,
2595,0,0.0,0.54,,,,,,,,,,,,,,,,,,
2597,0,0.0,0.55,,,,,,,,,,,,,,,,,,
2599,0,0.0,0.54,,,,,,,,,,,,,,,,,,
2601,0,0.0,0.55,,,,,,,,,,,,,,,,,,
2603,0,0.0,0.55,,-0.06,0.24,0.83,-1,1,0,0.25,25,2100,0,0.0,0.0,0.0,0.0,0,0,0.0
2605,0,0.0,0.55,,,,,,,,,,,,,,,,,,
2607,0,0.0,0.54,,,,,,,,,,,,,,,,,,
2609,0,0.0,0.55,,,,,,,,,,,,,,,,,,
2611,0,0.0,0.54,,,,,,,,,,,,,,,,,,
2613,0,0.0,0.54,,0.11,0.18,0.89,-1,-0,-1,0.21,,,,,,,,,,
2615,0,0.0,0.54,,,,,,,,,,,,,,,,,,
2617,0,0.0,0.54,,,,,,,,,,,,,,,,,,
2619,0,0.0,0.55,,,,,,,,,,,,,,,,,,
2621,0,0.0,0.56,,,,,,,,,,,,,,,,,,
2623,0,0.0,0.55,,0.22,0.1,0.8,-2,-0,-1,0.24,25,2160,0,0.0,0.0,0.0,0.0,0,0,0.0
2625,0,0.0,0.55,,,,,,,,,,,,,,,,,,
2627,0,0.0,0.55,,,,,,,,,,,,,,,,,,
2629,0,0.0,0.55,,,,,,,,,,,,,,,,,,
2631,0,0.0,0.55,,,,,,,,,,,,,,,,,,
2633,0,0.0,0.55,,-0.05,0.17,0.99,-2,-1,-1,0.17,,,,,,,,,,
2635,0,0.0,0.55,,,,,,,,,,,,,,,,,,
2637,0,0.0,0.55,,,,,,,,,,,,,,,,,,
2639,0,0.0,0.55,,,,,,,,,,,,,,,,,,
2641,0,0.0,0.55,,,,,,,,,,,,,,,,,,
2643,0,0.0,0.55,,0.1,-0.02,0.98,-1,-1,-1,0.1,25,2160,0,0.0,0.0,0.0,0.0,0,0,0.0
2645,0,0.0,0.55,,,,,,,,,,,,,,,,,,
2647,0,0.0,0.55,,,,,,,,,,,,,,,,,,
2649,0,0.0,0.57,,,,,,,,,,,,,,,,,,
2651,0,0.0,0.56,,,,,,,,,,,,,,,,,,
2653,0,0.0,0.56,,0.07,0.01,1.17,-1,1,0,0.07,,,,,,,,,,
2655,0,0.0,0.55,,,,,,,,,,,,,,,,,,
2657,0,0.0,0.55,,,,,,,,,,,,,,,,,,
2659,0,0.0,0.56,,,,,,,,,,,,,,,,,,
2661,0,0.0,0.55,,,,,,,,,,,,,,,,,,
2663,0,0.0,0.55,,-0.23,0.07,1.25,-1,1,0,0.24,25,2100,0,0.0,0.0,0.0,0.0,0,0,0.0
2665,0,0.0,0.56,,,,,,,,,,,,,,,,,,
2667,0,0.0,0.56,,,,,,,,,,,,,,,,,,
2669,0,0.0,0.56,,,,,,,,,,,,,,,,,,
2671,0,0.0,0.56,,,,,,,,,,,,,,,,,,
2673,0,0.0,0.56,,0.12,-0.08,1.05,0,0,0,0.14,,,,,,,,,,
2675,0,0.0,0.56,,,,,,,,,,,,,,,,,,
2677,0,0.0,0.57,,,,,,,,,,,,,,,,,,
2679,0,0.0,0.56,,,,,,,,,,,,,,,,,,
2681,0,0.0,0.56,,,,,,,,,,,,,,,,,,
2683,0,0.0,0.56,,0.0,-0.01,0.95,0,2,-0,0.01,25,2100,0,0.0,0.0,0.0,0.0,0,0,0.0
2685,0,0.0,0.56,,,,,,,,,,,,,,,,,,
2687,0,0.0,0.56,,,,,,,,,,,,,,,,,,
2689,0,0.0,0.56,,,,,,,,,,,,,,,,,,
2691,0,0.0,0.56,,,,,,,,,,,,,,,,,,
2693,0,0.0,0.56,,-0.12,0.07,1.05,1,1,-1,0.14,,,,,,,,,,
2695,0,0.0,0.56,,,,,,,,,,,,,,,,,,
2697,0,0.0,0.56,,,,,,,,,,,,,,,,,,
2699,0,0.0,0.56,,,,,,,,,,,,,,,,,,
2701,0,0.0,0.56,,,,,,,,,,,,,,,,,,
2703,0,0.0,0.56,,0.17,-0.05,0.89,1,0,-1,0.18,25,2100,0,0.0,0.0,0.0,0.0,0,0,0.0
2705,0,0.0,0.57,,,,,,,,,,,,,,,,,,
2707,0,0.0,0.57,,,,,,,,,,,,,,,,,,
2709,0,0.0,0.57,,,,,,,,,,,,,,,,,,
2711,0,0.0,0.57,,,,,,,,,,,,,,,,,,
2713,0,0.0,0.56,,0.01,0.04,0.9,1,1,-1,0.04,,,,,,,,,,
2715,0,0.0,0.56,,,,,,,,,,,,,,,,,,
2717,0,0.0,0.56,,,,,,,,,,,,,,,,,,
2719,0,0.0,0.56,,,,,,,,,,,,,,,,,,
2721,0,0.0,0.57,,,,,,,,,,,,,,,,,,
2723,0,0.0,0.56,,-0.03,0.06,1.03,2,-0,-1,0.07,15,2100,0,0.0,0.0,0.0,0.0,0,0,0.0
2725,0,0.0,0.56,,,,,,,,,,,,,,,,,,
2727,0,0.0,0.56,,,,,,,,,,,,,,,,,,
2729,0,0.0,0.56,,,,,,,,,,,,,,,,,,
2731,0,0.0,0.56,,,,,,,,,,,,,,,,,,
2733,0,0.0,0.57,,0.1,-0.01,1.01,2,-1,-0,0.1,,,,,,,,,,
2735,0,0.0,0.56,,,,,,,,,,,,,,,,,,
2737,0,0.0,0.56,,,,,,,,,,,,,,,,,,
2739,0,0.0,0.56,,,,,,,,,,,,,,,,,,
2741,0,0.0,0.56,,,,,,,,,,,,,,,,,,
2743,0,0.0,0.56,,-0.14,0.07,1.03,2,-1,0,0.15,15,2100,0,0.0,0.0,0.0,0.0,0,0,0.0
2745,0,0.0,0.56,,,,,,,,,,,,,,,,,,
2747,0,0.0,0.56,,,,,,,,,,,,,,,,,,
2749,0,0.0,0.56,,,,,,,,,,,,,,,,,,
2751,0,0.0,0.55,,,,,,,,,,,,,,,,,,
2753,0,0.0,0.55,,-0.02,0.05,0.96,2,-2,1,0.05,,,,,,,,,,
2755,0,0.0,0.55,,,,,,,,,,,,,,,,,,
2757,0,0.0,0.56,,,,,,,,,,,,,,,,,,
2759,0,0.0,0.56,,,,,,,,,,,,,,,,,,
2761,0,0.0,0.57,,,,,,,,,,,,,,,,,,
2763,0,0.0,0.56,,0.14,0.14,0.99,1,-1,1,0.2,15,2100,0,0.0,0.0,0.0,0.0,0,0,0.0
2765,0,0.0,0.56,,,,,,,,,,,,,,,,,,
2767,0,0.0,0.56,,,,,,,,,,,,,,,,,,
2769,0,0.0,0.55,,,,,,,,,,,,,,,,,,
2771,0,0.0,0.56,,,,,,,,,,,,,,,,,,
2773,0,0.0,0.55,,-0.17,0.21,1.0,1,-2,0,0.27,,,,,,,,,,
2775,0,0.0,0.55,,,,,,,,,,,,,,,,,,
2777,0,0.0,0.55,,,,,,,,,,,,,,,,,,
2779,0,0.0,0.55,,,,,,,,,,,,,,,,,,
2781,0,0.0,0.55,,,,,,,,,,,,,,,,,,
2783,0,0.0,0.55,,0.17,0.1,1.01,1,-2,-0,0.2,15,2100,0,0.0,0.0,0.0,0.0,0,0,0.0
2785,0,0.0,0.55,,,,,,,,,,,,,,,,,,
2787,0,0.0,0.55,,,,,,,,,,,,,,,,,,
2789,0,0.0,0.56,,,,,,,,,,,,,,,,,,
2791,0,0.0,0.55,,,,,,,,,,,,,,,,,,
2793,0,0.0,0.55,,0.13,0.12,1.0,-0,-1,-0,0.18,,,,,,,,,,
2795,0,0.0,0.55,,,,,,,,,,,,,,,,,,
2797,0,0.0,0.55,,,,,,,,,,,,,,,,,,
2799,0,0.0,0.55,,,,,,,,,,,,,,,,,,
2801,0,0.0,0.55,,,,,,,,,,,,,,,,,,
2803,0,0.0,0.55,,-0.07,0.15,1.13,-0,-2,-0,0.16,15,2160,0,0.0,0.0,0.0,0.0,0,0,0.0
2805,0,0.0,0.55,,,,,,,,,,,,,,,,,,
2807,0,0.0,0.55,,,,,,,,,,,,,,,,,,
2809,0,0.0,0.55,,,,,,,,,,,,,,,,,,
2811,0,0.0,0.55,,,,,,,,,,,,,,,,,,
2813,0,0.0,0.55,,0.14,0.03,1.01,-1,-1,-0,0.14,,,,,,,,,,
2815,0,0.0,0.55,,,,,,,,,,,,,,,,,,
2817,0,0.0,0.56,,,,,,,,,,,,,,,,,,
2819,0,0.0,0.55,,,,,,,,,,,,,,,,,,
2821,0,0.0,0.55,,,,,,,,,,,,,,,,,,
2823,0,0.0,0.55,,0.04,0.06,1.11,-1,0,-0,0.08,15,2100,0,0.0,0.0,0.0,0.0,0,0,0.0
2825,0,0.0,0.55,,,,,,,,,,,,,,,,,,
2827,0,0.0,0.54,,,,,,,,,,,,,,,,,,
2829,0,0.0,0.55,,,,,,,,,,,,,,,,,,
2831,0,0.0,0.55,,,,,,,,,,,,,,,,,,
2833,0,0.0,0.55,,-0.16,0.1,1.19,-0,1,0,0.19,,,,,,,,,,
2835,0,0.0,0.54,,,,,,,,,,,,,,,,,,
2837,0,0.0,0.55,,,,,,,,,,,,,,,,,,
2839,0,0.0,0.55,,,,,,,,,,,,,,,,,,
2841,0,0.0,0.54,,,,,,,,,,,,,,,,,,
2843,0,0.0,0.54,,0.1,0.02,1.0,-1,1,-0,0.1,15,2100,0,0.0,0.0,0.0,0.0,0,0,0.0
2845,0,0.0,0.56,,,,,,,,,,,,,,,,,,
2847,0,0.0,0.55,,,,,,,,,,,,,,,,,,
2849,0,0.0,0.55,,,,,,,,,,,,,,,,,,
2851,0,0.0,0.55,,,,,,,,,,,,,,,,,,
2853,0,0.0,0.55,,-0.11,0.08,0.94,-1,3,-1,0.14,,,,,,,,,,
2855,0,0.0,0.55,,,,,,,,,,,,,,,,,,
2857,0,0.0,0.55,,,,,,,,,,,,,,,,,,
2859,0,0.0,0.55,,,,,,,,,,,,,,,,,,
2861,0,0.0,0.55,,,,,,,,,,,,,,,,,,
2863,0,0.0,0.54,,-0.16,0.13,0.99,-0,2,-2,0.21,15,2100,0,0.0,0.0,0.0,0.0,0,0,0.0
2865,0,0.0,0.54,,,,,,,,,,,,,,,,,,
2867,0,0.0,0.54,,,,,,,,,,,,,,,,,,
2869,0,0.0,0.54,,,,,,,,,,,,,,,,,,
2871,0,0.0,0.54,,,,,,,,,,,,,,,,,,
2873,0,0.0,0.55,,0.09,0.01,0.88,-1,2,-2,0.09,,,,,,,,,,
2875,0,0.0,0.55,,,,,,,,,,,,,,,,,,
2877,0,0.0,0.55,,,,,,,,,,,,,,,,,,
2879,0,0.0,0.55,,,,,,,,,,,,,,,,,,
2881,0,0.0,0.55,,,,,,,,,,,,,,,,,,
2883,0,0.0,0.55,,-0.18,0.07,0.87,-1,3,-2,0.2,15,2100,0,0.0,0.0,0.0,0.0,0,0,0.0
2885,0,0.0,0.55,,,,,,,,,,,,,,,,,,
2887,0,0.0,0.55,,,,,,,,,,,,,,,,,,
2889,0,0.0,0.55,,,,,,,,,,,,,,,,,,
2891,0,0.0,0.55,,,,,,,,,,,,,,,,,,
2893,0,0.0,0.56,,-0.1,0.06,1.0,0,2,-2,0.12,,,,,,,,,,
2895,0,0.0,0.56,,,,,,,,,,,,,,,,,,
2897,0,0.0,0.56,,,,,,,,,,,,,,,,,,
2899,0,0.0,0.56,,,,,,,,,,,,,,,,,,
2901,0,0.0,0.57,,,,,,,,,,,,,,,,,,
2903,0,0.0,0.56,,-0.0,-0.01,0.95,-0,2,-2,0.01,15,2100,0,0.0,0.0,0.0,0.0,0,0,0.0
2905,0,0.0,0.56,,,,,,,,,,,,,,,,,,
2907,0,0.0,0.56,,,,,,,,,,,,,,,,,,
2909,0,0.0,0.56,,,,,,,,,,,,,,,,,,
2911,0,0.0,0.56,,,,,,,,,,,,,,,,,,
2913,0,0.0,0.56,,-0.29,0.07,0.98,0,2,-1,0.29,,,,,,,,,,
2915,0,0.0,0.56,,,,,,,,,,,,,,,,,,
2917,0,0.0,0.56,,,,,,,,,,,,,,,,,,
2919,0,0.0,0.56,,,,,,,,,,,,,,,,,,
2921,0,0.0,0.56,,,,,,,,,,,,,,,,,,
2923,0,0.0,0.56,,-0.12,-0.0,0.89,1,1,-1,0.12,15,2100,0,0.0,0.0,0.0,0.0,0,0,0.0
2925,0,0.0,0.56,,,,,,,,,,,,,,,,,,
2927,0,0.0,0.57,,,,,,,,,,,,,,,,,,
2929,0,0.0,0.56,,,,,,,,,,,,,,,,,,
2931,0,0.0,0.57,,,,,,,,,,,,,,,,,,
2933,0,0.0,0.56,,-0.05,0.08,0.96,1,2,-1,0.09,,,,,,,,,,
2935,0,0.0,0.57,,,,,,,,,,,,,,,,,,
2937,0,0.0,0.56,,,,,,,,,,,,,,,,,,
2939,0,0.0,0.56,,,,,,,,,,,,,,,,,,
2941,0,0.0,0.57,,,,,,,,,,,,,,,,,,
2943,0,0.0,0.56,,-0.31,0.16,1.01,1,0,-1,0.35,15,2100,0,0.0,0.0,0.0,0.0,0,0,0.0
2945,0,0.0,0.56,,,,,,,,,,,,,,,,,,
2947,0,0.0,0.56,,,,,,,,,,,,,,,,,,
2949,0,0.0,0.57,,,,,,,,,,,,,,,,,,
2951,0,0.0,0.57,,,,,,,,,,,,,,,,,,
2953,0,0.0,0.57,,0.04,0.02,0.87,2,-0,-1,0.05,,,,,,,,,,
2955,0,0.0,0.57,,,,,,,,,,,,,,,,,,
2957,0,0.0,0.58,,,,,,,,,,,,,,,,,,
2959,0,0.0,0.57,,,,,,,,,,,,,,,,,,
2961,0,0.0,0.57,,,,,,,,,,,,,,,,,,
2963,0,0.0,0.57,,-0.07,0.05,0.89,1,0,-1,0.09,15,2160,0,0.0,0.0,0.0,0.0,0,0,0.0
2965,0,0.0,0.57,,,,,,,,,,,,,,,,,,
2967,0,0.0,0.57,,,,,,,,,,,,,,,,,,
2969,0,0.0,0.57,,,,,,,,,,,,,,,,,,
2971,0,0.0,0.57,,,,,,,,,,,,,,,,,,
2973,0,0.0,0.57,,-0.26,0.13,1.07,1,-1,-1,0.29,,,,,,,,,,
2975,0,0.0,0.57,,,,,,,,,,,,,,,,,,
2977,0,0.0,0.57,,,,,,,,,,,,,,,,,,
2979,0,0.0,0.57,,,,,,,,,,,,,,,,,,
2981,0,0.0,0.57,,,,,,,,,,,,,,,,,,
2983,0,0.0,0.57,,-0.02,-0.01,1.01,1,-1,-1,0.02,15,2160,0,0.0,0.0,0.0,0.0,0,0,0.0
2985,0,0.0,0.57,,,,,,,,,,,,,,,,,,
2987,0,0.0,0.57,,,,,,,,,,,,,,,,,,
2989,0,0.0,0.57,,,,,,,,,,,,,,,,,,
2991,0,0.0,0.57,,,,,,,,,,,,,,,,,,
2993,0,0.0,0.57,,-0.17,0.07,1.08,0,1,-0,0.19,,,,,,,,,,
2995,0,0.0,0.57,,,,,,,,,,,,,,,,,,
2997,0,0.0,0.57,,,,,,,,,,,,,,,,,,
2999,0,0.0,0.57,,,,,,,,,,,,,,,,,,
3001,0,0.0,0.57,,,,,,,,,,,,,,,,,,
3003,0,0.0,0.57,,-0.24,0.14,1.17,1,1,-0,0.28,15,2100,0,0.0,0.0,0.0,0.0,0,0,0.0
3005,0,0.0,0.58,,,,,,,,,,,,,,,,,,
3007,0,0.0,0.58,,,,,,,,,,,,,,,,,,
3009,0,0.0,0.58,,,,,,,,,,,,,,,,,,
3011,0,0.0,0.58,,,,,,,,,,,,,,,,,,
3013,0,0.0,0.59,,-0.07,-0.0,1.05,0,1,-0,0.07,,,,,,,,,,
3015,0,0.0,0.58,,,,,,,,,,,,,,,,,,
3017,0,0.0,0.58,,,,,,,,,,,,,,,,,,
3019,0,0.0,0.58,,,,,,,,,,,,,,,,,,
3021,0,0.0,0.58,,,,,,,,,,,,,,,,,,
3023,0,0.0,0.58,,-0.27,0.08,0.97,-0,1,-0,0.28,15,2160,0,0.0,0.0,0.0,0.0,0,0,0.0
3025,0,0.0,0.58,,,,,,,,,,,,,,,,,,
3027,0,0.0,0.58,,,,,,,,,,,,,,,,,,
3029,0,0.0,0.58,,,,,,,,,,,,,,,,,,
3031,0,0.0,0.58,,,,,,,,,,,,,,,,,,
3033,0,0.0,0.58,,-0.2,0.1,0.92,0,0,-1,0.23,,,,,,,,,,
3035,0,0.0,0.58,,,,,,,,,,,,,,,,,,
3037,0,0.0,0.58,,,,,,,,,,,,,,,,,,
3039,0,0.0,0.57,,,,,,,,,,,,,,,,,,
3041,0,0.0,0.57,,,,,,,,,,,,,,,,,,
3043,0,0.0,0.58,13.31,0.01,0.08,0.89,-1,1,-1,0.08,8,2100,0,0.0,0.0,0.0,0.0,0,0,0.0
3045,0,0.0,0.58,,,,,,,,,,,,,,,,,,
3047,0,0.0,0.57,,,,,,,,,,,,,,,,,,
3049,0,0.0,0.57,,,,,,,,,,,,,,,,,,
3051,0,0.0,0.57,,,,,,,,,,,,,,,,,,
3053,0,0.0,0.57,,-0.33,0.11,0.92,-1,0,-1,0.35,,,,,,,,,,
3055,0,0.0,0.57,,,,,,,,,,,,,,,,,,
3057,0,0.0,0.57,,,,,,,,,,,,,,,,,,
3059,0,0.0,0.57,,,,,,,,,,,,,,,,,,
3061,0,0.0,0.57,,,,,,,,,,,,,,,,,,
3063,0,0.0,0.57,,-0.09,0.03,0.98,-1,-1,-1,0.09,8,2100,0,0.0,0.0,0.0,0.0,0,0,0.0
3065,0,0.0,0.57,,,,,,,,,,,,,,,,,,
3067,0,0.0,0.57,,,,,,,,,,,,,,,,,,
3069,0,0.0,0.58,,,,,,,,,,,,,,,,,,
3071,0,0.0,0.57,,,,,,,,,,,,,,,,,,
3073,0,0.0,0.57,,-0.1,0.01,1.02,-1,1,-1,0.1,,,,,,,,,,
3075,0,0.0,0.57,,,,,,,,,,,,,,,,,,
3077,0,0.0,0.57,,,,,,,,,,,,,,,,,,
3079,0,0.0,0.57,,,,,,,,,,,,,,,,,,
