"Interval"|"ms"|0|0|1,"Utc"|"ms"|0|0|1,"Analog4"|"Volts"|0.0|5.0|500,"Analog5"|"Volts"|0.0|5.0|500,"Battery"|"Volts"|0.0|20.0|1,"AccelX"|"G"|-3.0|3.0|200,"AccelY"|"G"|-3.0|3.0|200,"AccelZ"|"G"|-3.0|3.0|200,"Yaw"|"Deg/Sec"|-120|120|200,"Pitch"|"Deg/Sec"|-120|120|200,"Roll"|"Deg/Sec"|-120|120|200,"Gsum"|"G"|0.0|3.0|200,"RPM2"|"rpm"|0|8000|50,"RPM3"|"rpm"|0|8000|50,"GPIO1"|""|0.0|1.0|50,"Latitude"|"Degrees"|-180.0|180.0|50,"Longitude"|"Degrees"|-180.0|180.0|50,"Speed"|"mph"|0.0|150.0|50,"Altitude"|"ft"|0.0|4000.0|50,"GPSSats"|""|0|20|50,"GPSQual"|""|0|5|50,"GPSDOP"|""|0.0|20.0|50
111,0,0.0,0.26,,,,,,,,,,,,,,,,,,
113,0,0.0,0.26,,-0.26,0.14,1.08,-0,-0,-1,0.29,,,,,,,,,,
115,0,0.0,0.26,,,,,,,,,,,,,,,,,,
117,0,0.0,0.26,,,,,,,,,,,,,,,,,,
119,0,0.0,0.26,,,,,,,,,,,,,,,,,,
121,0,0.0,0.26,,,,,,,,,,,,,,,,,,
123,0,0.0,0.26,,0.01,0.0,0.87,1,-1,0,0.01,0,2100,0,0.0,0.0,0.0,0.0,0,0,0.0
125,0,0.0,0.26,,,,,,,,,,,,,,,,,,
127,0,0.0,0.26,,,,,,,,,,,,,,,,,,
129,0,0.0,0.27,,,,,,,,,,,,,,,,,,
131,0,0.0,0.26,,,,,,,,,,,,,,,,,,
133,0,0.0,0.26,,0.03,0.1,0.93,0,0,-0,0.11,,,,,,,,,,
135,0,0.0,0.26,,,,,,,,,,,,,,,,,,
137,0,0.0,0.26,,,,,,,,,,,,,,,,,,
139,0,0.0,0.26,,,,,,,,,,,,,,,,,,
141,0,0.0,0.26,,,,,,,,,,,,,,,,,,
143,0,0.0,0.26,,-0.23,0.12,1.07,0,-0,-1,0.26,0,2040,0,0.0,0.0,0.0,0.0,0,0,0.0
145,0,0.0,0.26,,,,,,,,,,,,,,,,,,
147,0,0.0,0.26,,,,,,,,,,,,,,,,,,
149,0,0.0,0.26,,,,,,,,,,,,,,,,,,
151,0,0.0,0.27,,,,,,,,,,,,,,,,,,
153,0,0.0,0.26,,0.09,-0.02,0.92,1,-1,0,0.09,,,,,,,,,,
155,0,0.0,0.27,,,,,,,,,,,,,,,,,,
157,0,0.0,0.27,,,,,,,,,,,,,,,,,,
159,0,0.0,0.27,,,,,,,,,,,,,,,,,,
161,0,0.0,0.27,,,,,,,,,,,,,,,,,,
163,0,0.0,0.27,,-0.05,0.08,0.92,-0,0,-0,0.09,0,2100,0,0.0,0.0,0.0,0.0,0,0,0.0
165,0,0.0,0.27,,,,,,,,,,,,,,,,,,
167,0,0.0,0.27,,,,,,,,,,,,,,,,,,
169,0,0.0,0.27,,,,,,,,,,,,,,,,,,
171,0,0.0,0.26,,,,,,,,,,,,,,,,,,
173,0,0.0,0.27,,-0.24,0.12,1.1,0,-0,-0,0.27,,,,,,,,,,
175,0,0.0,0.27,,,,,,,,,,,,,,,,,,
177,0,0.0,0.27,,,,,,,,,,,,,,,,,,
179,0,0.0,0.26,,,,,,,,,,,,,,,,,,
181,0,0.0,0.27,,,,,,,,,,,,,,,,,,
183,0,0.0,0.27,,0.05,0.02,0.95,0,-2,0,0.05,0,2100,0,0.0,0.0,0.0,0.0,0,0,0.0
185,0,0.0,0.26,,,,,,,,,,,,,,,,,,
187,0,0.0,0.28,,,,,,,,,,,,,,,,,,
189,0,0.0,0.27,,,,,,,,,,,,,,,,,,
191,0,0.0,0.27,,,,,,,,,,,,,,,,,,
193,0,0.01,0.27,,-0.04,0.09,0.91,-0,-0,-0,0.1,,,,,,,,,,
195,0,0.0,0.27,,,,,,,,,,,,,,,,,,
197,0,0.0,0.27,,,,,,,,,,,,,,,,,,
199,0,0.0,0.27,,,,,,,,,,,,,,,,,,
201,0,0.0,0.27,,,,,,,,,,,,,,,,,,
203,0,0.0,0.27,,-0.15,0.07,1.07,1,-0,-0,0.17,0,2040,0,0.0,0.0,0.0,0.0,0,0,0.0
205,0,0.0,0.27,,,,,,,,,,,,,,,,,,
207,0,0.0,0.27,,,,,,,,,,,,,,,,,,
209,0,0.0,0.27,,,,,,,,,,,,,,,,,,
211,0,0.0,0.27,,,,,,,,,,,,,,,,,,
213,0,0.0,0.27,,0.1,-0.01,0.97,0,-1,-0,0.1,,,,,,,,,,
215,0,0.0,0.28,,,,,,,,,,,,,,,,,,
217,0,0.0,0.27,,,,,,,,,,,,,,,,,,
219,0,0.0,0.27,,,,,,,,,,,,,,,,,,
221,0,0.0,0.28,,,,,,,,,,,,,,,,,,
223,0,0.0,0.28,,-0.09,0.09,0.93,-0,0,-0,0.13,0,2100,0,0.0,0.0,0.0,0.0,0,0,0.0
225,0,0.01,0.27,,,,,,,,,,,,,,,,,,
227,0,0.0,0.28,,,,,,,,,,,,,,,,,,
229,0,0.0,0.27,,,,,,,,,,,,,,,,,,
231,0,0.0,0.27,,,,,,,,,,,,,,,,,,
233,0,0.0,0.27,,-0.18,0.1,1.06,1,-0,-0,0.21,,,,,,,,,,
235,0,0.0,0.27,,,,,,,,,,,,,,,,,,
237,0,0.0,0.28,,,,,,,,,,,,,,,,,,
239,0,0.0,0.27,,,,,,,,,,,,,,,,,,
241,0,0.0,0.27,,,,,,,,,,,,,,,,,,
243,0,0.0,0.27,,0.07,0.05,0.97,0,-0,-0,0.09,0,2100,0,0.0,0.0,0.0,0.0,0,0,0.0
245,0,0.0,0.29,,,,,,,,,,,,,,,,,,
247,0,0.0,0.28,,,,,,,,,,,,,,,,,,
249,0,0.0,0.28,,,,,,,,,,,,,,,,,,
251,0,0.0,0.28,,,,,,,,,,,,,,,,,,
253,0,0.0,0.27,,-0.16,0.1,0.92,-0,0,-1,0.19,,,,,,,,,,
255,0,0.0,0.28,,,,,,,,,,,,,,,,,,
257,0,0.0,0.28,,,,,,,,,,,,,,,,,,
259,0,0.0,0.28,,,,,,,,,,,,,,,,,,
261,0,0.0,0.28,,,,,,,,,,,,,,,,,,
263,0,0.0,0.28,,-0.1,0.04,1.04,1,-1,-0,0.1,0,2040,0,0.0,0.0,0.0,0.0,0,0,0.0
265,0,0.0,0.28,,,,,,,,,,,,,,,,,,
267,0,0.0,0.28,,,,,,,,,,,,,,,,,,
269,0,0.0,0.28,,,,,,,,,,,,,,,,,,
271,0,0.0,0.28,,,,,,,,,,,,,,,,,,
273,0,0.0,0.29,,0.08,0.04,0.93,-0,-0,0,0.09,,,,,,,,,,
275,0,0.0,0.28,,,,,,,,,,,,,,,,,,
277,0,0.0,0.28,,,,,,,,,,,,,,,,,,
279,0,0.0,0.28,,,,,,,,,,,,,,,,,,
281,0,0.0,0.28,,,,,,,,,,,,,,,,,,
283,0,0.0,0.28,,-0.18,0.14,0.98,-0,0,-1,0.23,0,2100,0,0.0,0.0,0.0,0.0,0,0,0.0
285,0,0.0,0.28,,,,,,,,,,,,,,,,,,
287,0,0.0,0.28,,,,,,,,,,,,,,,,,,
289,0,0.0,0.28,,,,,,,,,,,,,,,,,,
291,0,0.0,0.28,,,,,,,,,,,,,,,,,,
293,0,0.0,0.28,,-0.11,0.04,0.95,1,-1,-0,0.11,,,,,,,,,,
295,0,0.0,0.28,,,,,,,,,,,,,,,,,,
297,0,0.0,0.28,,,,,,,,,,,,,,,,,,
299,0,0.0,0.28,,,,,,,,,,,,,,,,,,
301,0,0.0,0.28,,,,,,,,,,,,,,,,,,
303,0,0.0,0.29,,0.07,0.1,0.99,-0,0,-0,0.12,0,2040,0,0.0,0.0,0.0,0.0,0,0,0.0
305,0,0.0,0.29,,,,,,,,,,,,,,,,,,
307,0,0.0,0.29,,,,,,,,,,,,,,,,,,
309,0,0.0,0.28,,,,,,,,,,,,,,,,,,
311,0,0.0,0.29,,,,,,,,,,,,,,,,,,
313,0,0.0,0.29,,-0.3,0.11,1.05,-0,-0,-1,0.32,,,,,,,,,,
315,0,0.0,0.28,,,,,,,,,,,,,,,,,,
317,0,0.0,0.28,,,,,,,,,,,,,,,,,,
319,0,0.0,0.29,,,,,,,,,,,,,,,,,,
321,0,0.0,0.29,,,,,,,,,,,,,,,,,,
323,0,0.0,0.29,,-0.01,-0.01,1.0,1,-1,-0,0.01,0,2040,0,0.0,0.0,0.0,0.0,0,0,0.0
325,0,0.0,0.29,,,,,,,,,,,,,,,,,,
327,0,0.0,0.29,,,,,,,,,,,,,,,,,,
329,0,0.0,0.29,,,,,,,,,,,,,,,,,,
331,0,0.0,0.3,,,,,,,,,,,,,,,,,,
333,0,0.0,0.29,,0.02,0.06,0.92,-0,0,-0,0.06,,,,,,,,,,
335,0,0.0,0.29,,,,,,,,,,,,,,,,,,
337,0,0.0,0.29,,,,,,,,,,,,,,,,,,
339,0,0.0,0.29,,,,,,,,,,,,,,,,,,
341,0,0.0,0.29,,,,,,,,,,,,,,,,,,
343,0,0.0,0.29,,-0.27,0.16,1.07,-0,-0,-1,0.31,0,2100,0,0.0,0.0,0.0,0.0,0,0,0.0
345,0,0.0,0.29,,,,,,,,,,,,,,,,,,
347,0,0.0,0.29,,,,,,,,,,,,,,,,,,
349,0,0.0,0.29,,,,,,,,,,,,,,,,,,
351,0,0.0,0.29,,,,,,,,,,,,,,,,,,
353,0,0.0,0.29,,-0.01,-0.0,0.87,1,-1,-0,0.01,,,,,,,,,,
355,0,0.0,0.29,,,,,,,,,,,,,,,,,,
357,0,0.0,0.29,,,,,,,,,,,,,,,,,,
359,0,0.0,0.3,,,,,,,,,,,,,,,,,,
361,0,0.0,0.29,,,,,,,,,,,,,,,,,,
363,0,0.0,0.29,,0.04,0.11,0.93,-0,0,-0,0.11,0,2040,0,0.0,0.0,0.0,0.0,0,0,0.0
365,0,0.0,0.29,,,,,,,,,,,,,,,,,,
367,0,0.0,0.29,,,,,,,,,,,,,,,,,,
369,0,0.0,0.29,,,,,,,,,,,,,,,,,,
371,0,0.0,0.29,,,,,,,,,,,,,,,,,,
373,0,0.0,0.29,,-0.24,0.13,1.08,0,-0,-1,0.27,,,,,,,,,,
375,0,0.0,0.29,,,,,,,,,,,,,,,,,,
377,0,0.0,0.29,,,,,,,,,,,,,,,,,,
379,0,0.0,0.29,,,,,,,,,,,,,,,,,,
381,0,0.0,0.29,,,,,,,,,,,,,,,,,,
383,0,0.0,0.3,,0.07,-0.02,0.94,1,-1,-0,0.07,0,2040,0,0.0,0.0,0.0,0.0,0,0,0.0
385,0,0.0,0.3,,,,,,,,,,,,,,,,,,
387,0,0.0,0.32,,,,,,,,,,,,,,,,,,
389,0,0.0,0.3,,,,,,,,,,,,,,,,,,
391,0,0.0,0.3,,,,,,,,,,,,,,,,,,
393,0,0.0,0.3,,-0.05,0.09,0.91,-0,0,-0,0.1,,,,,,,,,,
395,0,0.0,0.3,,,,,,,,,,,,,,,,,,
397,0,0.0,0.3,,,,,,,,,,,,,,,,,,
399,0,0.0,0.3,,,,,,,,,,,,,,,,,,
401,0,0.0,0.3,,,,,,,,,,,,,,,,,,
403,0,0.0,0.3,,-0.24,0.13,1.12,0,-0,-1,0.27,0,2100,0,0.0,0.0,0.0,0.0,0,0,0.0
405,0,0.0,0.3,,,,,,,,,,,,,,,,,,
407,0,0.0,0.3,,,,,,,,,,,,,,,,,,
409,0,0.0,0.3,,,,,,,,,,,,,,,,,,
411,0,0.0,0.3,,,,,,,,,,,,,,,,,,
413,0,0.0,0.3,,0.03,0.03,0.94,0,-1,-0,0.04,,,,,,,,,,
415,0,0.0,0.3,,,,,,,,,,,,,,,,,,
417,0,0.0,0.31,,,,,,,,,,,,,,,,,,
419,0,0.0,0.3,,,,,,,,,,,,,,,,,,
421,0,0.0,0.3,,,,,,,,,,,,,,,,,,
423,0,0.0,0.3,,-0.02,0.09,0.93,-0,0,-0,0.1,0,2040,0,0.0,0.0,0.0,0.0,0,0,0.0
425,0,0.0,0.3,,,,,,,,,,,,,,,,,,
427,0,0.0,0.3,,,,,,,,,,,,,,,,,,
429,0,0.0,0.3,,,,,,,,,,,,,,,,,,
431,0,0.0,0.3,,,,,,,,,,,,,,,,,,
433,0,0.0,0.3,,-0.14,0.08,1.06,1,0,-0,0.16,,,,,,,,,,
435,0,0.0,0.3,,,,,,,,,,,,,,,,,,
437,0,0.0,0.3,,,,,,,,,,,,,,,,,,
439,0,0.0,0.3,,,,,,,,,,,,,,,,,,
441,0,0.0,0.3,,,,,,,,,,,,,,,,,,
443,0,0.0,0.31,,0.07,-0.0,0.98,0,-1,-0,0.07,0,2040,0,0.0,0.0,0.0,0.0,0,0,0.0
445,0,0.0,0.32,,,,,,,,,,,,,,,,,,
447,0,0.0,0.31,,,,,,,,,,,,,,,,,,
449,0,0.0,0.31,,,,,,,,,,,,,,,,,,
451,0,0.0,0.31,,,,,,,,,,,,,,,,,,
453,0,0.0,0.31,,-0.08,0.08,0.92,-0,0,-0,0.12,,,,,,,,,,
455,0,0.0,0.31,,,,,,,,,,,,,,,,,,
457,0,0.0,0.31,,,,,,,,,,,,,,,,,,
459,0,0.0,0.31,,,,,,,,,,,,,,,,,,
461,0,0.0,0.31,,,,,,,,,,,,,,,,,,
463,0,0.0,0.31,,-0.17,0.09,1.07,1,-0,-0,0.19,0,2100,0,0.0,0.0,0.0,0.0,0,0,0.0
465,0,0.0,0.31,,,,,,,,,,,,,,,,,,
467,0,0.0,0.31,,,,,,,,,,,,,,,,,,
469,0,0.0,0.31,,,,,,,,,,,,,,,,,,
471,0,0.0,0.31,,,,,,,,,,,,,,,,,,
473,0,0.0,0.31,,0.06,0.07,1.0,0,-0,-0,0.09,,,,,,,,,,
475,0,0.0,0.32,,,,,,,,,,,,,,,,,,
477,0,0.0,0.31,,,,,,,,,,,,,,,,,,
479,0,0.0,0.31,,,,,,,,,,,,,,,,,,
481,0,0.0,0.31,,,,,,,,,,,,,,,,,,
483,0,0.0,0.31,,-0.15,0.09,0.95,-0,0,-1,0.18,0,2040,0,0.0,0.0,0.0,0.0,0,0,0.0
485,0,0.0,0.31,,,,,,,,,,,,,,,,,,
487,0,0.0,0.31,,,,,,,,,,,,,,,,,,
489,0,0.0,0.31,,,,,,,,,,,,,,,,,,
491,0,0.0,0.31,,,,,,,,,,,,,,,,,,
493,0,0.0,0.31,,-0.1,0.03,1.07,1,-0,-0,0.1,,,,,,,,,,
495,0,0.0,0.31,,,,,,,,,,,,,,,,,,
497,0,0.0,0.31,,,,,,,,,,,,,,,,,,
499,0,0.0,0.31,,,,,,,,,,,,,,,,,,
501,0,0.0,0.31,,,,,,,,,,,,,,,,,,
503,0,0.0,0.33,,0.07,0.05,0.94,-0,-0,-0,0.09,0,2100,0,0.0,0.0,0.0,0.0,0,0,0.0
505,0,0.0,0.32,,,,,,,,,,,,,,,,,,
507,0,0.0,0.32,,,,,,,,,,,,,,,,,,
509,0,0.0,0.32,,,,,,,,,,,,,,,,,,
511,0,0.0,0.32,,,,,,,,,,,,,,,,,,
513,0,0.0,0.32,,-0.15,0.13,0.96,-0,0,-1,0.2,,,,,,,,,,
515,0,0.0,0.32,,,,,,,,,,,,,,,,,,
517,0,0.0,0.31,,,,,,,,,,,,,,,,,,
519,0,0.0,0.32,,,,,,,,,,,,,,,,,,
521,0,0.0,0.31,,,,,,,,,,,,,,,,,,
523,0,0.0,0.31,,-0.11,0.02,0.95,1,-1,-0,0.11,0,2100,0,0.0,0.0,0.0,0.0,0,0,0.0
525,0,0.0,0.32,,,,,,,,,,,,,,,,,,
527,0,0.0,0.32,,,,,,,,,,,,,,,,,,
529,0,0.0,0.32,,,,,,,,,,,,,,,,,,
531,0,0.0,0.32,,,,,,,,,,,,,,,,,,
533,0,0.0,0.32,,0.06,0.11,0.97,-0,0,-0,0.12,,,,,,,,,,
535,0,0.0,0.32,,,,,,,,,,,,,,,,,,
537,0,0.0,0.32,,,,,,,,,,,,,,,,,,
539,0,0.0,0.32,,,,,,,,,,,,,,,,,,
541,0,0.0,0.32,,,,,,,,,,,,,,,,,,
543,0,0.0,0.32,,-0.28,0.11,1.04,-0,0,-1,0.31,0,2040,0,0.0,0.0,0.0,0.0,0,0,0.0
545,0,0.0,0.32,,,,,,,,,,,,,,,,,,
547,0,0.0,0.32,,,,,,,,,,,,,,,,,,
549,0,0.0,0.32,,,,,,,,,,,,,,,,,,
551,0,0.0,0.32,,,,,,,,,,,,,,,,,,
553,0,0.0,0.32,,-0.03,-0.01,1.0,1,-1,0,0.03,,,,,,,,,,
555,0,0.0,0.32,,,,,,,,,,,,,,,,,,
557,0,0.0,0.32,,,,,,,,,,,,,,,,,,
559,0,0.0,0.32,,,,,,,,,,,,,,,,,,
561,0,0.0,0.33,,,,,,,,,,,,,,,,,,
563,0,0.0,0.32,,0.03,0.07,0.93,-0,1,-0,0.07,0,2100,0,0.0,0.0,0.0,0.0,0,0,0.0
565,0,0.0,0.32,,,,,,,,,,,,,,,,,,
567,0,0.0,0.32,,,,,,,,,,,,,,,,,,
569,0,0.0,0.32,,,,,,,,,,,,,,,,,,
571,0,0.0,0.32,,,,,,,,,,,,,,,,,,
573,0,0.0,0.32,,-0.26,0.15,1.07,-0,-0,-1,0.3,,,,,,,,,,
575,0,0.0,0.32,,,,,,,,,,,,,,,,,,
577,0,0.0,0.32,,,,,,,,,,,,,,,,,,
579,0,0.0,0.32,,,,,,,,,,,,,,,,,,
581,0,0.0,0.32,,,,,,,,,,,,,,,,,,
583,0,0.0,0.32,,-0.02,-0.01,0.88,0,-1,0,0.03,0,2100,0,0.0,0.0,0.0,0.0,0,0,0.0
585,0,0.0,0.32,,,,,,,,,,,,,,,,,,
587,0,0.0,0.32,,,,,,,,,,,,,,,,,,
589,0,0.0,0.34,,,,,,,,,,,,,,,,,,
591,0,0.0,0.33,,,,,,,,,,,,,,,,,,
593,0,0.0,0.33,,0.04,0.11,0.93,-0,0,-0,0.12,,,,,,,,,,
595,0,0.0,0.33,,,,,,,,,,,,,,,,,,
597,0,0.0,0.33,,,,,,,,,,,,,,,,,,
599,0,0.0,0.33,,,,,,,,,,,,,,,,,,
601,0,0.0,0.33,,,,,,,,,,,,,,,,,,
603,0,0.0,0.33,,-0.23,0.13,1.06,0,-0,-1,0.26,0,2040,0,0.0,0.0,0.0,0.0,0,0,0.0
605,0,0.0,0.33,,,,,,,,,,,,,,,,,,
607,0,0.0,0.33,,,,,,,,,,,,,,,,,,
609,0,0.0,0.33,,,,,,,,,,,,,,,,,,
611,0,0.0,0.33,,,,,,,,,,,,,,,,,,
613,0,0.0,0.33,,0.05,-0.01,0.93,0,-1,-0,0.05,,,,,,,,,,
615,0,0.0,0.33,,,,,,,,,,,,,,,,,,
617,0,0.0,0.33,,,,,,,,,,,,,,,,,,
619,0,0.0,0.33,,,,,,,,,,,,,,,,,,
621,0,0.0,0.33,,,,,,,,,,,,,,,,,,
623,0,0.0,0.34,,-0.04,0.1,0.92,-0,0,-0,0.1,0,2100,0,0.0,0.0,0.0,0.0,0,0,0.0
625,0,0.0,0.33,,,,,,,,,,,,,,,,,,
627,0,0.0,0.34,,,,,,,,,,,,,,,,,,
629,0,0.0,0.33,,,,,,,,,,,,,,,,,,
631,0,0.0,0.33,,,,,,,,,,,,,,,,,,
633,0,0.0,0.33,,-0.25,0.13,1.12,0,-0,-1,0.28,,,,,,,,,,
635,0,0.0,0.33,,,,,,,,,,,,,,,,,,
637,0,0.0,0.33,,,,,,,,,,,,,,,,,,
639,0,0.0,0.33,,,,,,,,,,,,,,,,,,
641,0,0.0,0.33,,,,,,,,,,,,,,,,,,
643,0,0.0,0.33,,0.01,0.03,0.93,0,-1,-0,0.03,0,2100,0,0.0,0.0,0.0,0.0,0,0,0.0
645,0,0.0,0.33,,,,,,,,,,,,,,,,,,
647,0,0.0,0.34,,,,,,,,,,,,,,,,,,
649,0,0.0,0.34,,,,,,,,,,,,,,,,,,
651,0,0.0,0.34,,,,,,,,,,,,,,,,,,
653,0,0.0,0.34,,-0.01,0.1,0.92,-0,0,-0,0.1,,,,,,,,,,
655,0,0.0,0.34,,,,,,,,,,,,,,,,,,
657,0,0.0,0.34,,,,,,,,,,,,,,,,,,
659,0,0.0,0.34,,,,,,,,,,,,,,,,,,
661,0,0.0,0.34,,,,,,,,,,,,,,,,,,
663,0,0.0,0.34,,-0.15,0.08,1.07,1,0,-0,0.17,0,2040,0,0.0,0.0,0.0,0.0,0,0,0.0
665,0,0.0,0.34,,,,,,,,,,,,,,,,,,
667,0,0.0,0.34,,,,,,,,,,,,,,,,,,
669,0,0.0,0.34,,,,,,,,,,,,,,,,,,
671,0,0.0,0.34,,,,,,,,,,,,,,,,,,
673,0,0.0,0.34,,0.07,0.01,0.99,0,-1,-0,0.07,,,,,,,,,,
675,0,0.0,0.35,,,,,,,,,,,,,,,,,,
677,0,0.0,0.34,,,,,,,,,,,,,,,,,,
679,0,0.0,0.34,,,,,,,,,,,,,,,,,,
681,0,0.0,0.34,,,,,,,,,,,,,,,,,,
683,0,0.0,0.34,,-0.09,0.08,0.92,-1,0,-1,0.12,0,2040,0,0.0,0.0,0.0,0.0,0,0,0.0
685,0,0.0,0.34,,,,,,,,,,,,,,,,,,
687,0,0.0,0.34,,,,,,,,,,,,,,,,,,
689,0,0.0,0.34,,,,,,,,,,,,,,,,,,
691,0,0.0,0.34,,,,,,,,,,,,,,,,,,
693,0,0.0,0.34,,-0.16,0.08,1.07,1,0,-0,0.18,,,,,,,,,,
695,0,0.0,0.34,,,,,,,,,,,,,,,,,,
697,0,0.0,0.34,,,,,,,,,,,,,,,,,,
699,0,0.0,0.34,,,,,,,,,,,,,,,,,,
701,0,0.0,0.34,,,,,,,,,,,,,,,,,,
703,0,0.0,0.34,,0.05,0.06,1.05,0,-0,-0,0.08,0,2040,0,0.0,0.0,0.0,0.0,0,0,0.0
705,0,0.0,0.35,,,,,,,,,,,,,,,,,,
707,0,0.0,0.34,,,,,,,,,,,,,,,,,,
709,0,0.0,0.34,,,,,,,,,,,,,,,,,,
711,0,0.0,0.35,,,,,,,,,,,,,,,,,,
713,0,0.0,0.35,,-0.13,0.08,1.0,-0,0,-1,0.15,,,,,,,,,,
715,0,0.0,0.34,,,,,,,,,,,,,,,,,,
717,0,0.0,0.35,,,,,,,,,,,,,,,,,,
719,0,0.0,0.35,,,,,,,,,,,,,,,,,,
721,0,0.0,0.34,,,,,,,,,,,,,,,,,,
723,0,0.0,0.35,,-0.11,0.01,1.11,1,-0,-0,0.11,0,2040,0,0.0,0.0,0.0,0.0,0,0,0.0
725,0,0.0,0.35,,,,,,,,,,,,,,,,,,
727,0,0.0,0.35,,,,,,,,,,,,,,,,,,
729,0,0.0,0.35,,,,,,,,,,,,,,,,,,
731,0,0.0,0.35,,,,,,,,,,,,,,,,,,
733,0,0.0,0.36,,0.02,0.05,1.0,-0,0,-0,0.05,,,,,,,,,,
735,0,0.0,0.35,,,,,,,,,,,,,,,,,,
737,0,0.0,0.35,,,,,,,,,,,,,,,,,,
739,0,0.0,0.35,,,,,,,,,,,,,,,,,,
741,0,0.0,0.35,,,,,,,,,,,,,,,,,,
743,0,0.0,0.35,,-0.22,0.13,1.01,-0,0,-1,0.25,0,2100,0,0.0,0.0,0.0,0.0,0,0,0.0
745,0,0.0,0.35,,,,,,,,,,,,,,,,,,
747,0,0.0,0.35,,,,,,,,,,,,,,,,,,
749,0,0.0,0.35,,,,,,,,,,,,,,,,,,
751,0,0.0,0.35,,,,,,,,,,,,,,,,,,
753,0,0.0,0.35,,-0.12,0.0,0.95,1,-1,-0,0.12,,,,,,,,,,
755,0,0.0,0.35,,,,,,,,,,,,,,,,,,
757,0,0.0,0.35,,,,,,,,,,,,,,,,,,
759,0,0.0,0.35,,,,,,,,,,,,,,,,,,
761,0,0.0,0.35,,,,,,,,,,,,,,,,,,
763,0,0.0,0.36,,0.04,0.1,0.96,-0,0,-1,0.11,0,2040,0,0.0,0.0,0.0,0.0,0,0,0.0
765,0,0.0,0.36,,,,,,,,,,,,,,,,,,
767,0,0.0,0.35,,,,,,,,,,,,,,,,,,
769,0,0.0,0.35,,,,,,,,,,,,,,,,,,
771,0,0.0,0.35,,,,,,,,,,,,,,,,,,
773,0,0.0,0.35,,-0.29,0.11,1.03,-0,0,-1,0.31,,,,,,,,,,
775,0,0.0,0.35,,,,,,,,,,,,,,,,,,
777,0,0.0,0.35,,,,,,,,,,,,,,,,,,
779,0,0.0,0.36,,,,,,,,,,,,,,,,,,
781,0,0.0,0.35,,,,,,,,,,,,,,,,,,
783,0,0.0,0.36,,-0.01,-0.01,0.98,1,-1,0,0.01,0,2040,0,0.0,0.0,0.0,0.0,0,0,0.0
785,0,0.0,0.35,,,,,,,,,,,,,,,,,,
787,0,0.0,0.36,,,,,,,,,,,,,,,,,,
789,0,0.0,0.36,,,,,,,,,,,,,,,,,,
791,0,0.0,0.37,,,,,,,,,,,,,,,,,,
793,0,0.01,0.36,,0.0,0.08,0.9,-0,0,-0,0.08,,,,,,,,,,
795,0,0.0,0.36,,,,,,,,,,,,,,,,,,
797,0,0.0,0.36,,,,,,,,,,,,,,,,,,
799,0,0.0,0.36,,,,,,,,,,,,,,,,,,
801,0,0.0,0.36,,,,,,,,,,,,,,,,,,
803,0,0.0,0.36,,-0.27,0.14,1.09,-0,-0,-1,0.3,0,2100,0,0.0,0.0,0.0,0.0,0,0,0.0
805,0,0.0,0.36,,,,,,,,,,,,,,,,,,
807,0,0.0,0.36,,,,,,,,,,,,,,,,,,
809,0,0.0,0.36,,,,,,,,,,,,,,,,,,
811,0,0.0,0.36,,,,,,,,,,,,,,,,,,
813,0,0.0,0.36,,-0.02,-0.01,0.85,0,-1,0,0.02,,,,,,,,,,
815,0,0.0,0.36,,,,,,,,,,,,,,,,,,
817,0,0.0,0.36,,,,,,,,,,,,,,,,,,
819,0,0.0,0.37,,,,,,,,,,,,,,,,,,
821,0,0.0,0.36,,,,,,,,,,,,,,,,,,
823,0,0.0,0.36,,0.04,0.11,0.92,-0,0,-0,0.12,0,2040,0,0.0,0.0,0.0,0.0,0,0,0.0
825,0,0.0,0.36,,,,,,,,,,,,,,,,,,
827,0,0.0,0.36,,,,,,,,,,,,,,,,,,
829,0,0.0,0.36,,,,,,,,,,,,,,,,,,
831,0,0.0,0.36,,,,,,,,,,,,,,,,,,
833,0,0.0,0.36,,-0.2,0.11,1.08,0,-0,-1,0.23,,,,,,,,,,
835,0,0.0,0.36,,,,,,,,,,,,,,,,,,
837,0,0.0,0.36,,,,,,,,,,,,,,,,,,
839,0,0.0,0.36,,,,,,,,,,,,,,,,,,
841,0,0.0,0.36,,,,,,,,,,,,,,,,,,
843,0,0.0,0.36,,0.06,-0.01,0.94,0,-1,0,0.06,0,2040,0,0.0,0.0,0.0,0.0,0,0,0.0
845,0,0.0,0.37,,,,,,,,,,,,,,,,,,
847,0,0.0,0.37,,,,,,,,,,,,,,,,,,
849,0,0.0,0.38,,,,,,,,,,,,,,,,,,
851,0,0.0,0.37,,,,,,,,,,,,,,,,,,
853,0,0.0,0.37,,-0.05,0.08,0.95,-0,0,-0,0.09,,,,,,,,,,
855,0,0.0,0.37,,,,,,,,,,,,,,,,,,
857,0,0.0,0.37,,,,,,,,,,,,,,,,,,
859,0,0.0,0.37,,,,,,,,,,,,,,,,,,
861,0,0.0,0.37,,,,,,,,,,,,,,,,,,
863,0,0.0,0.37,,-0.22,0.11,1.11,0,-0,-1,0.25,0,2100,0,0.0,0.0,0.0,0.0,0,0,0.0
865,0,0.0,0.37,,,,,,,,,,,,,,,,,,
867,0,0.0,0.37,,,,,,,,,,,,,,,,,,
869,0,0.0,0.37,,,,,,,,,,,,,,,,,,
871,0,0.0,0.37,,,,,,,,,,,,,,,,,,
873,0,0.0,0.37,,0.02,0.05,0.98,0,-1,-0,0.05,,,,,,,,,,
875,0,0.0,0.37,,,,,,,,,,,,,,,,,,
877,0,0.0,0.38,,,,,,,,,,,,,,,,,,
879,0,0.0,0.37,,,,,,,,,,,,,,,,,,
881,0,0.0,0.37,,,,,,,,,,,,,,,,,,
883,0,0.0,0.37,,-0.02,0.08,0.91,-0,0,-0,0.09,0,2040,0,0.0,0.0,0.0,0.0,0,0,0.0
885,0,0.0,0.37,,,,,,,,,,,,,,,,,,
887,0,0.0,0.37,,,,,,,,,,,,,,,,,,
889,0,0.0,0.37,,,,,,,,,,,,,,,,,,
891,0,0.0,0.37,,,,,,,,,,,,,,,,,,
893,0,0.0,0.37,,-0.1,0.07,1.06,1,0,-1,0.12,,,,,,,,,,
895,0,0.0,0.37,,,,,,,,,,,,,,,,,,
897,0,0.0,0.37,,,,,,,,,,,,,,,,,,
899,0,0.0,0.37,,,,,,,,,,,,,,,,,,
901,0,0.0,0.37,,,,,,,,,,,,,,,,,,
903,0,0.0,0.37,,0.06,0.02,1.01,0,-1,-0,0.06,0,2040,0,0.0,0.0,0.0,0.0,0,0,0.0
905,0,0.0,0.38,,,,,,,,,,,,,,,,,,
907,0,0.0,0.38,,,,,,,,,,,,,,,,,,
909,0,0.0,0.38,,,,,,,,,,,,,,,,,,
911,0,0.0,0.38,,,,,,,,,,,,,,,,,,
913,0,0.0,0.38,,-0.08,0.1,0.92,-0,1,-0,0.13,,,,,,,,,,
915,0,0.0,0.38,,,,,,,,,,,,,,,,,,
917,0,0.0,0.38,,,,,,,,,,,,,,,,,,
919,0,0.0,0.38,,,,,,,,,,,,,,,,,,
921,0,0.0,0.38,,,,,,,,,,,,,,,,,,
923,0,0.0,0.37,,-0.15,0.08,1.02,1,0,-0,0.17,0,2100,0,0.0,0.0,0.0,0.0,0,0,0.0
925,0,0.0,0.38,,,,,,,,,,,,,,,,,,
927,0,0.0,0.37,,,,,,,,,,,,,,,,,,
929,0,0.0,0.38,,,,,,,,,,,,,,,,,,
931,0,0.0,0.38,,,,,,,,,,,,,,,,,,
933,0,0.0,0.38,,0.04,0.07,0.96,0,-0,-0,0.08,,,,,,,,,,
935,0,0.0,0.39,,,,,,,,,,,,,,,,,,
937,0,0.0,0.38,,,,,,,,,,,,,,,,,,
939,0,0.0,0.38,,,,,,,,,,,,,,,,,,
941,0,0.0,0.38,,,,,,,,,,,,,,,,,,
943,0,0.0,0.38,,-0.17,0.09,0.92,-0,0,-0,0.2,0,2040,0,0.0,0.0,0.0,0.0,0,0,0.0
945,0,0.0,0.38,,,,,,,,,,,,,,,,,,
947,0,0.0,0.38,,,,,,,,,,,,,,,,,,
949,0,0.0,0.38,,,,,,,,,,,,,,,,,,
951,0,0.0,0.38,,,,,,,,,,,,,,,,,,
953,0,0.0,0.38,,-0.09,0.01,1.05,0,-0,-0,0.09,,,,,,,,,,
955,0,0.0,0.38,,,,,,,,,,,,,,,,,,
957,0,0.0,0.38,,,,,,,,,,,,,,,,,,
959,0,0.0,0.38,,,,,,,,,,,,,,,,,,
961,0,0.0,0.38,,,,,,,,,,,,,,,,,,
963,0,0.0,0.4,,0.04,0.08,0.96,-0,-0,-0,0.09,0,2100,0,0.0,0.0,0.0,0.0,0,0,0.0
965,0,0.0,0.39,,,,,,,,,,,,,,,,,,
967,0,0.0,0.39,,,,,,,,,,,,,,,,,,
969,0,0.0,0.39,,,,,,,,,,,,,,,,,,
971,0,0.0,0.39,,,,,,,,,,,,,,,,,,
973,0,0.0,0.39,,-0.17,0.15,0.96,-0,0,-1,0.22,,,,,,,,,,
975,0,0.0,0.39,,,,,,,,,,,,,,,,,,
977,0,0.0,0.38,,,,,,,,,,,,,,,,,,
979,0,0.0,0.39,,,,,,,,,,,,,,,,,,
981,0,0.0,0.39,,,,,,,,,,,,,,,,,,
983,0,0.0,0.39,,-0.1,-0.01,0.92,1,-1,-0,0.1,0,2100,0,0.0,0.0,0.0,0.0,0,0,0.0
985,0,0.0,0.39,,,,,,,,,,,,,,,,,,
987,0,0.0,0.39,,,,,,,,,,,,,,,,,,
989,0,0.0,0.39,,,,,,,,,,,,,,,,,,
991,0,0.0,0.38,,,,,,,,,,,,,,,,,,
993,0,0.0,0.39,,0.06,0.1,0.95,-0,0,-0,0.12,,,,,,,,,,
995,0,0.01,0.39,,,,,,,,,,,,,,,,,,
997,0,0.0,0.39,,,,,,,,,,,,,,,,,,
999,0,0.0,0.39,,,,,,,,,,,,,,,,,,
1001,0,0.0,0.39,,,,,,,,,,,,,,,,,,
1003,0,0.0,0.39,,-0.26,0.1,1.03,-0,0,-1,0.28,0,2040,0,0.0,0.0,0.0,0.0,0,0,0.0
1005,0,0.0,0.39,,,,,,,,,,,,,,,,,,
1007,0,0.0,0.39,,,,,,,,,,,,,,,,,,
1009,0,0.0,0.39,,,,,,,,,,,,,,,,,,
1011,0,0.0,0.39,,,,,,,,,,,,,,,,,,
1013,0,0.0,0.39,,-0.03,-0.0,0.98,0,-1,0,0.03,,,,,,,,,,
1015,0,0.0,0.39,,,,,,,,,,,,,,,,,,
1017,0,0.0,0.39,,,,,,,,,,,,,,,,,,
1019,0,0.0,0.39,,,,,,,,,,,,,,,,,,
1021,0,0.0,0.4,,,,,,,,,,,,,,,,,,
1023,0,0.0,0.39,,0.01,0.09,0.9,-0,0,-0,0.09,0,2040,0,0.0,0.0,0.0,0.0,0,0,0.0
1025,0,0.0,0.39,,,,,,,,,,,,,,,,,,
1027,0,0.0,0.4,,,,,,,,,,,,,,,,,,
1029,0,0.0,0.39,,,,,,,,,,,,,,,,,,
1031,0,0.0,0.39,,,,,,,,,,,,,,,,,,
1033,0,0.0,0.39,,-0.24,0.13,1.08,-0,-0,-1,0.27,,,,,,,,,,
1035,0,0.0,0.39,,,,,,,,,,,,,,,,,,
1037,0,0.0,0.4,,,,,,,,,,,,,,,,,,
1039,0,0.0,0.39,,,,,,,,,,,,,,,,,,
1041,0,0.0,0.39,,,,,,,,,,,,,,,,,,
1043,0,0.0,0.39,13.37,-0.04,-0.02,0.88,0,-2,0,0.05,0,2040,0,0.0,0.0,0.0,0.0,0,0,0.0
1045,0,0.0,0.39,,,,,,,,,,,,,,,,,,
1047,0,0.0,0.39,,,,,,,,,,,,,,,,,,
1049,0,0.0,0.4,,,,,,,,,,,,,,,,,,
1051,0,0.0,0.41,,,,,,,,,,,,,,,,,,
1053,0,0.0,0.4,,0.05,0.1,0.94,-0,-0,-0,0.11,,,,,,,,,,
1055,0,0.0,0.4,,,,,,,,,,,,,,,,,,
1057,0,0.0,0.4,,,,,,,,,,,,,,,,,,
1059,0,0.0,0.4,,,,,,,,,,,,,,,,,,
1061,0,0.0,0.4,,,,,,,,,,,,,,,,,,
1063,0,0.0,0.4,,-0.22,0.12,1.07,0,-0,-1,0.25,0,2040,0,0.0,0.0,0.0,0.0,0,0,0.0
1065,0,0.0,0.4,,,,,,,,,,,,,,,,,,
1067,0,0.0,0.4,,,,,,,,,,,,,,,,,,
1069,0,0.0,0.4,,,,,,,,,,,,,,,,,,
1071,0,0.0,0.4,,,,,,,,,,,,,,,,,,
1073,0,0.0,0.4,,0.05,0.0,0.96,0,-2,0,0.05,,,,,,,,,,
1075,0,0.0,0.4,,,,,,,,,,,,,,,,,,
1077,0,0.0,0.4,,,,,,,,,,,,,,,,,,
1079,0,0.0,0.41,,,,,,,,,,,,,,,,,,
1081,0,0.0,0.4,,,,,,,,,,,,,,,,,,
1083,0,0.0,0.4,,-0.03,0.09,0.93,-0,0,-0,0.1,0,2040,0,0.0,0.0,0.0,0.0,0,0,0.0
1085,0,0.0,0.41,,,,,,,,,,,,,,,,,,
1087,0,0.0,0.4,,,,,,,,,,,,,,,,,,
1089,0,0.0,0.4,,,,,,,,,,,,,,,,,,
1091,0,0.0,0.4,,,,,,,,,,,,,,,,,,
1093,0,0.0,0.4,,-0.23,0.12,1.11,0,0,-1,0.26,,,,,,,,,,
1095,0,0.0,0.4,,,,,,,,,,,,,,,,,,
1097,0,0.0,0.4,,,,,,,,,,,,,,,,,,
1099,0,0.0,0.4,,,,,,,,,,,,,,,,,,
1101,0,0.0,0.4,,,,,,,,,,,,,,,,,,
1103,0,0.0,0.4,,0.01,0.02,0.94,0,-1,0,0.02,0,2040,0,0.0,0.0,0.0,0.0,0,0,0.0
1105,0,0.0,0.4,,,,,,,,,,,,,,,,,,
1107,0,0.0,0.4,,,,,,,,,,,,,,,,,,
1109,0,0.0,0.41,,,,,,,,,,,,,,,,,,
1111,0,0.0,0.41,,,,,,,,,,,,,,,,,,
1113,0,0.0,0.41,,0.01,0.1,0.91,-0,0,-0,0.1,,,,,,,,,,
1115,0,0.0,0.41,,,,,,,,,,,,,,,,,,
1117,0,0.0,0.41,,,,,,,,,,,,,,,,,,
1119,0,0.0,0.4,,,,,,,,,,,,,,,,,,
1121,0,0.0,0.4,,,,,,,,,,,,,,,,,,
1123,0,0.0,0.41,,-0.14,0.09,1.09,1,-0,-1,0.17,0,2040,0,0.0,0.0,0.0,0.0,0,0,0.0
1125,0,0.0,0.41,,,,,,,,,,,,,,,,,,
1127,0,0.0,0.41,,,,,,,,,,,,,,,,,,
1129,0,0.0,0.41,,,,,,,,,,,,,,,,,,
1131,0,0.0,0.41,,,,,,,,,,,,,,,,,,
1133,0,0.0,0.41,,0.07,0.0,0.95,0,-1,-0,0.07,,,,,,,,,,
1135,0,0.0,0.41,,,,,,,,,,,,,,,,,,
1137,0,0.0,0.42,,,,,,,,,,,,,,,,,,
1139,0,0.0,0.41,,,,,,,,,,,,,,,,,,
1141,0,0.0,0.41,,,,,,,,,,,,,,,,,,
1143,0,0.0,0.41,,-0.06,0.08,0.9,-0,0,-0,0.1,0,2100,0,0.0,0.0,0.0,0.0,0,0,0.0
1145,0,0.0,0.41,,,,,,,,,,,,,,,,,,
1147,0,0.0,0.41,,,,,,,,,,,,,,,,,,
1149,0,0.0,0.41,,,,,,,,,,,,,,,,,,
1151,0,0.0,0.41,,,,,,,,,,,,,,,,,,
1153,0,0.0,0.41,,-0.19,0.1,1.09,0,-0,-1,0.22,,,,,,,,,,
1155,0,0.0,0.41,,,,,,,,,,,,,,,,,,
1157,0,0.0,0.41,,,,,,,,,,,,,,,,,,
1159,0,0.0,0.41,,,,,,,,,,,,,,,,,,
1161,0,0.0,0.41,,,,,,,,,,,,,,,,,,
1163,0,0.0,0.41,,0.02,0.06,0.98,0,-1,-0,0.07,0,2100,0,0.0,0.0,0.0,0.0,0,0,0.0
1165,0,0.0,0.42,,,,,,,,,,,,,,,,,,
1167,0,0.0,0.41,,,,,,,,,,,,,,,,,,
1169,0,0.0,0.41,,,,,,,,,,,,,,,,,,
1171,0,0.0,0.41,,,,,,,,,,,,,,,,,,
1173,0,0.0,0.42,,-0.09,0.08,0.91,-0,-0,-0,0.12,,,,,,,,,,
1175,0,0.0,0.41,,,,,,,,,,,,,,,,,,
1177,0,0.0,0.41,,,,,,,,,,,,,,,,,,
1179,0,0.0,0.41,,,,,,,,,,,,,,,,,,
1181,0,0.0,0.42,,,,,,,,,,,,,,,,,,
1183,0,0.0,0.41,,-0.09,0.05,1.04,1,0,-0,0.1,0,2040,0,0.0,0.0,0.0,0.0,0,0,0.0
1185,0,0.0,0.41,,,,,,,,,,,,,,,,,,
1187,0,0.0,0.42,,,,,,,,,,,,,,,,,,
1189,0,0.0,0.42,,,,,,,,,,,,,,,,,,
1191,0,0.0,0.42,,,,,,,,,,,,,,,,,,
1193,0,0.0,0.42,,0.05,0.05,0.96,0,-1,-0,0.07,,,,,,,,,,
1195,0,0.0,0.43,,,,,,,,,,,,,,,,,,
1197,0,0.0,0.42,,,,,,,,,,,,,,,,,,
1199,0,0.0,0.42,,,,,,,,,,,,,,,,,,
1201,0,0.0,0.42,,,,,,,,,,,,,,,,,,
1203,0,0.0,0.42,,-0.09,0.12,0.93,-0,0,-1,0.15,0,2100,0,0.0,0.0,0.0,0.0,0,0,0.0
1205,0,0.0,0.42,,,,,,,,,,,,,,,,,,
1207,0,0.0,0.42,,,,,,,,,,,,,,,,,,
1209,0,0.0,0.42,,,,,,,,,,,,,,,,,,
1211,0,0.0,0.42,,,,,,,,,,,,,,,,,,
1213,0,0.0,0.42,,-0.11,0.03,0.97,1,-0,-0,0.12,,,,,,,,,,
1215,0,0.0,0.42,,,,,,,,,,,,,,,,,,
1217,0,0.0,0.42,,,,,,,,,,,,,,,,,,
1219,0,0.0,0.42,,,,,,,,,,,,,,,,,,
1221,0,0.0,0.42,,,,,,,,,,,,,,,,,,
1223,0,0.0,0.43,,0.04,0.11,0.97,-0,0,-0,0.12,0,2040,0,0.0,0.0,0.0,0.0,0,0,0.0
1225,0,0.0,0.42,,,,,,,,,,,,,,,,,,
1227,0,0.0,0.42,,,,,,,,,,,,,,,,,,
1229,0,0.0,0.42,,,,,,,,,,,,,,,,,,
1231,0,0.0,0.42,,,,,,,,,,,,,,,,,,
1233,0,0.0,0.42,,-0.23,0.1,0.98,-0,0,-1,0.25,,,,,,,,,,
1235,0,0.0,0.42,,,,,,,,,,,,,,,,,,
1237,0,0.0,0.42,,,,,,,,,,,,,,,,,,
1239,0,0.0,0.42,,,,,,,,,,,,,,,,,,
1241,0,0.0,0.42,,,,,,,,,,,,,,,,,,
1243,0,0.0,0.42,,-0.07,-0.01,1.03,0,-1,-0,0.07,0,2040,0,0.0,0.0,0.0,0.0,0,0,0.0
1245,0,0.0,0.42,,,,,,,,,,,,,,,,,,
1247,0,0.0,0.42,,,,,,,,,,,,,,,,,,
1249,0,0.0,0.42,,,,,,,,,,,,,,,,,,
1251,0,0.0,0.44,,,,,,,,,,,,,,,,,,
1253,0,0.0,0.43,,0.03,0.07,0.92,-0,0,0,0.07,,,,,,,,,,
1255,0,0.0,0.43,,,,,,,,,,,,,,,,,,
1257,0,0.0,0.43,,,,,,,,,,,,,,,,,,
1259,0,0.0,0.43,,,,,,,,,,,,,,,,,,
1261,0,0.0,0.43,,,,,,,,,,,,,,,,,,
1263,0,0.0,0.43,,-0.22,0.15,1.04,-0,-0,-0,0.26,0,2100,0,0.0,0.0,0.0,0.0,0,0,0.0
1265,0,0.0,0.43,,,,,,,,,,,,,,,,,,
1267,0,0.0,0.42,,,,,,,,,,,,,,,,,,
1269,0,0.0,0.43,,,,,,,,,,,,,,,,,,
1271,0,0.0,0.43,,,,,,,,,,,,,,,,,,
1273,0,0.0,0.43,,-0.07,-0.02,0.87,1,-1,0,0.07,,,,,,,,,,
1275,0,0.0,0.43,,,,,,,,,,,,,,,,,,
1277,0,0.0,0.43,,,,,,,,,,,,,,,,,,
1279,0,0.0,0.43,,,,,,,,,,,,,,,,,,
1281,0,0.0,0.44,,,,,,,,,,,,,,,,,,
1283,0,0.0,0.43,,0.05,0.11,0.91,-0,0,-0,0.12,0,2040,0,0.0,0.0,0.0,0.0,0,0,0.0
1285,0,0.0,0.43,,,,,,,,,,,,,,,,,,
1287,0,0.0,0.43,,,,,,,,,,,,,,,,,,
1289,0,0.0,0.43,,,,,,,,,,,,,,,,,,
1291,0,0.0,0.43,,,,,,,,,,,,,,,,,,
1293,0,0.0,0.43,,-0.24,0.12,1.07,-0,-0,-1,0.27,,,,,,,,,,
1295,0,0.0,0.43,,,,,,,,,,,,,,,,,,
1297,0,0.0,0.43,,,,,,,,,,,,,,,,,,
1299,0,0.0,0.43,,,,,,,,,,,,,,,,,,
1301,0,0.0,0.43,,,,,,,,,,,,,,,,,,
1303,0,0.0,0.43,,0.03,0.0,0.95,0,-1,0,0.03,0,2040,0,0.0,0.0,0.0,0.0,0,0,0.0
1305,0,0.0,0.43,,,,,,,,,,,,,,,,,,
1307,0,0.0,0.43,,,,,,,,,,,,,,,,,,
1309,0,0.0,0.44,,,,,,,,,,,,,,,,,,
1311,0,0.0,0.44,,,,,,,,,,,,,,,,,,
1313,0,0.0,0.44,,-0.03,0.1,0.92,-0,0,-0,0.11,,,,,,,,,,
1315,0,0.0,0.43,,,,,,,,,,,,,,,,,,
1317,0,0.0,0.44,,,,,,,,,,,,,,,,,,
1319,0,0.0,0.44,,,,,,,,,,,,,,,,,,
1321,0,0.0,0.43,,,,,,,,,,,,,,,,,,
1323,0,0.0,0.43,,-0.23,0.13,1.11,0,-1,-1,0.27,0,2040,0,0.0,0.0,0.0,0.0,0,0,0.0
1325,0,0.0,0.43,,,,,,,,,,,,,,,,,,
1327,0,0.0,0.44,,,,,,,,,,,,,,,,,,
1329,0,0.0,0.43,,,,,,,,,,,,,,,,,,
1331,0,0.0,0.44,,,,,,,,,,,,,,,,,,
1333,0,0.0,0.44,,-0.02,0.01,0.91,0,-2,-0,0.03,,,,,,,,,,
1335,0,0.0,0.44,,,,,,,,,,,,,,,,,,
1337,0,0.0,0.44,,,,,,,,,,,,,,,,,,
1339,0,0.0,0.45,,,,,,,,,,,,,,,,,,
1341,0,0.0,0.44,,,,,,,,,,,,,,,,,,
1343,0,0.0,0.44,,0.01,0.11,0.94,-0,-0,-0,0.11,0,2040,0,0.0,0.0,0.0,0.0,0,0,0.0
1345,0,0.0,0.44,,,,,,,,,,,,,,,,,,
1347,0,0.0,0.44,,,,,,,,,,,,,,,,,,
1349,0,0.0,0.44,,,,,,,,,,,,,,,,,,
1351,0,0.0,0.44,,,,,,,,,,,,,,,,,,
1353,0,0.0,0.44,,-0.14,0.09,1.1,0,-0,-1,0.17,,,,,,,,,,
1355,0,0.0,0.44,,,,,,,,,,,,,,,,,,
1357,0,0.0,0.44,,,,,,,,,,,,,,,,,,
1359,0,0.0,0.44,,,,,,,,,,,,,,,,,,
1361,0,0.0,0.44,,,,,,,,,,,,,,,,,,
1363,0,0.0,0.44,,0.03,0.02,0.97,0,-1,0,0.04,0,2040,0,0.0,0.0,0.0,0.0,0,0,0.0
1365,0,0.0,0.44,,,,,,,,,,,,,,,,,,
1367,0,0.0,0.46,,,,,,,,,,,,,,,,,,
1369,0,0.0,0.44,,,,,,,,,,,,,,,,,,
1371,0,0.0,0.44,,,,,,,,,,,,,,,,,,
1373,0,0.0,0.44,,-0.06,0.08,0.95,-0,0,-0,0.1,,,,,,,,,,
1375,0,0.0,0.44,,,,,,,,,,,,,,,,,,
1377,0,0.0,0.44,,,,,,,,,,,,,,,,,,
1379,0,0.0,0.44,,,,,,,,,,,,,,,,,,
1381,0,0.0,0.44,,,,,,,,,,,,,,,,,,
1383,0,0.0,0.44,,-0.19,0.09,1.08,0,-0,-1,0.21,0,2100,0,0.0,0.0,0.0,0.0,0,0,0.0
1385,0,0.0,0.44,,,,,,,,,,,,,,,,,,
1387,0,0.0,0.44,,,,,,,,,,,,,,,,,,
1389,0,0.0,0.44,,,,,,,,,,,,,,,,,,
1391,0,0.0,0.44,,,,,,,,,,,,,,,,,,
1393,0,0.0,0.44,,0.01,0.05,0.98,0,-1,-0,0.05,,,,,,,,,,
1395,0,0.0,0.45,,,,,,,,,,,,,,,,,,
1397,0,0.0,0.46,,,,,,,,,,,,,,,,,,
1399,0,0.0,0.45,,,,,,,,,,,,,,,,,,
1401,0,0.0,0.45,,,,,,,,,,,,,,,,,,
1403,0,0.0,0.45,,-0.06,0.07,0.9,-0,-0,-0,0.09,0,2040,0,0.0,0.0,0.0,0.0,0,0,0.0
1405,0,0.0,0.44,,,,,,,,,,,,,,,,,,
1407,0,0.0,0.45,,,,,,,,,,,,,,,,,,
1409,0,0.0,0.45,,,,,,,,,,,,,,,,,,
1411,0,0.0,0.45,,,,,,,,,,,,,,,,,,
1413,0,0.0,0.45,,-0.07,0.06,1.04,1,0,-0,0.09,,,,,,,,,,
1415,0,0.0,0.44,,,,,,,,,,,,,,,,,,
1417,0,0.0,0.45,,,,,,,,,,,,,,,,,,
1419,0,0.0,0.45,,,,,,,,,,,,,,,,,,
1421,0,0.0,0.45,,,,,,,,,,,,,,,,,,
1423,0,0.0,0.45,,0.02,0.05,1.0,0,-1,-0,0.05,0,2040,0,0.0,0.0,0.0,0.0,0,0,0.0
1425,0,0.0,0.46,,,,,,,,,,,,,,,,,,
1427,0,0.0,0.45,,,,,,,,,,,,,,,,,,
1429,0,0.0,0.45,,,,,,,,,,,,,,,,,,
1431,0,0.0,0.45,,,,,,,,,,,,,,,,,,
1433,0,0.0,0.45,,-0.08,0.09,0.92,-0,0,-1,0.11,,,,,,,,,,
1435,0,0.0,0.45,,,,,,,,,,,,,,,,,,
1437,0,0.0,0.45,,,,,,,,,,,,,,,,,,
1439,0,0.0,0.45,,,,,,,,,,,,,,,,,,
1441,0,0.0,0.45,,,,,,,,,,,,,,,,,,
1443,0,0.0,0.45,,-0.11,0.02,0.95,1,0,-0,0.11,0,2100,0,0.0,0.0,0.0,0.0,0,0,0.0
1445,0,0.0,0.45,,,,,,,,,,,,,,,,,,
1447,0,0.0,0.45,,,,,,,,,,,,,,,,,,
1449,0,0.0,0.45,,,,,,,,,,,,,,,,,,
1451,0,0.0,0.45,,,,,,,,,,,,,,,,,,
1453,0,0.0,0.46,,0.02,0.11,0.99,0,-0,-0,0.11,,,,,,,,,,
1455,0,0.0,0.46,,,,,,,,,,,,,,,,,,
1457,0,0.0,0.46,,,,,,,,,,,,,,,,,,
1459,0,0.0,0.46,,,,,,,,,,,,,,,,,,
1461,0,0.0,0.45,,,,,,,,,,,,,,,,,,
1463,0,0.0,0.45,,-0.19,0.09,0.93,-0,-0,-1,0.21,0,2040,0,0.0,0.0,0.0,0.0,0,0,0.0
1465,0,0.0,0.45,,,,,,,,,,,,,,,,,,
1467,0,0.0,0.45,,,,,,,,,,,,,,,,,,
1469,0,0.0,0.46,,,,,,,,,,,,,,,,,,
1471,0,0.0,0.45,,,,,,,,,,,,,,,,,,
1473,0,0.01,0.45,,-0.08,-0.02,1.04,0,-0,0,0.09,,,,,,,,,,
1475,0,0.0,0.46,,,,,,,,,,,,,,,,,,
1477,0,0.0,0.46,,,,,,,,,,,,,,,,,,
1479,0,0.0,0.46,,,,,,,,,,,,,,,,,,
1481,0,0.0,0.46,,,,,,,,,,,,,,,,,,
1483,0,0.0,0.47,,0.01,0.09,0.96,0,0,-0,0.09,0,2100,0,0.0,0.0,0.0,0.0,0,0,0.0
1485,0,0.0,0.46,,,,,,,,,,,,,,,,,,
1487,0,0.0,0.46,,,,,,,,,,,,,,,,,,
1489,0,0.0,0.46,,,,,,,,,,,,,,,,,,
1491,0,0.0,0.46,,,,,,,,,,,,,,,,,,
1493,0,0.0,0.46,,-0.16,0.13,1.01,-0,-0,-1,0.21,,,,,,,,,,
1495,0,0.0,0.46,,,,,,,,,,,,,,,,,,
1497,0,0.0,0.46,,,,,,,,,,,,,,,,,,
1499,0,0.0,0.46,,,,,,,,,,,,,,,,,,
1501,0,0.0,0.46,,,,,,,,,,,,,,,,,,
1503,0,0.0,0.46,,-0.08,-0.0,0.93,0,-1,0,0.08,0,2100,0,0.0,0.0,0.0,0.0,0,0,0.0
1505,0,0.0,0.46,,,,,,,,,,,,,,,,,,
1507,0,0.0,0.46,,,,,,,,,,,,,,,,,,
1509,0,0.0,0.46,,,,,,,,,,,,,,,,,,
1511,0,0.0,0.47,,,,,,,,,,,,,,,,,,
1513,0,0.0,0.46,,0.04,0.13,0.96,0,0,-0,0.13,,,,,,,,,,
1515,0,0.0,0.46,,,,,,,,,,,,,,,,,,
1517,0,0.0,0.46,,,,,,,,,,,,,,,,,,
1519,0,0.0,0.46,,,,,,,,,,,,,,,,,,
1521,0,0.0,0.46,,,,,,,,,,,,,,,,,,
1523,0,0.0,0.46,,-0.22,0.11,1.03,-0,0,-1,0.24,0,2040,0,0.0,0.0,0.0,0.0,0,0,0.0
1525,0,0.0,0.46,,,,,,,,,,,,,,,,,,
1527,0,0.0,0.46,,,,,,,,,,,,,,,,,,
1529,0,0.0,0.46,,,,,,,,,,,,,,,,,,
1531,0,0.0,0.46,,,,,,,,,,,,,,,,,,
1533,0,0.0,0.46,,-0.02,0.0,0.98,0,-1,0,0.02,,,,,,,,,,
1535,0,0.0,0.46,,,,,,,,,,,,,,,,,,
1537,0,0.0,0.46,,,,,,,,,,,,,,,,,,
1539,0,0.0,0.47,,,,,,,,,,,,,,,,,,
1541,0,0.0,0.48,,,,,,,,,,,,,,,,,,
1543,0,0.0,0.47,,-0.01,0.11,0.93,0,0,-0,0.11,0,2040,0,0.0,0.0,0.0,0.0,0,0,0.0
1545,0,0.0,0.47,,,,,,,,,,,,,,,,,,
1547,0,0.0,0.47,,,,,,,,,,,,,,,,,,
1549,0,0.0,0.47,,,,,,,,,,,,,,,,,,
1551,0,0.0,0.47,,,,,,,,,,,,,,,,,,
1553,0,0.0,0.47,,-0.21,0.14,1.11,0,-0,-1,0.25,,,,,,,,,,
1555,0,0.0,0.47,,,,,,,,,,,,,,,,,,
1557,0,0.0,0.46,,,,,,,,,,,,,,,,,,
1559,0,0.0,0.47,,,,,,,,,,,,,,,,,,
1561,0,0.0,0.47,,,,,,,,,,,,,,,,,,
1563,0,0.0,0.47,,-0.06,0.03,0.92,0,-2,-0,0.07,0,2040,0,0.0,0.0,0.0,0.0,0,0,0.0
1565,0,0.0,0.47,,,,,,,,,,,,,,,,,,
1567,0,0.0,0.47,,,,,,,,,,,,,,,,,,
1569,0,0.0,0.48,,,,,,,,,,,,,,,,,,
1571,0,0.0,0.47,,,,,,,,,,,,,,,,,,
1573,0,0.0,0.47,,0.02,0.12,0.96,0,-0,-0,0.12,,,,,,,,,,
1575,0,0.0,0.47,,,,,,,,,,,,,,,,,,
1577,0,0.0,0.47,,,,,,,,,,,,,,,,,,
1579,0,0.0,0.47,,,,,,,,,,,,,,,,,,
1581,0,0.0,0.47,,,,,,,,,,,,,,,,,,
1583,0,0.0,0.47,,-0.17,0.13,1.08,0,-1,-1,0.21,0,1980,0,0.0,0.0,0.0,0.0,0,0,0.0
1585,0,0.0,0.47,,,,,,,,,,,,,,,,,,
1587,0,0.0,0.47,,,,,,,,,,,,,,,,,,
1589,0,0.0,0.47,,,,,,,,,,,,,,,,,,
1591,0,0.0,0.47,,,,,,,,,,,,,,,,,,
1593,0,0.0,0.47,,0.04,0.05,0.98,0,-1,-0,0.07,,,,,,,,,,
1595,0,0.0,0.47,,,,,,,,,,,,,,,,,,
1597,0,0.0,0.47,,,,,,,,,,,,,,,,,,
1599,0,0.0,0.49,,,,,,,,,,,,,,,,,,
1601,0,0.0,0.48,,,,,,,,,,,,,,,,,,
1603,0,0.0,0.48,,-0.05,0.11,0.95,-0,0,-0,0.12,0,2040,0,0.0,0.0,0.0,0.0,0,0,0.0
1605,0,0.0,0.48,,,,,,,,,,,,,,,,,,
1607,0,0.0,0.48,,,,,,,,,,,,,,,,,,
1609,0,0.0,0.48,,,,,,,,,,,,,,,,,,
1611,0,0.0,0.47,,,,,,,,,,,,,,,,,,
1613,0,0.0,0.48,,-0.2,0.12,1.04,0,-1,-1,0.23,,,,,,,,,,
1615,0,0.0,0.47,,,,,,,,,,,,,,,,,,
1617,0,0.0,0.47,,,,,,,,,,,,,,,,,,
1619,0,0.0,0.47,,,,,,,,,,,,,,,,,,
1621,0,0.0,0.48,,,,,,,,,,,,,,,,,,
1623,0,0.0,0.47,,-0.01,0.04,0.92,-0,-1,-0,0.04,0,2040,0,0.0,0.0,0.0,0.0,0,0,0.0
1625,0,0.0,0.48,,,,,,,,,,,,,,,,,,
1627,0,0.0,0.49,,,,,,,,,,,,,,,,,,
1629,0,0.0,0.48,,,,,,,,,,,,,,,,,,
1631,0,0.0,0.48,,,,,,,,,,,,,,,,,,
1633,0,0.0,0.48,,-0.01,0.09,0.9,-0,-0,-1,0.09,,,,,,,,,,
1635,0,0.0,0.48,,,,,,,,,,,,,,,,,,
1637,0,0.0,0.48,,,,,,,,,,,,,,,,,,
1639,0,0.0,0.48,,,,,,,,,,,,,,,,,,
1641,0,0.0,0.48,,,,,,,,,,,,,,,,,,
1643,0,0.0,0.48,,-0.12,0.1,1.08,1,-0,-1,0.15,0,2040,0,0.0,0.0,0.0,0.0,0,0,0.0
1645,0,0.0,0.47,,,,,,,,,,,,,,,,,,
1647,0,0.0,0.48,,,,,,,,,,,,,,,,,,
1649,0,0.0,0.48,,,,,,,,,,,,,,,,,,
1651,0,0.0,0.48,,,,,,,,,,,,,,,,,,
1653,0,0.0,0.48,,0.03,0.01,0.95,0,-1,-0,0.03,,,,,,,,,,
1655,0,0.0,0.48,,,,,,,,,,,,,,,,,,
1657,0,0.0,0.49,,,,,,,,,,,,,,,,,,
1659,0,0.0,0.49,,,,,,,,,,,,,,,,,,
1661,0,0.0,0.48,,,,,,,,,,,,,,,,,,
1663,0,0.0,0.48,,-0.06,0.05,0.89,-0,0,-1,0.08,0,2100,0,0.0,0.0,0.0,0.0,0,0,0.0
1665,0,0.0,0.48,,,,,,,,,,,,,,,,,,
1667,0,0.0,0.48,,,,,,,,,,,,,,,,,,
1669,0,0.0,0.48,,,,,,,,,,,,,,,,,,
1671,0,0.0,0.48,,,,,,,,,,,,,,,,,,
1673,0,0.0,0.48,,-0.15,0.06,1.04,0,0,-1,0.16,,,,,,,,,,
1675,0,0.0,0.48,,,,,,,,,,,,,,,,,,
1677,0,0.0,0.48,,,,,,,,,,,,,,,,,,
1679,0,0.0,0.48,,,,,,,,,,,,,,,,,,
1681,0,0.0,0.48,,,,,,,,,,,,,,,,,,
1683,0,0.0,0.48,,-0.01,0.04,1.02,-0,-0,-1,0.04,0,2100,0,0.0,0.0,0.0,0.0,0,0,0.0
1685,0,0.0,0.49,,,,,,,,,,,,,,,,,,
1687,0,0.0,0.49,,,,,,,,,,,,,,,,,,
1689,0,0.0,0.49,,,,,,,,,,,,,,,,,,
1691,0,0.0,0.49,,,,,,,,,,,,,,,,,,
1693,0,0.0,0.49,,-0.12,0.04,0.91,-0,0,-1,0.13,,,,,,,,,,
1695,0,0.0,0.48,,,,,,,,,,,,,,,,,,
1697,0,0.0,0.49,,,,,,,,,,,,,,,,,,
1699,0,0.0,0.49,,,,,,,,,,,,,,,,,,
1701,0,0.0,0.48,,,,,,,,,,,,,,,,,,
1703,0,0.0,0.49,,-0.07,0.02,1.06,0,0,-1,0.07,0,2040,0,0.0,0.0,0.0,0.0,0,0,0.0
1705,0,0.0,0.49,,,,,,,,,,,,,,,,,,
1707,0,0.0,0.49,,,,,,,,,,,,,,,,,,
1709,0,0.0,0.49,,,,,,,,,,,,,,,,,,
1711,0,0.0,0.49,,,,,,,,,,,,,,,,,,
1713,0,0.0,0.5,,-0.02,0.03,0.98,-0,-0,-0,0.04,,,,,,,,,,
1715,0,0.0,0.49,,,,,,,,,,,,,,,,,,
1717,0,0.0,0.49,,,,,,,,,,,,,,,,,,
1719,0,0.0,0.49,,,,,,,,,,,,,,,,,,
1721,0,0.0,0.49,,,,,,,,,,,,,,,,,,
1723,0,0.0,0.49,,-0.09,0.08,0.94,-0,0,-1,0.12,0,2100,0,0.0,0.0,0.0,0.0,0,0,0.0
1725,0,0.0,0.49,,,,,,,,,,,,,,,,,,
1727,0,0.0,0.49,,,,,,,,,,,,,,,,,,
1729,0,0.0,0.49,,,,,,,,,,,,,,,,,,
1731,0,0.0,0.49,,,,,,,,,,,,,,,,,,
1733,0,0.0,0.49,,-0.08,-0.01,0.95,0,-0,0,0.08,,,,,,,,,,
1735,0,0.0,0.49,,,,,,,,,,,,,,,,,,
1737,0,0.0,0.49,,,,,,,,,,,,,,,,,,
1739,0,0.0,0.49,,,,,,,,,,,,,,,,,,
1741,0,0.0,0.49,,,,,,,,,,,,,,,,,,
1743,0,0.0,0.5,,0.0,0.1,1.01,-0,0,-0,0.1,0,2040,0,0.0,0.0,0.0,0.0,0,0,0.0
1745,0,0.0,0.49,,,,,,,,,,,,,,,,,,
1747,0,0.0,0.49,,,,,,,,,,,,,,,,,,
1749,0,0.0,0.49,,,,,,,,,,,,,,,,,,
1751,0,0.0,0.49,,,,,,,,,,,,,,,,,,
1753,0,0.0,0.49,,-0.23,0.07,0.99,-0,0,-1,0.24,,,,,,,,,,
1755,0,0.0,0.49,,,,,,,,,,,,,,,,,,
1757,0,0.0,0.49,,,,,,,,,,,,,,,,,,
1759,0,0.0,0.49,,,,,,,,,,,,,,,,,,
1761,0,0.0,0.49,,,,,,,,,,,,,,,,,,
1763,0,0.0,0.49,,-0.03,-0.04,1.02,0,-0,-0,0.05,0,2040,0,0.0,0.0,0.0,0.0,0,0,0.0
1765,0,0.0,0.5,,,,,,,,,,,,,,,,,,
1767,0,0.0,0.5,,,,,,,,,,,,,,,,,,
1769,0,0.0,0.5,,,,,,,,,,,,,,,,,,
1771,0,0.0,0.51,,,,,,,,,,,,,,,,,,
1773,0,0.0,0.5,,-0.04,0.07,0.96,-0,0,0,0.08,,,,,,,,,,
1775,0,0.0,0.5,,,,,,,,,,,,,,,,,,
1777,0,0.0,0.5,,,,,,,,,,,,,,,,,,
1779,0,0.0,0.5,,,,,,,,,,,,,,,,,,
1781,0,0.0,0.5,,,,,,,,,,,,,,,,,,
1783,0,0.0,0.5,,-0.21,0.13,1.05,0,-0,-0,0.25,0,2100,0,0.0,0.0,0.0,0.0,0,0,0.0
1785,0,0.0,0.5,,,,,,,,,,,,,,,,,,
1787,0,0.0,0.5,,,,,,,,,,,,,,,,,,
1789,0,0.0,0.5,,,,,,,,,,,,,,,,,,
1791,0,0.0,0.5,,,,,,,,,,,,,,,,,,
1793,0,0.0,0.5,,-0.08,-0.01,0.91,0,-1,0,0.08,,,,,,,,,,
1795,0,0.0,0.5,,,,,,,,,,,,,,,,,,
1797,0,0.0,0.5,,,,,,,,,,,,,,,,,,
1799,0,0.0,0.51,,,,,,,,,,,,,,,,,,
1801,0,0.0,0.5,,,,,,,,,,,,,,,,,,
1803,0,0.0,0.5,,-0.02,0.11,0.95,0,-0,-0,0.11,0,2040,0,0.0,0.0,0.0,0.0,0,0,0.0
1805,0,0.0,0.5,,,,,,,,,,,,,,,,,,
1807,0,0.0,0.5,,,,,,,,,,,,,,,,,,
1809,0,0.0,0.5,,,,,,,,,,,,,,,,,,
1811,0,0.0,0.5,,,,,,,,,,,,,,,,,,
1813,0,0.0,0.5,,-0.16,0.11,1.06,0,-1,-1,0.2,,,,,,,,,,
1815,0,0.0,0.5,,,,,,,,,,,,,,,,,,
1817,0,0.0,0.5,,,,,,,,,,,,,,,,,,
1819,0,0.0,0.5,,,,,,,,,,,,,,,,,,
1821,0,0.0,0.5,,,,,,,,,,,,,,,,,,
1823,0,0.0,0.5,,-0.02,0.05,0.99,0,-1,0,0.05,0,2040,0,0.0,0.0,0.0,0.0,0,0,0.0
1825,0,0.0,0.5,,,,,,,,,,,,,,,,,,
1827,0,0.0,0.51,,,,,,,,,,,,,,,,,,
1829,0,0.0,0.5,,,,,,,,,,,,,,,,,,
1831,0,0.0,0.5,,,,,,,,,,,,,,,,,,
1833,0,0.0,0.5,,-0.1,0.11,0.94,0,0,-0,0.15,,,,,,,,,,
1835,0,0.0,0.5,,,,,,,,,,,,,,,,,,
1837,0,0.0,0.5,,,,,,,,,,,,,,,,,,
1839,0,0.0,0.5,,,,,,,,,,,,,,,,,,
1841,0,0.0,0.5,,,,,,,,,,,,,,,,,,
1843,0,0.0,0.5,,-0.18,0.12,1.09,0,-0,-1,0.22,0,2100,0,0.0,0.0,0.0,0.0,0,0,0.0
1845,0,0.0,0.5,,,,,,,,,,,,,,,,,,
1847,0,0.0,0.5,,,,,,,,,,,,,,,,,,
1849,0,0.0,0.5,,,,,,,,,,,,,,,,,,
1851,0,0.0,0.5,,,,,,,,,,,,,,,,,,
1853,0,0.0,0.5,,-0.08,0.08,0.98,0,-1,0,0.11,,,,,,,,,,
1855,0,0.0,0.51,,,,,,,,,,,,,,,,,,
1857,0,0.0,0.52,,,,,,,,,,,,,,,,,,
1859,0,0.0,0.51,,,,,,,,,,,,,,,,,,
1861,0,0.0,0.51,,,,,,,,,,,,,,,,,,
1863,0,0.0,0.51,,-0.09,0.11,0.94,0,-0,-0,0.14,0,2040,0,0.0,0.0,0.0,0.0,0,0,0.0
1865,0,0.0,0.51,,,,,,,,,,,,,,,,,,
1867,0,0.0,0.51,,,,,,,,,,,,,,,,,,
1869,0,0.0,0.51,,,,,,,,,,,,,,,,,,
1871,0,0.0,0.51,,,,,,,,,,,,,,,,,,
1873,0,0.0,0.51,,-0.08,0.1,1.05,0,0,-1,0.12,,,,,,,,,,
1875,0,0.0,0.51,,,,,,,,,,,,,,,,,,
1877,0,0.0,0.51,,,,,,,,,,,,,,,,,,
1879,0,0.0,0.51,,,,,,,,,,,,,,,,,,
1881,0,0.0,0.51,,,,,,,,,,,,,,,,,,
1883,0,0.0,0.51,,-0.04,0.07,1.0,0,-1,-0,0.08,0,2040,0,0.0,0.0,0.0,0.0,0,0,0.0
1885,0,0.0,0.52,,,,,,,,,,,,,,,,,,
1887,0,0.0,0.51,,,,,,,,,,,,,,,,,,
1889,0,0.0,0.51,,,,,,,,,,,,,,,,,,
1891,0,0.0,0.51,,,,,,,,,,,,,,,,,,
1893,0,0.0,0.51,,-0.1,0.08,0.9,-0,0,-1,0.13,,,,,,,,,,
1895,0,0.0,0.51,,,,,,,,,,,,,,,,,,
1897,0,0.0,0.51,,,,,,,,,,,,,,,,,,
1899,0,0.0,0.51,,,,,,,,,,,,,,,,,,
1901,0,0.0,0.51,,,,,,,,,,,,,,,,,,
1903,0,0.0,0.51,,-0.11,0.06,1.02,0,0,-1,0.13,0,2100,0,0.0,0.0,0.0,0.0,0,0,0.0
1905,0,0.0,0.51,,,,,,,,,,,,,,,,,,
1907,0,0.0,0.51,,,,,,,,,,,,,,,,,,
1909,0,0.0,0.51,,,,,,,,,,,,,,,,,,
1911,0,0.0,0.51,,,,,,,,,,,,,,,,,,
1913,0,0.0,0.52,,-0.06,0.1,1.04,-0,-0,-0,0.12,,,,,,,,,,
1915,0,0.0,0.51,,,,,,,,,,,,,,,,,,
1917,0,0.0,0.51,,,,,,,,,,,,,,,,,,
1919,0,0.0,0.51,,,,,,,,,,,,,,,,,,
1921,0,0.0,0.51,,,,,,,,,,,,,,,,,,
1923,0,0.0,0.51,,-0.2,0.07,0.9,-0,-0,-0,0.21,0,2040,0,0.0,0.0,0.0,0.0,0,0,0.0
1925,0,0.0,0.51,,,,,,,,,,,,,,,,,,
1927,0,0.0,0.51,,,,,,,,,,,,,,,,,,
1929,0,0.0,0.51,,,,,,,,,,,,,,,,,,
1931,0,0.0,0.51,,,,,,,,,,,,,,,,,,
1933,0,0.0,0.51,,-0.08,0.02,1.06,0,0,-0,0.08,,,,,,,,,,
1935,0,0.0,0.51,,,,,,,,,,,,,,,,,,
1937,0,0.0,0.52,,,,,,,,,,,,,,,,,,
1939,0,0.0,0.51,,,,,,,,,,,,,,,,,,
1941,0,0.0,0.52,,,,,,,,,,,,,,,,,,
1943,0,0.0,0.53,,-0.08,0.06,0.95,-0,0,-0,0.1,0,2100,0,0.0,0.0,0.0,0.0,0,0,0.0
1945,0,0.0,0.52,,,,,,,,,,,,,,,,,,
1947,0,0.0,0.52,,,,,,,,,,,,,,,,,,
1949,0,0.0,0.52,,,,,,,,,,,,,,,,,,
1951,0,0.0,0.52,,,,,,,,,,,,,,,,,,
1953,0,0.0,0.52,,-0.17,0.09,0.97,-0,0,-1,0.19,,,,,,,,,,
1955,0,0.0,0.52,,,,,,,,,,,,,,,,,,
1957,0,0.0,0.52,,,,,,,,,,,,,,,,,,
1959,0,0.0,0.52,,,,,,,,,,,,,,,,,,
1961,0,0.0,0.52,,,,,,,,,,,,,,,,,,
1963,0,0.0,0.52,,-0.11,0.0,0.95,0,-0,-0,0.11,0,2100,0,0.0,0.0,0.0,0.0,0,0,0.0
1965,0,0.0,0.52,,,,,,,,,,,,,,,,,,
1967,0,0.0,0.52,,,,,,,,,,,,,,,,,,
1969,0,0.0,0.52,,,,,,,,,,,,,,,,,,
1971,0,0.0,0.53,,,,,,,,,,,,,,,,,,
1973,0,0.0,0.52,,-0.06,0.12,1.01,0,1,-0,0.13,,,,,,,,,,
1975,0,0.0,0.52,,,,,,,,,,,,,,,,,,
1977,0,0.0,0.52,,,,,,,,,,,,,,,,,,
1979,0,0.0,0.52,,,,,,,,,,,,,,,,,,
1981,0,0.0,0.52,,,,,,,,,,,,,,,,,,
1983,0,0.0,0.52,,-0.31,0.09,1.04,-0,1,-1,0.32,0,2040,0,0.0,0.0,0.0,0.0,0,0,0.0
1985,0,0.0,0.52,,,,,,,,,,,,,,,,,,
1987,0,0.0,0.52,,,,,,,,,,,,,,,,,,
1989,0,0.0,0.52,,,,,,,,,,,,,,,,,,
1991,0,0.0,0.51,,,,,,,,,,,,,,,,,,
1993,0,0.0,0.51,,-0.13,-0.02,1.03,0,1,-1,0.13,,,,,,,,,,
1995,0,0.0,0.51,,,,,,,,,,,,,,,,,,
1997,0,0.0,0.51,,,,,,,,,,,,,,,,,,
1999,0,0.0,0.52,,,,,,,,,,,,,,,,,,
2001,0,0.0,0.51,,,,,,,,,,,,,,,,,,
2003,0,0.0,0.51,,-0.16,0.07,0.99,-0,2,-1,0.17,0,2100,0,0.0,0.0,0.0,0.0,0,0,0.0
2005,0,0.0,0.51,,,,,,,,,,,,,,,,,,
2007,0,0.0,0.51,,,,,,,,,,,,,,,,,,
2009,0,0.0,0.51,,,,,,,,,,,,,,,,,,
2011,0,0.0,0.51,,,,,,,,,,,,,,,,,,
2013,0,0.0,0.51,,-0.33,0.13,1.07,0,1,-1,0.36,,,,,,,,,,
2015,0,0.0,0.51,,,,,,,,,,,,,,,,,,
2017,0,0.0,0.51,,,,,,,,,,,,,,,,,,
2019,0,0.0,0.51,,,,,,,,,,,,,,,,,,
2021,0,0.0,0.51,,,,,,,,,,,,,,,,,,
2023,0,0.0,0.51,,-0.19,0.01,0.93,0,1,-1,0.19,0,2100,0,0.0,0.0,0.0,0.0,0,0,0.0
2025,0,0.0,0.51,,,,,,,,,,,,,,,,,,
2027,0,0.0,0.51,,,,,,,,,,,,,,,,,,
2029,0,0.0,0.52,,,,,,,,,,,,,,,,,,
2031,0,0.0,0.51,,,,,,,,,,,,,,,,,,
2033,0,0.0,0.51,,-0.2,0.1,1.01,-0,3,-1,0.22,,,,,,,,,,
2035,0,0.0,0.5,,,,,,,,,,,,,,,,,,
2037,0,0.0,0.51,,,,,,,,,,,,,,,,,,
2039,0,0.0,0.5,,,,,,,,,,,,,,,,,,
2041,0,0.0,0.5,,,,,,,,,,,,,,,,,,
2043,0,0.0,0.5,13.21,-0.36,0.14,1.07,0,2,-2,0.39,0,2040,0,0.0,0.0,0.0,0.0,0,0,0.0
2045,0,0.0,0.5,,,,,,,,,,,,,,,,,,
2047,0,0.0,0.5,,,,,,,,,,,,,,,,,,
2049,0,0.0,0.5,,,,,,,,,,,,,,,,,,
2051,0,0.0,0.51,,,,,,,,,,,,,,,,,,
2053,0,0.0,0.5,,-0.1,0.02,0.9,0,1,-1,0.11,,,,,,,,,,
2055,0,0.0,0.51,,,,,,,,,,,,,,,,,,
2057,0,0.0,0.52,,,,,,,,,,,,,,,,,,
2059,0,0.0,0.51,,,,,,,,,,,,,,,,,,
2061,0,0.0,0.51,,,,,,,,,,,,,,,,,,
2063,0,0.0,0.51,,-0.27,0.1,0.9,-0,2,-2,0.29,0,2040,0,0.0,0.0,0.0,0.0,0,0,0.0
2065,0,0.0,0.51,,,,,,,,,,,,,,,,,,
2067,0,0.0,0.5,,,,,,,,,,,,,,,,,,
2069,0,0.0,0.5,,,,,,,,,,,,,,,,,,
2071,0,0.0,0.5,,,,,,,,,,,,,,,,,,
2073,0,0.0,0.5,,-0.36,0.14,1.01,0,1,-2,0.39,,,,,,,,,,
2075,0,0.0,0.5,,,,,,,,,,,,,,,,,,
2077,0,0.0,0.5,,,,,,,,,,,,,,,,,,
2079,0,0.0,0.5,,,,,,,,,,,,,,,,,,
2081,0,0.0,0.5,,,,,,,,,,,,,,,,,,
2083,0,0.0,0.5,,-0.06,0.03,0.89,0,0,-2,0.07,0,2040,0,0.0,0.0,0.0,0.0,0,0,0.0
2085,0,0.0,0.5,,,,,,,,,,,,,,,,,,
2087,0,0.0,0.51,,,,,,,,,,,,,,,,,,
2089,0,0.0,0.5,,,,,,,,,,,,,,,,,,
2091,0,0.0,0.5,,,,,,,,,,,,,,,,,,
2093,0,0.0,0.5,,-0.26,0.1,1.01,-0,1,-2,0.28,,,,,,,,,,
2095,0,0.0,0.5,,,,,,,,,,,,,,,,,,
2097,0,0.0,0.5,,,,,,,,,,,,,,,,,,
2099,0,0.0,0.5,,,,,,,,,,,,,,,,,,
2101,0,0.0,0.5,,,,,,,,,,,,,,,,,,
2103,0,0.0,0.5,,-0.37,0.09,1.11,1,1,-1,0.38,0,1980,0,0.0,0.0,0.0,0.0,0,0,0.0
2105,0,0.0,0.5,,,,,,,,,,,,,,,,,,
2107,0,0.0,0.5,,,,,,,,,,,,,,,,,,
2109,0,0.0,0.51,,,,,,,,,,,,,,,,,,
2111,0,0.0,0.51,,,,,,,,,,,,,,,,,,
2113,0,0.0,0.51,,-0.16,0.01,1.03,-0,1,-1,0.16,,,,,,,,,,
2115,0,0.0,0.51,,,,,,,,,,,,,,,,,,
2117,0,0.0,0.51,,,,,,,,,,,,,,,,,,
2119,0,0.0,0.51,,,,,,,,,,,,,,,,,,
2121,0,0.0,0.51,,,,,,,,,,,,,,,,,,
2123,0,0.0,0.51,,-0.4,0.1,1.0,0,2,-2,0.41,0,2040,0,0.0,0.0,0.0,0.0,0,0,0.0
2125,0,0.0,0.51,,,,,,,,,,,,,,,,,,
2127,0,0.0,0.51,,,,,,,,,,,,,,,,,,
2129,0,0.0,0.51,,,,,,,,,,,,,,,,,,
2131,0,0.0,0.51,,,,,,,,,,,,,,,,,,
2133,0,0.0,0.51,,-0.38,0.08,1.02,1,2,-2,0.39,,,,,,,,,,
2135,0,0.0,0.51,,,,,,,,,,,,,,,,,,
2137,0,0.0,0.51,,,,,,,,,,,,,,,,,,
2139,0,0.0,0.51,,,,,,,,,,,,,,,,,,
2141,0,0.0,0.51,,,,,,,,,,,,,,,,,,
2143,0,0.0,0.51,,-0.12,0.04,0.9,0,1,-2,0.13,0,2040,0,0.0,0.0,0.0,0.0,0,0,0.0
2145,0,0.0,0.52,,,,,,,,,,,,,,,,,,
2147,0,0.0,0.52,,,,,,,,,,,,,,,,,,
2149,0,0.0,0.52,,,,,,,,,,,,,,,,,,
2151,0,0.0,0.52,,,,,,,,,,,,,,,,,,
2153,0,0.0,0.51,,-0.31,0.12,0.85,0,2,-2,0.33,,,,,,,,,,
2155,0,0.0,0.52,,,,,,,,,,,,,,,,,,
2157,0,0.0,0.51,,,,,,,,,,,,,,,,,,
2159,0,0.0,0.52,,,,,,,,,,,,,,,,,,
2161,0,0.0,0.51,,,,,,,,,,,,,,,,,,
2163,0,0.0,0.52,,-0.23,0.04,0.98,1,2,-2,0.24,0,1980,0,0.0,0.0,0.0,0.0,0,0,0.0
2165,0,0.0,0.52,,,,,,,,,,,,,,,,,,
2167,0,0.0,0.52,,,,,,,,,,,,,,,,,,
2169,0,0.0,0.52,,,,,,,,,,,,,,,,,,
2171,0,0.0,0.52,,,,,,,,,,,,,,,,,,
2173,0,0.0,0.52,,-0.07,0.01,0.91,0,1,-2,0.07,,,,,,,,,,
2175,0,0.0,0.53,,,,,,,,,,,,,,,,,,
2177,0,0.0,0.52,,,,,,,,,,,,,,,,,,
2179,0,0.0,0.52,,,,,,,,,,,,,,,,,,
2181,0,0.0,0.52,,,,,,,,,,,,,,,,,,
2183,0,0.0,0.52,,-0.41,0.13,0.97,0,2,-2,0.43,0,2040,0,0.0,0.0,0.0,0.0,0,0,0.0
2185,0,0.0,0.52,,,,,,,,,,,,,,,,,,
2187,0,0.0,0.52,,,,,,,,,,,,,,,,,,
2189,0,0.0,0.51,,,,,,,,,,,,,,,,,,
2191,0,0.0,0.51,,,,,,,,,,,,,,,,,,
2193,0,0.0,0.51,,-0.4,-0.0,1.09,1,2,-2,0.4,,,,,,,,,,
2195,0,0.0,0.51,,,,,,,,,,,,,,,,,,
2197,0,0.0,0.51,,,,,,,,,,,,,,,,,,
2199,0,0.0,0.51,,,,,,,,,,,,,,,,,,
2201,0,0.0,0.51,,,,,,,,,,,,,,,,,,
2203,0,0.0,0.51,,-0.29,0.01,1.09,0,3,-1,0.29,5,2040,0,0.0,0.0,0.0,0.0,0,0,0.0
2205,0,0.0,0.52,,,,,,,,,,,,,,,,,,
2207,0,0.0,0.51,,,,,,,,,,,,,,,,,,
2209,0,0.0,0.51,,,,,,,,,,,,,,,,,,
2211,0,0.0,0.51,,,,,,,,,,,,,,,,,,
2213,0,0.0,0.51,,-0.57,0.07,0.98,0,3,-1,0.57,,,,,,,,,,
2215,0,0.0,0.51,,,,,,,,,,,,,,,,,,
2217,0,0.0,0.51,,,,,,,,,,,,,,,,,,
2219,0,0.0,0.51,,,,,,,,,,,,,,,,,,
2221,0,0.0,0.51,,,,,,,,,,,,,,,,,,
2223,0,0.0,0.51,,-0.24,0.01,0.98,1,1,-1,0.24,5,1980,0,0.0,0.0,0.0,0.0,0,0,0.0
2225,0,0.0,0.51,,,,,,,,,,,,,,,,,,
2227,0,0.0,0.51,,,,,,,,,,,,,,,,,,
2229,0,0.0,0.51,,,,,,,,,,,,,,,,,,
2231,0,0.0,0.51,,,,,,,,,,,,,,,,,,
2233,0,0.0,0.52,,-0.07,0.03,0.75,0,2,-2,0.08,,,,,,,,,,
2235,0,0.0,0.51,,,,,,,,,,,,,,,,,,
2237,0,0.0,0.51,,,,,,,,,,,,,,,,,,
2239,0,0.0,0.51,,,,,,,,,,,,,,,,,,
2241,0,0.0,0.51,,,,,,,,,,,,,,,,,,
2243,0,0.0,0.51,,-0.35,0.16,0.82,0,1,-3,0.39,5,2040,0,0.0,0.0,0.0,0.0,0,0,0.0
2245,0,0.0,0.51,,,,,,,,,,,,,,,,,,
2247,0,0.0,0.51,,,,,,,,,,,,,,,,,,
2249,0,0.0,0.51,,,,,,,,,,,,,,,,,,
2251,0,0.0,0.51,,,,,,,,,,,,,,,,,,
2253,0,0.0,0.51,,-0.14,0.03,0.8,1,-1,-3,0.14,,,,,,,,,,
2255,0,0.0,0.51,,,,,,,,,,,,,,,,,,
2257,0,0.0,0.51,,,,,,,,,,,,,,,,,,
2259,0,0.0,0.51,,,,,,,,,,,,,,,,,,
2261,0,0.0,0.51,,,,,,,,,,,,,,,,,,
2263,0,0.0,0.52,,-0.09,0.04,0.98,-0,1,-3,0.1,5,1980,0,0.0,0.0,0.0,0.0,0,0,0.0
2265,0,0.0,0.51,,,,,,,,,,,,,,,,,,
2267,0,0.0,0.51,,,,,,,,,,,,,,,,,,
2269,0,0.01,0.51,,,,,,,,,,,,,,,,,,
2271,0,0.0,0.51,,,,,,,,,,,,,,,,,,
2273,0,0.0,0.51,,-0.55,0.11,1.06,0,0,-3,0.56,,,,,,,,,,
2275,0,0.0,0.51,,,,,,,,,,,,,,,,,,
2277,0,0.0,0.51,,,,,,,,,,,,,,,,,,
2279,0,0.0,0.51,,,,,,,,,,,,,,,,,,
2281,0,0.0,0.51,,,,,,,,,,,,,,,,,,
2283,0,0.0,0.52,,-0.25,-0.03,1.14,1,1,-2,0.25,5,1980,0,0.0,0.0,0.0,0.0,0,0,0.0
2285,0,0.0,0.52,,,,,,,,,,,,,,,,,,
2287,0,0.0,0.52,,,,,,,,,,,,,,,,,,
2289,0,0.0,0.52,,,,,,,,,,,,,,,,,,
2291,0,0.0,0.53,,,,,,,,,,,,,,,,,,
2293,0,0.0,0.52,,-0.34,0.0,1.09,0,3,-2,0.34,,,,,,,,,,
2295,0,0.0,0.52,,,,,,,,,,,,,,,,,,
2297,0,0.0,0.52,,,,,,,,,,,,,,,,,,
2299,0,0.0,0.52,,,,,,,,,,,,,,,,,,
2301,0,0.0,0.52,,,,,,,,,,,,,,,,,,
2303,0,0.0,0.52,,-0.54,0.09,1.04,1,2,-1,0.55,5,2040,0,0.0,0.0,0.0,0.0,0,0,0.0
2305,0,0.0,0.52,,,,,,,,,,,,,,,,,,
2307,0,0.0,0.52,,,,,,,,,,,,,,,,,,
2309,0,0.0,0.52,,,,,,,,,,,,,,,,,,
2311,0,0.0,0.52,,,,,,,,,,,,,,,,,,
2313,0,0.0,0.52,,-0.16,-0.02,0.78,2,1,-0,0.16,,,,,,,,,,
2315,0,0.0,0.52,,,,,,,,,,,,,,,,,,
2317,0,0.0,0.53,,,,,,,,,,,,,,,,,,
2319,0,0.0,0.53,,,,,,,,,,,,,,,,,,
2321,0,0.0,0.54,,,,,,,,,,,,,,,,,,
2323,0,0.0,0.52,,-0.09,0.06,0.8,1,2,-1,0.1,15,2040,0,0.0,0.0,0.0,0.0,0,0,0.0
2325,0,0.0,0.52,,,,,,,,,,,,,,,,,,
2327,0,0.0,0.52,,,,,,,,,,,,,,,,,,
2329,0,0.0,0.52,,,,,,,,,,,,,,,,,,
2331,0,0.0,0.52,,,,,,,,,,,,,,,,,,
2333,0,0.0,0.52,,-0.4,0.18,0.9,1,0,-1,0.44,,,,,,,,,,
2335,0,0.0,0.52,,,,,,,,,,,,,,,,,,
2337,0,0.0,0.52,,,,,,,,,,,,,,,,,,
2339,0,0.0,0.52,,,,,,,,,,,,,,,,,,
2341,0,0.0,0.52,,,,,,,,,,,,,,,,,,
2343,0,0.0,0.51,,0.04,0.04,0.83,1,-2,-2,0.05,15,2040,0,0.0,0.0,0.0,0.0,0,0,0.0
2345,0,0.0,0.52,,,,,,,,,,,,,,,,,,
2347,0,0.0,0.52,,,,,,,,,,,,,,,,,,
2349,0,0.0,0.53,,,,,,,,,,,,,,,,,,
2351,0,0.0,0.52,,,,,,,,,,,,,,,,,,
2353,0,0.0,0.52,,-0.13,0.04,0.94,-0,0,-2,0.13,,,,,,,,,,
2355,0,0.0,0.52,,,,,,,,,,,,,,,,,,
2357,0,0.0,0.52,,,,,,,,,,,,,,,,,,
2359,0,0.0,0.52,,,,,,,,,,,,,,,,,,
2361,0,0.0,0.52,,,,,,,,,,,,,,,,,,
2363,0,0.0,0.52,,-0.46,0.14,1.17,1,-1,-2,0.49,15,2100,0,0.0,0.0,0.0,0.0,0,0,0.0
2365,0,0.0,0.52,,,,,,,,,,,,,,,,,,
2367,0,0.0,0.52,,,,,,,,,,,,,,,,,,
2369,0,0.0,0.52,,,,,,,,,,,,,,,,,,
2371,0,0.0,0.52,,,,,,,,,,,,,,,,,,
2373,0,0.0,0.52,,-0.17,-0.04,1.08,1,-1,-2,0.17,,,,,,,,,,
2375,0,0.0,0.53,,,,,,,,,,,,,,,,,,
2377,0,0.0,0.53,,,,,,,,,,,,,,,,,,
2379,0,0.0,0.54,,,,,,,,,,,,,,,,,,
2381,0,0.0,0.53,,,,,,,,,,,,,,,,,,
2383,0,0.0,0.52,,-0.28,0.04,1.14,0,2,-2,0.28,15,2040,0,0.0,0.0,0.0,0.0,0,0,0.0
2385,0,0.0,0.52,,,,,,,,,,,,,,,,,,
2387,0,0.0,0.53,,,,,,,,,,,,,,,,,,
2389,0,0.0,0.53,,,,,,,,,,,,,,,,,,
2391,0,0.0,0.52,,,,,,,,,,,,,,,,,,
2393,0,0.0,0.53,,-0.45,0.11,1.13,1,1,-1,0.46,,,,,,,,,,
2395,0,0.0,0.53,,,,,,,,,,,,,,,,,,
2397,0,0.0,0.53,,,,,,,,,,,,,,,,,,
2399,0,0.0,0.53,,,,,,,,,,,,,,,,,,
2401,0,0.0,0.53,,,,,,,,,,,,,,,,,,
2403,0,0.0,0.53,,-0.01,-0.04,0.83,2,0,0,0.04,15,2040,0,0.0,0.0,0.0,0.0,0,0,0.0
2405,0,0.0,0.53,,,,,,,,,,,,,,,,,,
2407,0,0.0,0.54,,,,,,,,,,,,,,,,,,
2409,0,0.0,0.53,,,,,,,,,,,,,,,,,,
2411,0,0.0,0.53,,,,,,,,,,,,,,,,,,
2413,0,0.01,0.53,,-0.14,0.01,0.74,1,2,0,0.14,,,,,,,,,,
2415,0,0.0,0.53,,,,,,,,,,,,,,,,,,
2417,0,0.0,0.53,,,,,,,,,,,,,,,,,,
2419,0,0.0,0.52,,,,,,,,,,,,,,,,,,
2421,0,0.0,0.53,,,,,,,,,,,,,,,,,,
2423,0,0.0,0.53,,-0.27,0.14,0.9,2,-0,-0,0.31,25,2040,0,0.0,0.0,0.0,0.0,0,0,0.0
2425,0,0.0,0.52,,,,,,,,,,,,,,,,,,
2427,0,0.0,0.52,,,,,,,,,,,,,,,,,,
2429,0,0.0,0.52,,,,,,,,,,,,,,,,,,
2431,0,0.0,0.53,,,,,,,,,,,,,,,,,,
2433,0,0.0,0.53,,0.12,0.01,0.78,1,-2,-0,0.12,,,,,,,,,,
2435,0,0.0,0.53,,,,,,,,,,,,,,,,,,
2437,0,0.0,0.54,,,,,,,,,,,,,,,,,,
2439,0,0.0,0.53,,,,,,,,,,,,,,,,,,
2441,0,0.0,0.53,,,,,,,,,,,,,,,,,,
2443,0,0.0,0.53,,-0.11,0.06,0.95,0,-0,-1,0.13,25,2040,0,0.0,0.0,0.0,0.0,0,0,0.0
2445,0,0.0,0.53,,,,,,,,,,,,,,,,,,
2447,0,0.0,0.53,,,,,,,,,,,,,,,,,,
2449,0,0.0,0.53,,,,,,,,,,,,,,,,,,
2451,0,0.0,0.53,,,,,,,,,,,,,,,,,,
2453,0,0.0,0.53,,-0.31,0.11,1.17,1,-0,-1,0.33,,,,,,,,,,
2455,0,0.0,0.53,,,,,,,,,,,,,,,,,,
2457,0,0.0,0.53,,,,,,,,,,,,,,,,,,
2459,0,0.0,0.53,,,,,,,,,,,,,,,,,,
2461,0,0.0,0.53,,,,,,,,,,,,,,,,,,
2463,0,0.0,0.53,,-0.09,-0.07,1.15,1,-1,-1,0.12,28,2040,0,0.0,0.0,0.0,0.0,0,0,0.0
2465,0,0.0,0.54,,,,,,,,,,,,,,,,,,
2467,0,0.0,0.52,,,,,,,,,,,,,,,,,,
2469,0,0.0,0.53,,,,,,,,,,,,,,,,,,
2471,0,0.0,0.53,,,,,,,,,,,,,,,,,,
2473,0,0.0,0.52,,-0.33,0.02,1.07,1,1,-1,0.33,,,,,,,,,,
2475,0,0.0,0.52,,,,,,,,,,,,,,,,,,
2477,0,0.0,0.52,,,,,,,,,,,,,,,,,,
2479,0,0.0,0.52,,,,,,,,,,,,,,,,,,
2481,0,0.0,0.52,,,,,,,,,,,,,,,,,,
2483,0,0.0,0.52,,-0.34,0.07,1.09,2,1,-0,0.35,28,2040,0,0.0,0.0,0.0,0.0,0,0,0.0
2485,0,0.0,0.52,,,,,,,,,,,,,,,,,,
2487,0,0.0,0.52,,,,,,,,,,,,,,,,,,
2489,0,0.0,0.52,,,,,,,,,,,,,,,,,,
2491,0,0.0,0.52,,,,,,,,,,,,,,,,,,
2493,0,0.0,0.52,,-0.02,-0.06,0.9,1,1,0,0.06,,,,,,,,,,
2495,0,0.0,0.53,,,,,,,,,,,,,,,,,,
2497,0,0.0,0.52,,,,,,,,,,,,,,,,,,
2499,0,0.0,0.52,,,,,,,,,,,,,,,,,,
2501,0,0.0,0.52,,,,,,,,,,,,,,,,,,
2503,0,0.0,0.52,,-0.21,0.04,0.75,1,1,1,0.22,28,2040,0,0.0,0.0,0.0,0.0,0,0,0.0
2505,0,0.0,0.52,,,,,,,,,,,,,,,,,,
2507,0,0.0,0.52,,,,,,,,,,,,,,,,,,
2509,0,0.0,0.53,,,,,,,,,,,,,,,,,,
2511,0,0.0,0.53,,,,,,,,,,,,,,,,,,
2513,0,0.0,0.53,,-0.04,0.07,0.87,2,-1,1,0.08,,,,,,,,,,
2515,0,0.0,0.53,,,,,,,,,,,,,,,,,,
2517,0,0.0,0.53,,,,,,,,,,,,,,,,,,
2519,0,0.0,0.53,,,,,,,,,,,,,,,,,,
2521,0,0.0,0.53,,,,,,,,,,,,,,,,,,
2523,0,0.0,0.54,,0.09,0.01,0.82,1,-1,0,0.09,28,2040,0,0.0,0.0,0.0,0.0,0,0,0.0
2525,0,0.0,0.53,,,,,,,,,,,,,,,,,,
2527,0,0.0,0.53,,,,,,,,,,,,,,,,,,
2529,0,0.0,0.53,,,,,,,,,,,,,,,,,,
2531,0,0.0,0.53,,,,,,,,,,,,,,,,,,
2533,0,0.0,0.52,,-0.3,0.11,0.94,1,-1,-0,0.32,,,,,,,,,,
2535,0,0.0,0.52,,,,,,,,,,,,,,,,,,
2537,0,0.0,0.52,,,,,,,,,,,,,,,,,,
2539,0,0.0,0.52,,,,,,,,,,,,,,,,,,
2541,0,0.0,0.52,,,,,,,,,,,,,,,,,,
2543,0,0.0,0.52,,-0.26,0.05,1.05,2,-2,0,0.26,32,2040,0,0.0,0.0,0.0,0.0,0,0,0.0
2545,0,0.0,0.52,,,,,,,,,,,,,,,,,,
2547,0,0.0,0.52,,,,,,,,,,,,,,,,,,
2549,0,0.0,0.52,,,,,,,,,,,,,,,,,,
2551,0,0.0,0.52,,,,,,,,,,,,,,,,,,
2553,0,0.0,0.53,,-0.13,0.09,1.11,1,-1,0,0.15,,,,,,,,,,
2555,0,0.0,0.52,,,,,,,,,,,,,,,,,,
2557,0,0.0,0.52,,,,,,,,,,,,,,,,,,
2559,0,0.0,0.52,,,,,,,,,,,,,,,,,,
2561,0,0.0,0.52,,,,,,,,,,,,,,,,,,
2563,0,0.0,0.52,,-0.47,0.15,1.05,1,-1,0,0.5,32,1980,0,0.0,0.0,0.0,0.0,0,0,0.0
2565,0,0.0,0.52,,,,,,,,,,,,,,,,,,
2567,0,0.0,0.52,,,,,,,,,,,,,,,,,,
2569,0,0.0,0.52,,,,,,,,,,,,,,,,,,
2571,0,0.0,0.52,,,,,,,,,,,,,,,,,,
2573,0,0.0,0.52,,-0.04,0.01,1.01,2,-3,0,0.04,,,,,,,,,,
2575,0,0.0,0.52,,,,,,,,,,,,,,,,,,
2577,0,0.0,0.52,,,,,,,,,,,,,,,,,,
2579,0,0.0,0.52,,,,,,,,,,,,,,,,,,
2581,0,0.0,0.53,,,,,,,,,,,,,,,,,,
2583,0,0.0,0.52,,0.17,0.09,0.8,1,-2,1,0.19,32,2040,0,0.0,0.0,0.0,0.0,0,0,0.0
2585,0,0.0,0.52,,,,,,,,,,,,,,,,,,
2587,0,0.0,0.52,,,,,,,,,,,,,,,,,,
2589,0,0.0,0.52,,,,,,,,,,,,,,,,,,
2591,0,0.0,0.52,,,,,,,,,,,,,,,,,,
2593,0,0.0,0.53,,-0.1,0.25,0.88,1,-4,-0,0.27,,,,,,,,,,
2595,0,0.0,0.53,,,,,,,,,,,,,,,,,,
2597,0,0.0,0.53,,,,,,,,,,,,,,,,,,
2599,0,0.0,0.53,,,,,,,,,,,,,,,,,,
2601,0,0.0,0.53,,,,,,,,,,,,,,,,,,
2603,0,0.0,0.53,,0.17,0.11,0.84,1,-5,-1,0.2,32,2040,0,0.0,0.0,0.0,0.0,0,0,0.0
2605,0,0.0,0.53,,,,,,,,,,,,,,,,,,
2607,0,0.0,0.53,,,,,,,,,,,,,,,,,,
2609,0,0.0,0.53,,,,,,,,,,,,,,,,,,
2611,0,0.0,0.54,,,,,,,,,,,,,,,,,,
2613,0,0.0,0.53,,0.26,0.02,0.99,0,-4,-1,0.26,,,,,,,,,,
2615,0,0.0,0.53,,,,,,,,,,,,,,,,,,
2617,0,0.0,0.52,,,,,,,,,,,,,,,,,,
2619,0,0.0,0.52,,,,,,,,,,,,,,,,,,
2621,0,0.0,0.52,,,,,,,,,,,,,,,,,,
2623,0,0.0,0.52,,-0.25,0.08,1.16,0,-3,-1,0.27,28,2040,0,0.0,0.0,0.0,0.0,0,0,0.0
2625,0,0.0,0.52,,,,,,,,,,,,,,,,,,
2627,0,0.0,0.52,,,,,,,,,,,,,,,,,,
2629,0,0.0,0.52,,,,,,,,,,,,,,,,,,
2631,0,0.0,0.52,,,,,,,,,,,,,,,,,,
2633,0,0.0,0.52,,0.01,-0.01,1.27,1,-3,-0,0.02,,,,,,,,,,
2635,0,0.0,0.52,,,,,,,,,,,,,,,,,,
2637,0,0.0,0.52,,,,,,,,,,,,,,,,,,
2639,0,0.0,0.54,,,,,,,,,,,,,,,,,,
2641,0,0.0,0.53,,,,,,,,,,,,,,,,,,
2643,0,0.0,0.53,,-0.07,-0.05,1.17,1,0,0,0.08,28,2100,0,0.0,0.0,0.0,0.0,0,0,0.0
2645,0,0.0,0.53,,,,,,,,,,,,,,,,,,
2647,0,0.0,0.53,,,,,,,,,,,,,,,,,,
2649,0,0.0,0.53,,,,,,,,,,,,,,,,,,
2651,0,0.0,0.53,,,,,,,,,,,,,,,,,,
2653,0,0.0,0.52,,-0.31,0.13,1.22,2,1,0,0.34,,,,,,,,,,
2655,0,0.0,0.53,,,,,,,,,,,,,,,,,,
2657,0,0.0,0.53,,,,,,,,,,,,,,,,,,
2659,0,0.0,0.53,,,,,,,,,,,,,,,,,,
2661,0,0.0,0.53,,,,,,,,,,,,,,,,,,
2663,0,0.0,0.53,,-0.03,-0.03,0.95,3,1,-0,0.04,28,2100,0,0.0,0.0,0.0,0.0,0,0,0.0
2665,0,0.0,0.53,,,,,,,,,,,,,,,,,,
2667,0,0.0,0.53,,,,,,,,,,,,,,,,,,
2669,0,0.0,0.54,,,,,,,,,,,,,,,,,,
2671,0,0.0,0.53,,,,,,,,,,,,,,,,,,
2673,0,0.0,0.53,,-0.03,-0.01,0.82,2,3,-0,0.03,,,,,,,,,,
2675,0,0.0,0.53,,,,,,,,,,,,,,,,,,
2677,0,0.0,0.53,,,,,,,,,,,,,,,,,,
2679,0,0.0,0.53,,,,,,,,,,,,,,,,,,
2681,0,0.0,0.53,,,,,,,,,,,,,,,,,,
2683,0,0.0,0.53,,-0.29,0.22,0.95,2,3,-1,0.37,52,2040,0,0.0,0.0,0.0,0.0,0,0,0.0
2685,0,0.0,0.52,,,,,,,,,,,,,,,,,,
2687,0,0.0,0.53,,,,,,,,,,,,,,,,,,
2689,0,0.0,0.53,,,,,,,,,,,,,,,,,,
2691,0,0.0,0.53,,,,,,,,,,,,,,,,,,
2693,0,0.0,0.53,,0.01,0.09,0.75,3,2,-1,0.09,,,,,,,,,,
2695,0,0.0,0.53,,,,,,,,,,,,,,,,,,
2697,0,0.0,0.54,,,,,,,,,,,,,,,,,,
2699,0,0.0,0.53,,,,,,,,,,,,,,,,,,
2701,0,0.0,0.53,,,,,,,,,,,,,,,,,,
2703,0,0.0,0.53,,-0.18,0.14,0.76,1,3,-0,0.23,52,2040,0,0.0,0.0,0.0,0.0,0,0,0.0
2705,0,0.0,0.53,,,,,,,,,,,,,,,,,,
2707,0,0.0,0.52,,,,,,,,,,,,,,,,,,
2709,0,0.0,0.52,,,,,,,,,,,,,,,,,,
2711,0,0.0,0.52,,,,,,,,,,,,,,,,,,
2713,0,0.0,0.53,,-0.32,0.29,0.87,1,1,0,0.43,,,,,,,,,,
2715,0,0.0,0.53,,,,,,,,,,,,,,,,,,
2717,0,0.0,0.53,,,,,,,,,,,,,,,,,,
2719,0,0.0,0.53,,,,,,,,,,,,,,,,,,
2721,0,0.0,0.53,,,,,,,,,,,,,,,,,,
2723,0,0.0,0.53,,0.02,0.12,0.79,0,-1,1,0.12,52,2040,0,0.0,0.0,0.0,0.0,0,0,0.0
2725,0,0.0,0.53,,,,,,,,,,,,,,,,,,
2727,0,0.0,0.54,,,,,,,,,,,,,,,,,,
2729,0,0.0,0.53,,,,,,,,,,,,,,,,,,
2731,0,0.0,0.53,,,,,,,,,,,,,,,,,,
2733,0,0.0,0.53,,-0.12,0.27,0.87,-1,-1,0,0.29,,,,,,,,,,
2735,0,0.0,0.53,,,,,,,,,,,,,,,,,,
2737,0,0.0,0.53,,,,,,,,,,,,,,,,,,
2739,0,0.0,0.53,,,,,,,,,,,,,,,,,,
2741,0,0.0,0.53,,,,,,,,,,,,,,,,,,
2743,0,0.0,0.53,,-0.21,0.27,1.07,-1,-2,-0,0.34,52,1980,0,0.0,0.0,0.0,0.0,0,0,0.0
2745,0,0.0,0.53,,,,,,,,,,,,,,,,,,
2747,0,0.0,0.54,,,,,,,,,,,,,,,,,,
2749,0,0.0,0.54,,,,,,,,,,,,,,,,,,
2751,0,0.0,0.54,,,,,,,,,,,,,,,,,,
2753,0,0.0,0.54,,0.08,0.12,1.0,-2,-3,-1,0.14,,,,,,,,,,
2755,0,0.0,0.55,,,,,,,,,,,,,,,,,,
2757,0,0.0,0.54,,,,,,,,,,,,,,,,,,
2759,0,0.0,0.54,,,,,,,,,,,,,,,,,,
2761,0,0.0,0.54,,,,,,,,,,,,,,,,,,
2763,0,0.0,0.54,,-0.14,0.13,1.03,-3,-3,-2,0.19,52,2040,0,0.0,0.0,0.0,0.0,0,0,0.0
2765,0,0.0,0.54,,,,,,,,,,,,,,,,,,
2767,0,0.0,0.54,,,,,,,,,,,,,,,,,,
2769,0,0.0,0.53,,,,,,,,,,,,,,,,,,
2771,0,0.0,0.53,,,,,,,,,,,,,,,,,,
2773,0,0.0,0.53,,-0.07,0.01,1.11,-2,-4,-1,0.07,,,,,,,,,,
2775,0,0.0,0.53,,,,,,,,,,,,,,,,,,
2777,0,0.0,0.53,,,,,,,,,,,,,,,,,,
2779,0,0.0,0.53,,,,,,,,,,,,,,,,,,
2781,0,0.0,0.53,,,,,,,,,,,,,,,,,,
2783,0,0.0,0.53,,0.28,-0.13,0.98,-3,-5,-1,0.31,32,2040,0,0.0,0.0,0.0,0.0,0,0,0.0
2785,0,0.0,0.54,,,,,,,,,,,,,,,,,,
2787,0,0.0,0.53,,,,,,,,,,,,,,,,,,
2789,0,0.0,0.53,,,,,,,,,,,,,,,,,,
2791,0,0.0,0.53,,,,,,,,,,,,,,,,,,
2793,0,0.0,0.53,,0.1,-0.02,0.95,-3,-4,-0,0.1,,,,,,,,,,
2795,0,0.0,0.53,,,,,,,,,,,,,,,,,,
2797,0,0.0,0.53,,,,,,,,,,,,,,,,,,
2799,0,0.0,0.52,,,,,,,,,,,,,,,,,,
2801,0,0.0,0.53,,,,,,,,,,,,,,,,,,
2803,0,0.0,0.53,,0.19,-0.09,1.12,-1,-5,0,0.21,32,2040,0,0.0,0.0,0.0,0.0,0,0,0.0
2805,0,0.0,0.52,,,,,,,,,,,,,,,,,,
2807,0,0.0,0.53,,,,,,,,,,,,,,,,,,
2809,0,0.01,0.53,,,,,,,,,,,,,,,,,,
2811,0,0.0,0.53,,,,,,,,,,,,,,,,,,
2813,0,0.0,0.54,,0.43,-0.13,1.03,-1,-5,1,0.45,,,,,,,,,,
2815,0,0.0,0.54,,,,,,,,,,,,,,,,,,
2817,0,0.0,0.54,,,,,,,,,,,,,,,,,,
2819,0,0.0,0.54,,,,,,,,,,,,,,,,,,
2821,0,0.0,0.54,,,,,,,,,,,,,,,,,,
2823,0,0.0,0.54,,0.1,-0.17,1.12,-0,-3,0,0.2,32,2100,0,0.0,0.0,0.0,0.0,0,0,0.0
2825,0,0.0,0.54,,,,,,,,,,,,,,,,,,
2827,0,0.0,0.54,,,,,,,,,,,,,,,,,,
2829,0,0.0,0.53,,,,,,,,,,,,,,,,,,
2831,0,0.0,0.53,,,,,,,,,,,,,,,,,,
2833,0,0.0,0.53,,-0.01,-0.25,1.2,1,-2,2,0.25,,,,,,,,,,
2835,0,0.0,0.53,,,,,,,,,,,,,,,,,,
2837,0,0.0,0.53,,,,,,,,,,,,,,,,,,
2839,0,0.0,0.53,,,,,,,,,,,,,,,,,,
2841,0,0.0,0.53,,,,,,,,,,,,,,,,,,
2843,0,0.0,0.54,,0.17,-0.11,1.24,2,-0,2,0.21,25,2040,0,0.0,0.0,0.0,0.0,0,0,0.0
2845,0,0.0,0.53,,,,,,,,,,,,,,,,,,
2847,0,0.0,0.53,,,,,,,,,,,,,,,,,,
2849,0,0.0,0.53,,,,,,,,,,,,,,,,,,
2851,0,0.0,0.53,,,,,,,,,,,,,,,,,,
2853,0,0.0,0.53,,-0.21,-0.11,1.09,3,1,2,0.24,,,,,,,,,,
2855,0,0.0,0.53,,,,,,,,,,,,,,,,,,
2857,0,0.0,0.53,,,,,,,,,,,,,,,,,,
2859,0,0.0,0.53,,,,,,,,,,,,,,,,,,
2861,0,0.0,0.52,,,,,,,,,,,,,,,,,,
2863,0,0.0,0.52,,-0.07,-0.03,1.11,4,2,2,0.08,25,2040,0,0.0,0.0,0.0,0.0,0,0,0.0
2865,0,0.0,0.53,,,,,,,,,,,,,,,,,,
2867,0,0.0,0.53,,,,,,,,,,,,,,,,,,
2869,0,0.0,0.53,,,,,,,,,,,,,,,,,,
2871,0,0.0,0.55,,,,,,,,,,,,,,,,,,
2873,0,0.0,0.54,,0.11,-0.05,0.93,4,3,2,0.12,,,,,,,,,,
2875,0,0.0,0.54,,,,,,,,,,,,,,,,,,
2877,0,0.0,0.54,,,,,,,,,,,,,,,,,,
2879,0,0.0,0.54,,,,,,,,,,,,,,,,,,
2881,0,0.0,0.54,,,,,,,,,,,,,,,,,,
2883,0,0.0,0.54,,-0.1,0.16,0.8,4,3,1,0.19,25,2040,0,0.0,0.0,0.0,0.0,0,0,0.0
2885,0,0.0,0.54,,,,,,,,,,,,,,,,,,
2887,0,0.0,0.54,,,,,,,,,,,,,,,,,,
2889,0,0.0,0.54,,,,,,,,,,,,,,,,,,
2891,0,0.0,0.54,,,,,,,,,,,,,,,,,,
2893,0,0.0,0.54,,-0.0,0.19,0.79,5,2,0,0.19,,,,,,,,,,
2895,0,0.0,0.54,,,,,,,,,,,,,,,,,,
2897,0,0.0,0.54,,,,,,,,,,,,,,,,,,
2899,0,0.0,0.55,,,,,,,,,,,,,,,,,,
2901,0,0.0,0.56,,,,,,,,,,,,,,,,,,
2903,0,0.0,0.54,,0.08,0.23,0.82,3,3,0,0.24,25,1980,0,0.0,0.0,0.0,0.0,0,0,0.0
2905,0,0.0,0.54,,,,,,,,,,,,,,,,,,
2907,0,0.0,0.54,,,,,,,,,,,,,,,,,,
2909,0,0.0,0.54,,,,,,,,,,,,,,,,,,
2911,0,0.0,0.54,,,,,,,,,,,,,,,,,,
2913,0,0.0,0.54,,-0.31,0.37,0.86,2,1,0,0.48,,,,,,,,,,
2915,0,0.0,0.54,,,,,,,,,,,,,,,,,,
2917,0,0.0,0.54,,,,,,,,,,,,,,,,,,
2919,0,0.0,0.54,,,,,,,,,,,,,,,,,,
2921,0,0.0,0.54,,,,,,,,,,,,,,,,,,
2923,0,0.0,0.53,,-0.0,0.25,0.88,2,-0,0,0.25,40,1980,0,0.0,0.0,0.0,0.0,0,0,0.0
2925,0,0.0,0.54,,,,,,,,,,,,,,,,,,
2927,0,0.0,0.54,,,,,,,,,,,,,,,,,,
2929,0,0.0,0.55,,,,,,,,,,,,,,,,,,
2931,0,0.0,0.54,,,,,,,,,,,,,,,,,,
2933,0,0.0,0.54,,0.01,0.25,0.84,0,-0,1,0.25,,,,,,,,,,
2935,0,0.0,0.54,,,,,,,,,,,,,,,,,,
2937,0,0.0,0.54,,,,,,,,,,,,,,,,,,
2939,0,0.0,0.54,,,,,,,,,,,,,,,,,,
2941,0,0.0,0.54,,,,,,,,,,,,,,,,,,
2943,0,0.0,0.54,,-0.15,0.34,0.93,-0,-3,1,0.37,40,2040,0,0.0,0.0,0.0,0.0,0,0,0.0
2945,0,0.0,0.53,,,,,,,,,,,,,,,,,,
2947,0,0.0,0.53,,,,,,,,,,,,,,,,,,
2949,0,0.0,0.53,,,,,,,,,,,,,,,,,,
2951,0,0.0,0.54,,,,,,,,,,,,,,,,,,
2953,0,0.0,0.53,,0.16,0.21,0.8,-2,-4,2,0.27,,,,,,,,,,
2955,0,0.0,0.53,,,,,,,,,,,,,,,,,,
2957,0,0.0,0.54,,,,,,,,,,,,,,,,,,
2959,0,0.0,0.55,,,,,,,,,,,,,,,,,,
2961,0,0.0,0.54,,,,,,,,,,,,,,,,,,
2963,0,0.0,0.54,,0.16,0.3,1.0,-3,-3,1,0.34,40,1980,0,0.0,0.0,0.0,0.0,0,0,0.0
2965,0,0.0,0.54,,,,,,,,,,,,,,,,,,
2967,0,0.0,0.54,,,,,,,,,,,,,,,,,,
2969,0,0.0,0.54,,,,,,,,,,,,,,,,,,
2971,0,0.0,0.54,,,,,,,,,,,,,,,,,,
2973,0,0.0,0.54,,-0.09,0.21,1.14,-3,-4,0,0.23,,,,,,,,,,
2975,0,0.0,0.54,,,,,,,,,,,,,,,,,,
2977,0,0.0,0.54,,,,,,,,,,,,,,,,,,
2979,0,0.0,0.54,,,,,,,,,,,,,,,,,,
2981,0,0.0,0.54,,,,,,,,,,,,,,,,,,
2983,0,0.0,0.54,,0.24,-0.04,1.1,-3,-4,1,0.25,40,1980,0,0.0,0.0,0.0,0.0,0,0,0.0
2985,0,0.0,0.54,,,,,,,,,,,,,,,,,,
2987,0,0.0,0.55,,,,,,,,,,,,,,,,,,
2989,0,0.0,0.55,,,,,,,,,,,,,,,,,,
2991,0,0.0,0.55,,,,,,,,,,,,,,,,,,
2993,0,0.0,0.54,,0.05,-0.02,1.12,-4,-3,0,0.05,,,,,,,,,,
2995,0,0.0,0.55,,,,,,,,,,,,,,,,,,
2997,0,0.0,0.54,,,,,,,,,,,,,,,,,,
2999,0,0.0,0.55,,,,,,,,,,,,,,,,,,
3001,0,0.0,0.54,,,,,,,,,,,,,,,,,,
3003,0,0.0,0.55,,0.01,-0.04,1.19,-3,-4,0,0.04,40,2040,0,0.0,0.0,0.0,0.0,0,0,0.0
3005,0,0.0,0.55,,,,,,,,,,,,,,,,,,
3007,0,0.0,0.55,,,,,,,,,,,,,,,,,,
3009,0,0.0,0.55,,,,,,,,,,,,,,,,,,
3011,0,0.0,0.55,,,,,,,,,,,,,,,,,,
3013,0,0.0,0.55,,0.33,-0.15,0.99,-2,-4,0,0.37,,,,,,,,,,
3015,0,0.0,0.55,,,,,,,,,,,,,,,,,,
3017,0,0.0,0.56,,,,,,,,,,,,,,,,,,
3019,0,0.0,0.55,,,,,,,,,,,,,,,,,,
3021,0,0.0,0.55,,,,,,,,,,,,,,,,,,
3023,0,0.0,0.55,,0.25,-0.1,1.05,-2,-3,0,0.27,40,2040,0,0.0,0.0,0.0,0.0,0,0,0.0
3025,0,0.0,0.55,,,,,,,,,,,,,,,,,,
3027,0,0.0,0.55,,,,,,,,,,,,,,,,,,
3029,0,0.0,0.55,,,,,,,,,,,,,,,,,,
3031,0,0.0,0.55,,,,,,,,,,,,,,,,,,
3033,0,0.0,0.55,,0.15,-0.08,1.13,-0,-3,1,0.17,,,,,,,,,,
3035,0,0.0,0.55,,,,,,,,,,,,,,,,,,
3037,0,0.0,0.55,,,,,,,,,,,,,,,,,,
3039,0,0.0,0.55,,,,,,,,,,,,,,,,,,
3041,0,0.0,0.55,,,,,,,,,,,,,,,,,,
3043,0,0.0,0.55,13.3,0.42,-0.15,1.0,0,-4,1,0.45,28,2040,0,0.0,0.0,0.0,0.0,0,0,0.0
3045,0,0.0,0.56,,,,,,,,,,,,,,,,,,
3047,0,0.0,0.55,,,,,,,,,,,,,,,,,,
3049,0,0.0,0.55,,,,,,,,,,,,,,,,,,
3051,0,0.0,0.55,,,,,,,,,,,,,,,,,,
3053,0,0.0,0.54,,0.18,-0.17,1.05,0,-1,2,0.25,,,,,,,,,,
3055,0,0.0,0.54,,,,,,,,,,,,,,,,,,
3057,0,0.0,0.54,,,,,,,,,,,,,,,,,,
3059,0,0.0,0.54,,,,,,,,,,,,,,,,,,
3061,0,0.0,0.54,,,,,,,,,,,,,,,,,,
3063,0,0.0,0.54,,-0.02,-0.1,1.22,2,-0,2,0.1,28,2100,0,0.0,0.0,0.0,0.0,0,0,0.0
3065,0,0.0,0.54,,,,,,,,,,,,,,,,,,
