"Interval"|"ms"|0|0|1,"Utc"|"ms"|0|0|1,"Analog4"|"Volts"|0.0|5.0|500,"Analog5"|"Volts"|0.0|5.0|500,"Battery"|"Volts"|0.0|20.0|1,"AccelX"|"G"|-3.0|3.0|200,"AccelY"|"G"|-3.0|3.0|200,"AccelZ"|"G"|-3.0|3.0|200,"Yaw"|"Deg/Sec"|-120|120|200,"Pitch"|"Deg/Sec"|-120|120|200,"Roll"|"Deg/Sec"|-120|120|200,"Gsum"|"G"|0.0|3.0|200,"RPM2"|"rpm"|0|8000|50,"RPM3"|"rpm"|0|8000|50,"GPIO1"|""|0.0|1.0|50,"Latitude"|"Degrees"|-180.0|180.0|50,"Longitude"|"Degrees"|-180.0|180.0|50,"Speed"|"mph"|0.0|150.0|50,"Altitude"|"ft"|0.0|4000.0|50,"GPSSats"|""|0|20|50,"GPSQual"|""|0|5|50,"GPSDOP"|""|0.0|20.0|50
133,0,0.0,0.3,,-0.14,0.1,1.05,0,-0,-1,0.17,,,,,,,,,,
135,0,0.0,0.3,,,,,,,,,,,,,,,,,,
137,0,0.0,0.3,,,,,,,,,,,,,,,,,,
139,0,0.0,0.3,,,,,,,,,,,,,,,,,,
141,0,0.0,0.3,,,,,,,,,,,,,,,,,,
143,0,0.0,0.3,,-0.01,0.04,0.96,-0,-0,-0,0.04,0,2040,0,0.0,0.0,0.0,0.0,0,0,0.0
145,0,0.0,0.3,,,,,,,,,,,,,,,,,,
147,0,0.0,0.3,,,,,,,,,,,,,,,,,,
149,0,0.0,0.31,,,,,,,,,,,,,,,,,,
151,0,0.0,0.3,,,,,,,,,,,,,,,,,,
153,0,0.0,0.3,,-0.09,0.11,0.99,0,0,-0,0.14,,,,,,,,,,
155,0,0.0,0.3,,,,,,,,,,,,,,,,,,
157,0,0.0,0.3,,,,,,,,,,,,,,,,,,
159,0,0.0,0.3,,,,,,,,,,,,,,,,,,
161,0,0.0,0.3,,,,,,,,,,,,,,,,,,
163,0,0.0,0.3,,-0.13,0.1,1.04,1,-0,-1,0.16,0,1980,0,0.0,0.0,0.0,0.0,0,0,0.0
165,0,0.0,0.3,,,,,,,,,,,,,,,,,,
167,0,0.0,0.31,,,,,,,,,,,,,,,,,,
169,0,0.0,0.31,,,,,,,,,,,,,,,,,,
171,0,0.0,0.31,,,,,,,,,,,,,,,,,,
173,0,0.0,0.31,,0.02,0.06,1.02,-0,-0,-0,0.06,,,,,,,,,,
175,0,0.0,0.31,,,,,,,,,,,,,,,,,,
177,0,0.0,0.31,,,,,,,,,,,,,,,,,,
179,0,0.0,0.31,,,,,,,,,,,,,,,,,,
181,0,0.0,0.31,,,,,,,,,,,,,,,,,,
183,0,0.0,0.31,,-0.15,0.09,0.99,-0,1,-1,0.18,0,2040,0,0.0,0.0,0.0,0.0,0,0,0.0
185,0,0.0,0.31,,,,,,,,,,,,,,,,,,
187,0,0.0,0.31,,,,,,,,,,,,,,,,,,
189,0,0.0,0.31,,,,,,,,,,,,,,,,,,
191,0,0.0,0.3,,,,,,,,,,,,,,,,,,
193,0,0.0,0.31,,-0.12,0.08,1.04,0,-0,-0,0.15,,,,,,,,,,
195,0,0.0,0.31,,,,,,,,,,,,,,,,,,
197,0,0.0,0.3,,,,,,,,,,,,,,,,,,
199,0,0.0,0.31,,,,,,,,,,,,,,,,,,
201,0,0.0,0.31,,,,,,,,,,,,,,,,,,
203,0,0.0,0.31,,-0.02,0.05,0.96,-0,-0,-0,0.06,0,2040,0,0.0,0.0,0.0,0.0,0,0,0.0
205,0,0.0,0.31,,,,,,,,,,,,,,,,,,
207,0,0.0,0.32,,,,,,,,,,,,,,,,,,
209,0,0.0,0.31,,,,,,,,,,,,,,,,,,
211,0,0.0,0.31,,,,,,,,,,,,,,,,,,
213,0,0.0,0.31,,-0.1,0.11,0.97,0,-0,-0,0.15,,,,,,,,,,
215,0,0.0,0.31,,,,,,,,,,,,,,,,,,
217,0,0.0,0.31,,,,,,,,,,,,,,,,,,
219,0,0.0,0.31,,,,,,,,,,,,,,,,,,
221,0,0.0,0.31,,,,,,,,,,,,,,,,,,
223,0,0.0,0.31,,-0.06,0.08,1.02,1,-0,-0,0.1,0,1980,0,0.0,0.0,0.0,0.0,0,0,0.0
225,0,0.0,0.31,,,,,,,,,,,,,,,,,,
227,0,0.0,0.31,,,,,,,,,,,,,,,,,,
229,0,0.0,0.32,,,,,,,,,,,,,,,,,,
231,0,0.0,0.32,,,,,,,,,,,,,,,,,,
233,0,0.0,0.31,,0.01,0.08,1.01,-0,-0,-0,0.08,,,,,,,,,,
235,0,0.0,0.32,,,,,,,,,,,,,,,,,,
237,0,0.0,0.33,,,,,,,,,,,,,,,,,,
239,0,0.0,0.32,,,,,,,,,,,,,,,,,,
241,0,0.0,0.32,,,,,,,,,,,,,,,,,,
243,0,0.0,0.32,,-0.14,0.11,0.97,0,1,-1,0.18,0,2040,0,0.0,0.0,0.0,0.0,0,0,0.0
245,0,0.0,0.32,,,,,,,,,,,,,,,,,,
247,0,0.0,0.32,,,,,,,,,,,,,,,,,,
249,0,0.0,0.32,,,,,,,,,,,,,,,,,,
251,0,0.0,0.32,,,,,,,,,,,,,,,,,,
253,0,0.0,0.32,,-0.09,0.07,1.04,0,-0,-1,0.11,,,,,,,,,,
255,0,0.0,0.32,,,,,,,,,,,,,,,,,,
257,0,0.0,0.32,,,,,,,,,,,,,,,,,,
259,0,0.0,0.32,,,,,,,,,,,,,,,,,,
261,0,0.0,0.32,,,,,,,,,,,,,,,,,,
263,0,0.0,0.33,,-0.04,0.06,1.0,-0,-0,-0,0.07,0,2040,0,0.0,0.0,0.0,0.0,0,0,0.0
265,0,0.0,0.32,,,,,,,,,,,,,,,,,,
267,0,0.0,0.33,,,,,,,,,,,,,,,,,,
269,0,0.0,0.32,,,,,,,,,,,,,,,,,,
271,0,0.0,0.32,,,,,,,,,,,,,,,,,,
273,0,0.0,0.32,,-0.11,0.1,0.94,0,-0,-1,0.14,,,,,,,,,,
275,0,0.0,0.32,,,,,,,,,,,,,,,,,,
277,0,0.0,0.32,,,,,,,,,,,,,,,,,,
279,0,0.0,0.33,,,,,,,,,,,,,,,,,,
281,0,0.0,0.33,,,,,,,,,,,,,,,,,,
283,0,0.0,0.33,,-0.01,0.08,1.0,1,-0,-0,0.08,0,1980,0,0.0,0.0,0.0,0.0,0,0,0.0
285,0,0.0,0.33,,,,,,,,,,,,,,,,,,
287,0,0.0,0.32,,,,,,,,,,,,,,,,,,
289,0,0.0,0.33,,,,,,,,,,,,,,,,,,
291,0,0.0,0.33,,,,,,,,,,,,,,,,,,
293,0,0.0,0.33,,-0.01,0.07,1.0,-0,0,-0,0.07,,,,,,,,,,
295,0,0.0,0.33,,,,,,,,,,,,,,,,,,
297,0,0.0,0.33,,,,,,,,,,,,,,,,,,
299,0,0.0,0.33,,,,,,,,,,,,,,,,,,
301,0,0.0,0.33,,,,,,,,,,,,,,,,,,
303,0,0.0,0.33,,-0.14,0.11,0.92,0,0,-1,0.17,0,2040,0,0.0,0.0,0.0,0.0,0,0,0.0
305,0,0.0,0.33,,,,,,,,,,,,,,,,,,
307,0,0.0,0.33,,,,,,,,,,,,,,,,,,
309,0,0.0,0.33,,,,,,,,,,,,,,,,,,
311,0,0.0,0.33,,,,,,,,,,,,,,,,,,
313,0,0.0,0.33,,-0.07,0.07,0.99,0,-0,-0,0.1,,,,,,,,,,
315,0,0.0,0.33,,,,,,,,,,,,,,,,,,
317,0,0.0,0.33,,,,,,,,,,,,,,,,,,
319,0,0.0,0.33,,,,,,,,,,,,,,,,,,
321,0,0.0,0.33,,,,,,,,,,,,,,,,,,
323,0,0.0,0.33,,-0.06,0.07,1.02,-0,-0,-0,0.09,0,2040,0,0.0,0.0,0.0,0.0,0,0,0.0
325,0,0.0,0.34,,,,,,,,,,,,,,,,,,
327,0,0.0,0.34,,,,,,,,,,,,,,,,,,
329,0,0.0,0.33,,,,,,,,,,,,,,,,,,
331,0,0.0,0.33,,,,,,,,,,,,,,,,,,
333,0,0.0,0.33,,-0.13,0.09,0.93,0,-0,-1,0.15,,,,,,,,,,
335,0,0.0,0.33,,,,,,,,,,,,,,,,,,
337,0,0.0,0.33,,,,,,,,,,,,,,,,,,
339,0,0.0,0.34,,,,,,,,,,,,,,,,,,
341,0,0.0,0.34,,,,,,,,,,,,,,,,,,
343,0,0.0,0.34,,0.01,0.06,0.99,0,-0,-0,0.06,0,1980,0,0.0,0.0,0.0,0.0,0,0,0.0
345,0,0.0,0.34,,,,,,,,,,,,,,,,,,
347,0,0.0,0.34,,,,,,,,,,,,,,,,,,
349,0,0.0,0.34,,,,,,,,,,,,,,,,,,
351,0,0.0,0.34,,,,,,,,,,,,,,,,,,
353,0,0.0,0.34,,-0.02,0.07,0.98,-0,-0,-0,0.08,,,,,,,,,,
355,0,0.0,0.35,,,,,,,,,,,,,,,,,,
357,0,0.0,0.34,,,,,,,,,,,,,,,,,,
359,0,0.0,0.34,,,,,,,,,,,,,,,,,,
361,0,0.0,0.34,,,,,,,,,,,,,,,,,,
363,0,0.0,0.34,,-0.14,0.12,0.91,0,-0,-0,0.19,0,2040,0,0.0,0.0,0.0,0.0,0,0,0.0
365,0,0.0,0.34,,,,,,,,,,,,,,,,,,
367,0,0.0,0.34,,,,,,,,,,,,,,,,,,
369,0,0.0,0.34,,,,,,,,,,,,,,,,,,
371,0,0.0,0.34,,,,,,,,,,,,,,,,,,
373,0,0.0,0.34,,-0.05,0.05,0.96,0,-1,-0,0.07,,,,,,,,,,
375,0,0.0,0.34,,,,,,,,,,,,,,,,,,
377,0,0.0,0.34,,,,,,,,,,,,,,,,,,
379,0,0.0,0.34,,,,,,,,,,,,,,,,,,
381,0,0.0,0.34,,,,,,,,,,,,,,,,,,
383,0,0.0,0.34,,-0.06,0.09,1.01,-0,-0,-0,0.11,0,2040,0,0.0,0.0,0.0,0.0,0,0,0.0
385,0,0.0,0.36,,,,,,,,,,,,,,,,,,
387,0,0.0,0.34,,,,,,,,,,,,,,,,,,
389,0,0.0,0.34,,,,,,,,,,,,,,,,,,
391,0,0.0,0.34,,,,,,,,,,,,,,,,,,
393,0,0.0,0.34,,-0.17,0.09,0.92,0,-0,-0,0.2,,,,,,,,,,
395,0,0.0,0.34,,,,,,,,,,,,,,,,,,
397,0,0.0,0.34,,,,,,,,,,,,,,,,,,
399,0,0.0,0.35,,,,,,,,,,,,,,,,,,
401,0,0.0,0.35,,,,,,,,,,,,,,,,,,
403,0,0.0,0.35,,0.03,0.05,0.99,0,-0,-0,0.06,0,1980,0,0.0,0.0,0.0,0.0,0,0,0.0
405,0,0.0,0.35,,,,,,,,,,,,,,,,,,
407,0,0.0,0.35,,,,,,,,,,,,,,,,,,
409,0,0.0,0.35,,,,,,,,,,,,,,,,,,
411,0,0.0,0.35,,,,,,,,,,,,,,,,,,
413,0,0.0,0.35,,-0.06,0.08,0.97,-0,0,-0,0.1,,,,,,,,,,
415,0,0.0,0.35,,,,,,,,,,,,,,,,,,
417,0,0.0,0.35,,,,,,,,,,,,,,,,,,
419,0,0.0,0.35,,,,,,,,,,,,,,,,,,
421,0,0.0,0.35,,,,,,,,,,,,,,,,,,
423,0,0.0,0.35,,-0.15,0.12,0.94,0,-1,-0,0.2,0,2040,0,0.0,0.0,0.0,0.0,0,0,0.0
425,0,0.0,0.35,,,,,,,,,,,,,,,,,,
427,0,0.0,0.35,,,,,,,,,,,,,,,,,,
429,0,0.0,0.35,,,,,,,,,,,,,,,,,,
431,0,0.0,0.35,,,,,,,,,,,,,,,,,,
433,0,0.0,0.35,,-0.03,0.04,0.93,0,-1,-0,0.05,,,,,,,,,,
435,0,0.0,0.35,,,,,,,,,,,,,,,,,,
437,0,0.0,0.35,,,,,,,,,,,,,,,,,,
439,0,0.0,0.35,,,,,,,,,,,,,,,,,,
441,0,0.0,0.36,,,,,,,,,,,,,,,,,,
443,0,0.0,0.37,,-0.07,0.1,1.04,-0,-0,-0,0.12,0,1980,0,0.0,0.0,0.0,0.0,0,0,0.0
445,0,0.0,0.36,,,,,,,,,,,,,,,,,,
447,0,0.0,0.35,,,,,,,,,,,,,,,,,,
449,0,0.0,0.36,,,,,,,,,,,,,,,,,,
451,0,0.0,0.36,,,,,,,,,,,,,,,,,,
453,0,0.0,0.36,,-0.22,0.1,0.94,0,-1,-1,0.24,,,,,,,,,,
455,0,0.0,0.36,,,,,,,,,,,,,,,,,,
457,0,0.0,0.36,,,,,,,,,,,,,,,,,,
459,0,0.0,0.36,,,,,,,,,,,,,,,,,,
461,0,0.0,0.36,,,,,,,,,,,,,,,,,,
463,0,0.0,0.36,,0.03,0.03,0.99,0,-1,-1,0.05,0,1980,0,0.0,0.0,0.0,0.0,0,0,0.0
465,0,0.0,0.36,,,,,,,,,,,,,,,,,,
467,0,0.0,0.36,,,,,,,,,,,,,,,,,,
469,0,0.0,0.36,,,,,,,,,,,,,,,,,,
471,0,0.0,0.36,,,,,,,,,,,,,,,,,,
473,0,0.0,0.37,,-0.1,0.1,0.98,-0,-0,-0,0.14,,,,,,,,,,
475,0,0.0,0.36,,,,,,,,,,,,,,,,,,
477,0,0.0,0.36,,,,,,,,,,,,,,,,,,
479,0,0.0,0.36,,,,,,,,,,,,,,,,,,
481,0,0.0,0.36,,,,,,,,,,,,,,,,,,
483,0,0.0,0.36,,-0.17,0.12,0.95,0,-1,-0,0.21,0,2040,0,0.0,0.0,0.0,0.0,0,0,0.0
485,0,0.0,0.36,,,,,,,,,,,,,,,,,,
487,0,0.0,0.36,,,,,,,,,,,,,,,,,,
489,0,0.0,0.37,,,,,,,,,,,,,,,,,,
491,0,0.0,0.37,,,,,,,,,,,,,,,,,,
493,0,0.0,0.37,,-0.0,0.04,0.9,0,-1,-0,0.04,,,,,,,,,,
495,0,0.0,0.37,,,,,,,,,,,,,,,,,,
497,0,0.0,0.37,,,,,,,,,,,,,,,,,,
499,0,0.0,0.37,,,,,,,,,,,,,,,,,,
501,0,0.0,0.37,,,,,,,,,,,,,,,,,,
503,0,0.0,0.38,,-0.07,0.12,1.05,-0,0,-0,0.14,0,1980,0,0.0,0.0,0.0,0.0,0,0,0.0
505,0,0.0,0.37,,,,,,,,,,,,,,,,,,
507,0,0.0,0.37,,,,,,,,,,,,,,,,,,
509,0,0.0,0.37,,,,,,,,,,,,,,,,,,
511,0,0.0,0.37,,,,,,,,,,,,,,,,,,
513,0,0.0,0.37,,-0.21,0.1,0.99,0,-1,-1,0.24,,,,,,,,,,
515,0,0.0,0.37,,,,,,,,,,,,,,,,,,
517,0,0.0,0.36,,,,,,,,,,,,,,,,,,
519,0,0.0,0.37,,,,,,,,,,,,,,,,,,
521,0,0.0,0.37,,,,,,,,,,,,,,,,,,
523,0,0.0,0.37,,0.02,0.03,1.0,0,-1,-0,0.04,0,1980,0,0.0,0.0,0.0,0.0,0,0,0.0
525,0,0.0,0.37,,,,,,,,,,,,,,,,,,
527,0,0.0,0.37,,,,,,,,,,,,,,,,,,
529,0,0.0,0.37,,,,,,,,,,,,,,,,,,
531,0,0.0,0.38,,,,,,,,,,,,,,,,,,
533,0,0.0,0.37,,-0.11,0.1,1.02,-0,0,-0,0.15,,,,,,,,,,
535,0,0.0,0.37,,,,,,,,,,,,,,,,,,
537,0,0.0,0.38,,,,,,,,,,,,,,,,,,
539,0,0.0,0.37,,,,,,,,,,,,,,,,,,
541,0,0.0,0.37,,,,,,,,,,,,,,,,,,
543,0,0.0,0.37,,-0.15,0.11,0.99,0,-1,-0,0.19,0,2040,0,0.0,0.0,0.0,0.0,0,0,0.0
545,0,0.0,0.37,,,,,,,,,,,,,,,,,,
547,0,0.0,0.38,,,,,,,,,,,,,,,,,,
549,0,0.0,0.37,,,,,,,,,,,,,,,,,,
551,0,0.0,0.38,,,,,,,,,,,,,,,,,,
553,0,0.0,0.38,,0.0,0.04,0.92,0,-1,-0,0.04,,,,,,,,,,
555,0,0.0,0.38,,,,,,,,,,,,,,,,,,
557,0,0.0,0.38,,,,,,,,,,,,,,,,,,
559,0,0.0,0.38,,,,,,,,,,,,,,,,,,
561,0,0.0,0.39,,,,,,,,,,,,,,,,,,
563,0,0.0,0.38,,-0.06,0.12,1.02,-0,0,-0,0.14,0,1980,0,0.0,0.0,0.0,0.0,0,0,0.0
565,0,0.0,0.38,,,,,,,,,,,,,,,,,,
567,0,0.0,0.38,,,,,,,,,,,,,,,,,,
569,0,0.0,0.38,,,,,,,,,,,,,,,,,,
571,0,0.0,0.38,,,,,,,,,,,,,,,,,,
573,0,0.0,0.38,,-0.21,0.1,1.01,0,-1,-0,0.23,,,,,,,,,,
575,0,0.0,0.38,,,,,,,,,,,,,,,,,,
577,0,0.0,0.38,,,,,,,,,,,,,,,,,,
579,0,0.0,0.38,,,,,,,,,,,,,,,,,,
581,0,0.0,0.38,,,,,,,,,,,,,,,,,,
583,0,0.0,0.38,,0.02,0.03,1.01,0,-1,-1,0.04,0,1980,0,0.0,0.0,0.0,0.0,0,0,0.0
585,0,0.0,0.38,,,,,,,,,,,,,,,,,,
587,0,0.0,0.38,,,,,,,,,,,,,,,,,,
589,0,0.0,0.38,,,,,,,,,,,,,,,,,,
591,0,0.0,0.4,,,,,,,,,,,,,,,,,,
593,0,0.0,0.38,,-0.13,0.1,1.0,-0,0,-0,0.16,,,,,,,,,,
595,0,0.0,0.38,,,,,,,,,,,,,,,,,,
597,0,0.0,0.39,,,,,,,,,,,,,,,,,,
599,0,0.0,0.39,,,,,,,,,,,,,,,,,,
601,0,0.0,0.39,,,,,,,,,,,,,,,,,,
603,0,0.0,0.39,,-0.14,0.1,1.04,0,-1,-0,0.17,0,2040,0,0.0,0.0,0.0,0.0,0,0,0.0
605,0,0.0,0.39,,,,,,,,,,,,,,,,,,
607,0,0.0,0.39,,,,,,,,,,,,,,,,,,
609,0,0.0,0.39,,,,,,,,,,,,,,,,,,
611,0,0.0,0.39,,,,,,,,,,,,,,,,,,
613,0,0.0,0.39,,0.0,0.03,0.92,0,-1,-0,0.03,,,,,,,,,,
615,0,0.0,0.39,,,,,,,,,,,,,,,,,,
617,0,0.0,0.39,,,,,,,,,,,,,,,,,,
619,0,0.0,0.39,,,,,,,,,,,,,,,,,,
621,0,0.0,0.4,,,,,,,,,,,,,,,,,,
623,0,0.0,0.39,,-0.07,0.12,1.01,-0,0,-0,0.14,0,1980,0,0.0,0.0,0.0,0.0,0,0,0.0
625,0,0.0,0.39,,,,,,,,,,,,,,,,,,
627,0,0.0,0.39,,,,,,,,,,,,,,,,,,
629,0,0.0,0.39,,,,,,,,,,,,,,,,,,
631,0,0.0,0.39,,,,,,,,,,,,,,,,,,
633,0,0.0,0.39,,-0.18,0.11,1.04,0,-1,-1,0.21,,,,,,,,,,
635,0,0.0,0.39,,,,,,,,,,,,,,,,,,
637,0,0.0,0.39,,,,,,,,,,,,,,,,,,
639,0,0.0,0.39,,,,,,,,,,,,,,,,,,
641,0,0.0,0.4,,,,,,,,,,,,,,,,,,
643,0,0.0,0.4,,0.04,0.04,1.04,-0,-1,-0,0.06,0,1980,0,0.0,0.0,0.0,0.0,0,0,0.0
645,0,0.0,0.4,,,,,,,,,,,,,,,,,,
647,0,0.0,0.4,,,,,,,,,,,,,,,,,,
649,0,0.0,0.41,,,,,,,,,,,,,,,,,,
651,0,0.0,0.4,,,,,,,,,,,,,,,,,,
653,0,0.0,0.39,,-0.13,0.1,1.0,-0,1,-1,0.16,,,,,,,,,,
655,0,0.0,0.4,,,,,,,,,,,,,,,,,,
657,0,0.0,0.4,,,,,,,,,,,,,,,,,,
659,0,0.0,0.39,,,,,,,,,,,,,,,,,,
661,0,0.0,0.4,,,,,,,,,,,,,,,,,,
663,0,0.0,0.4,,-0.13,0.1,1.06,0,-0,-1,0.16,0,2040,0,0.0,0.0,0.0,0.0,0,0,0.0
665,0,0.0,0.4,,,,,,,,,,,,,,,,,,
667,0,0.0,0.4,,,,,,,,,,,,,,,,,,
669,0,0.0,0.4,,,,,,,,,,,,,,,,,,
671,0,0.0,0.4,,,,,,,,,,,,,,,,,,
673,0,0.0,0.4,,0.0,0.03,0.95,-0,-1,-0,0.03,,,,,,,,,,
675,0,0.0,0.4,,,,,,,,,,,,,,,,,,
677,0,0.0,0.4,,,,,,,,,,,,,,,,,,
679,0,0.0,0.41,,,,,,,,,,,,,,,,,,
681,0,0.0,0.4,,,,,,,,,,,,,,,,,,
683,0,0.0,0.4,,-0.07,0.11,0.99,-0,0,-0,0.13,0,1980,0,0.0,0.0,0.0,0.0,0,0,0.0
685,0,0.0,0.4,,,,,,,,,,,,,,,,,,
687,0,0.0,0.4,,,,,,,,,,,,,,,,,,
689,0,0.0,0.41,,,,,,,,,,,,,,,,,,
691,0,0.0,0.4,,,,,,,,,,,,,,,,,,
693,0,0.0,0.4,,-0.14,0.11,1.05,0,-0,-1,0.18,,,,,,,,,,
695,0,0.0,0.4,,,,,,,,,,,,,,,,,,
697,0,0.0,0.41,,,,,,,,,,,,,,,,,,
699,0,0.0,0.4,,,,,,,,,,,,,,,,,,
701,0,0.0,0.4,,,,,,,,,,,,,,,,,,
703,0,0.0,0.41,,0.02,0.05,1.03,-0,-0,-0,0.06,0,1980,0,0.0,0.0,0.0,0.0,0,0,0.0
705,0,0.0,0.41,,,,,,,,,,,,,,,,,,
707,0,0.0,0.41,,,,,,,,,,,,,,,,,,
709,0,0.0,0.42,,,,,,,,,,,,,,,,,,
711,0,0.0,0.41,,,,,,,,,,,,,,,,,,
713,0,0.0,0.41,,-0.14,0.09,1.0,-0,1,-1,0.17,,,,,,,,,,
715,0,0.0,0.41,,,,,,,,,,,,,,,,,,
717,0,0.0,0.41,,,,,,,,,,,,,,,,,,
719,0,0.0,0.41,,,,,,,,,,,,,,,,,,
721,0,0.0,0.41,,,,,,,,,,,,,,,,,,
723,0,0.0,0.41,,-0.12,0.09,1.04,0,-0,-1,0.15,0,2040,0,0.0,0.0,0.0,0.0,0,0,0.0
725,0,0.0,0.41,,,,,,,,,,,,,,,,,,
727,0,0.0,0.41,,,,,,,,,,,,,,,,,,
729,0,0.0,0.41,,,,,,,,,,,,,,,,,,
731,0,0.0,0.41,,,,,,,,,,,,,,,,,,
733,0,0.0,0.41,,-0.01,0.04,0.97,-0,-0,-0,0.05,,,,,,,,,,
735,0,0.0,0.41,,,,,,,,,,,,,,,,,,
737,0,0.0,0.41,,,,,,,,,,,,,,,,,,
739,0,0.0,0.42,,,,,,,,,,,,,,,,,,
741,0,0.0,0.41,,,,,,,,,,,,,,,,,,
743,0,0.0,0.42,,-0.09,0.1,0.97,0,0,-0,0.13,0,1980,0,0.0,0.0,0.0,0.0,0,0,0.0
745,0,0.0,0.41,,,,,,,,,,,,,,,,,,
747,0,0.0,0.41,,,,,,,,,,,,,,,,,,
749,0,0.0,0.41,,,,,,,,,,,,,,,,,,
751,0,0.0,0.41,,,,,,,,,,,,,,,,,,
753,0,0.0,0.41,,-0.07,0.09,1.01,1,-0,-0,0.11,,,,,,,,,,
755,0,0.0,0.42,,,,,,,,,,,,,,,,,,
757,0,0.0,0.42,,,,,,,,,,,,,,,,,,
759,0,0.0,0.42,,,,,,,,,,,,,,,,,,
761,0,0.0,0.42,,,,,,,,,,,,,,,,,,
763,0,0.0,0.41,,0.02,0.08,1.0,-0,-0,-0,0.08,0,1980,0,0.0,0.0,0.0,0.0,0,0,0.0
765,0,0.0,0.42,,,,,,,,,,,,,,,,,,
767,0,0.0,0.43,,,,,,,,,,,,,,,,,,
769,0,0.0,0.42,,,,,,,,,,,,,,,,,,
771,0,0.0,0.42,,,,,,,,,,,,,,,,,,
773,0,0.0,0.42,,-0.15,0.1,0.97,0,1,-1,0.18,,,,,,,,,,
775,0,0.0,0.42,,,,,,,,,,,,,,,,,,
777,0,0.0,0.42,,,,,,,,,,,,,,,,,,
779,0,0.0,0.42,,,,,,,,,,,,,,,,,,
781,0,0.0,0.42,,,,,,,,,,,,,,,,,,
783,0,0.0,0.42,,-0.1,0.08,1.04,0,-0,-1,0.13,0,2040,0,0.0,0.0,0.0,0.0,0,0,0.0
785,0,0.0,0.42,,,,,,,,,,,,,,,,,,
787,0,0.0,0.42,,,,,,,,,,,,,,,,,,
789,0,0.0,0.42,,,,,,,,,,,,,,,,,,
791,0,0.0,0.42,,,,,,,,,,,,,,,,,,
793,0,0.0,0.42,,-0.04,0.05,0.99,-0,-0,-0,0.07,,,,,,,,,,
795,0,0.0,0.42,,,,,,,,,,,,,,,,,,
797,0,0.0,0.43,,,,,,,,,,,,,,,,,,
799,0,0.0,0.43,,,,,,,,,,,,,,,,,,
801,0,0.0,0.43,,,,,,,,,,,,,,,,,,
803,0,0.0,0.43,,-0.12,0.1,0.95,0,-0,-1,0.16,0,1980,0,0.0,0.0,0.0,0.0,0,0,0.0
805,0,0.0,0.43,,,,,,,,,,,,,,,,,,
807,0,0.0,0.43,,,,,,,,,,,,,,,,,,
809,0,0.0,0.43,,,,,,,,,,,,,,,,,,
811,0,0.0,0.43,,,,,,,,,,,,,,,,,,
813,0,0.0,0.43,,-0.02,0.07,1.01,1,-0,-0,0.08,,,,,,,,,,
815,0,0.0,0.43,,,,,,,,,,,,,,,,,,
817,0,0.0,0.43,,,,,,,,,,,,,,,,,,
819,0,0.0,0.43,,,,,,,,,,,,,,,,,,
821,0,0.0,0.43,,,,,,,,,,,,,,,,,,
823,0,0.0,0.43,,-0.0,0.07,1.01,-0,0,-0,0.07,0,1980,0,0.0,0.0,0.0,0.0,0,0,0.0
825,0,0.0,0.44,,,,,,,,,,,,,,,,,,
827,0,0.0,0.43,,,,,,,,,,,,,,,,,,
829,0,0.0,0.43,,,,,,,,,,,,,,,,,,
831,0,0.0,0.43,,,,,,,,,,,,,,,,,,
833,0,0.0,0.43,,-0.14,0.11,0.94,0,0,-1,0.18,,,,,,,,,,
835,0,0.0,0.43,,,,,,,,,,,,,,,,,,
837,0,0.0,0.43,,,,,,,,,,,,,,,,,,
839,0,0.0,0.43,,,,,,,,,,,,,,,,,,
841,0,0.0,0.43,,,,,,,,,,,,,,,,,,
843,0,0.0,0.43,,-0.07,0.07,1.0,0,-0,-0,0.09,0,2040,0,0.0,0.0,0.0,0.0,0,0,0.0
845,0,0.0,0.44,,,,,,,,,,,,,,,,,,
847,0,0.0,0.43,,,,,,,,,,,,,,,,,,
849,0,0.0,0.44,,,,,,,,,,,,,,,,,,
851,0,0.0,0.44,,,,,,,,,,,,,,,,,,
853,0,0.0,0.43,,-0.05,0.07,1.01,-0,-0,-0,0.09,,,,,,,,,,
855,0,0.0,0.45,,,,,,,,,,,,,,,,,,
1029,0,0.0,0.47,,,,,,,,,,,,,,,,,,
1031,0,0.0,0.47,,,,,,,,,,,,,,,,,,
1033,0,0.0,0.47,,-0.07,0.13,1.05,-0,0,-0,0.15,,,,,,,,,,
1035,0,0.0,0.47,,,,,,,,,,,,,,,,,,
1037,0,0.0,0.47,,,,,,,,,,,,,,,,,,
1039,0,0.0,0.47,,,,,,,,,,,,,,,,,,
1041,0,0.0,0.47,,,,,,,,,,,,,,,,,,
1043,0,0.0,0.47,13.43,-0.23,0.1,1.0,0,-1,-1,0.25,0,1980,0,0.0,0.0,0.0,0.0,0,0,0.0
1045,0,0.0,0.47,,,,,,,,,,,,,,,,,,
1047,0,0.0,0.47,,,,,,,,,,,,,,,,,,
1049,0,0.0,0.47,,,,,,,,,,,,,,,,,,
1051,0,0.0,0.47,,,,,,,,,,,,,,,,,,
1053,0,0.0,0.47,,0.03,0.03,1.0,0,-1,-1,0.04,,,,,,,,,,
1055,0,0.0,0.48,,,,,,,,,,,,,,,,,,
1057,0,0.0,0.48,,,,,,,,,,,,,,,,,,
1059,0,0.0,0.48,,,,,,,,,,,,,,,,,,
1061,0,0.0,0.49,,,,,,,,,,,,,,,,,,
1063,0,0.0,0.48,,-0.14,0.1,1.0,-0,0,-0,0.17,0,2040,0,0.0,0.0,0.0,0.0,0,0,0.0
1065,0,0.0,0.48,,,,,,,,,,,,,,,,,,
1067,0,0.0,0.48,,,,,,,,,,,,,,,,,,
1069,0,0.0,0.48,,,,,,,,,,,,,,,,,,
1071,0,0.0,0.48,,,,,,,,,,,,,,,,,,
1073,0,0.0,0.48,,-0.17,0.11,1.02,0,-1,-0,0.2,,,,,,,,,,
1075,0,0.0,0.48,,,,,,,,,,,,,,,,,,
1077,0,0.0,0.48,,,,,,,,,,,,,,,,,,
1079,0,0.0,0.48,,,,,,,,,,,,,,,,,,
1081,0,0.0,0.48,,,,,,,,,,,,,,,,,,
1083,0,0.0,0.48,,-0.0,0.03,0.93,0,-1,-0,0.03,0,2040,0,0.0,0.0,0.0,0.0,0,0,0.0
1085,0,0.0,0.48,,,,,,,,,,,,,,,,,,
1087,0,0.0,0.48,,,,,,,,,,,,,,,,,,
1089,0,0.0,0.48,,,,,,,,,,,,,,,,,,
1091,0,0.0,0.49,,,,,,,,,,,,,,,,,,
1093,0,0.0,0.48,,-0.07,0.14,1.02,-0,0,-0,0.15,,,,,,,,,,
1095,0,0.0,0.48,,,,,,,,,,,,,,,,,,
1097,0,0.0,0.48,,,,,,,,,,,,,,,,,,
1099,0,0.0,0.48,,,,,,,,,,,,,,,,,,
1101,0,0.0,0.48,,,,,,,,,,,,,,,,,,
1103,0,0.0,0.48,,-0.21,0.12,1.04,0,-1,-0,0.24,0,1980,0,0.0,0.0,0.0,0.0,0,0,0.0
1105,0,0.0,0.49,,,,,,,,,,,,,,,,,,
1107,0,0.0,0.49,,,,,,,,,,,,,,,,,,
1109,0,0.0,0.48,,,,,,,,,,,,,,,,,,
1111,0,0.0,0.49,,,,,,,,,,,,,,,,,,
1113,0,0.0,0.49,,0.01,0.03,1.06,0,-1,-1,0.03,,,,,,,,,,
1115,0,0.0,0.48,,,,,,,,,,,,,,,,,,
1117,0,0.0,0.49,,,,,,,,,,,,,,,,,,
1119,0,0.0,0.5,,,,,,,,,,,,,,,,,,
1121,0,0.0,0.49,,,,,,,,,,,,,,,,,,
1123,0,0.0,0.49,,-0.15,0.1,1.05,-0,1,-0,0.18,0,2040,0,0.0,0.0,0.0,0.0,0,0,0.0
1125,0,0.0,0.49,,,,,,,,,,,,,,,,,,
1127,0,0.0,0.49,,,,,,,,,,,,,,,,,,
1129,0,0.0,0.49,,,,,,,,,,,,,,,,,,
1131,0,0.0,0.49,,,,,,,,,,,,,,,,,,
1133,0,0.0,0.49,,-0.15,0.1,1.11,0,-0,-0,0.18,,,,,,,,,,
1135,0,0.0,0.49,,,,,,,,,,,,,,,,,,
1137,0,0.0,0.49,,,,,,,,,,,,,,,,,,
1139,0,0.0,0.49,,,,,,,,,,,,,,,,,,
1141,0,0.0,0.49,,,,,,,,,,,,,,,,,,
1143,0,0.0,0.49,,-0.0,0.04,0.99,0,-1,-0,0.04,0,2040,0,0.0,0.0,0.0,0.0,0,0,0.0
1145,0,0.0,0.49,,,,,,,,,,,,,,,,,,
1147,0,0.0,0.49,,,,,,,,,,,,,,,,,,
1149,0,0.0,0.5,,,,,,,,,,,,,,,,,,
1151,0,0.0,0.49,,,,,,,,,,,,,,,,,,
1153,0,0.0,0.49,,-0.09,0.11,1.03,0,0,-0,0.14,,,,,,,,,,
1155,0,0.0,0.49,,,,,,,,,,,,,,,,,,
1157,0,0.0,0.49,,,,,,,,,,,,,,,,,,
1159,0,0.0,0.49,,,,,,,,,,,,,,,,,,
1161,0,0.0,0.49,,,,,,,,,,,,,,,,,,
1163,0,0.0,0.49,,-0.11,0.11,1.07,0,-1,-1,0.15,0,1980,0,0.0,0.0,0.0,0.0,0,0,0.0
1165,0,0.0,0.5,,,,,,,,,,,,,,,,,,
1167,0,0.0,0.5,,,,,,,,,,,,,,,,,,
1169,0,0.0,0.5,,,,,,,,,,,,,,,,,,
1171,0,0.0,0.5,,,,,,,,,,,,,,,,,,
1173,0,0.0,0.5,,0.02,0.07,1.04,-0,-0,-0,0.07,,,,,,,,,,
1175,0,0.0,0.5,,,,,,,,,,,,,,,,,,
1177,0,0.0,0.5,,,,,,,,,,,,,,,,,,
1179,0,0.0,0.51,,,,,,,,,,,,,,,,,,
1181,0,0.0,0.5,,,,,,,,,,,,,,,,,,
1183,0,0.0,0.5,,-0.14,0.1,0.99,-0,1,-1,0.17,0,2040,0,0.0,0.0,0.0,0.0,0,0,0.0
1185,0,0.0,0.5,,,,,,,,,,,,,,,,,,
1187,0,0.0,0.5,,,,,,,,,,,,,,,,,,
1189,0,0.0,0.5,,,,,,,,,,,,,,,,,,
1191,0,0.0,0.5,,,,,,,,,,,,,,,,,,
1193,0,0.0,0.5,,-0.11,0.08,1.05,0,-0,-0,0.14,,,,,,,,,,
1195,0,0.0,0.5,,,,,,,,,,,,,,,,,,
1197,0,0.0,0.5,,,,,,,,,,,,,,,,,,
1199,0,0.0,0.5,,,,,,,,,,,,,,,,,,
1201,0,0.0,0.5,,,,,,,,,,,,,,,,,,
1203,0,0.0,0.51,,-0.02,0.06,0.98,-0,-0,-0,0.06,0,2040,0,0.0,0.0,0.0,0.0,0,0,0.0
1205,0,0.0,0.51,,,,,,,,,,,,,,,,,,
1207,0,0.0,0.51,,,,,,,,,,,,,,,,,,
1209,0,0.0,0.52,,,,,,,,,,,,,,,,,,
1211,0,0.0,0.5,,,,,,,,,,,,,,,,,,
1213,0,0.0,0.51,,-0.09,0.1,0.96,0,-0,-0,0.14,,,,,,,,,,
1215,0,0.0,0.5,,,,,,,,,,,,,,,,,,
1217,0,0.0,0.51,,,,,,,,,,,,,,,,,,
1219,0,0.0,0.51,,,,,,,,,,,,,,,,,,
1221,0,0.0,0.5,,,,,,,,,,,,,,,,,,
1223,0,0.0,0.5,,-0.04,0.08,1.02,1,-0,-0,0.09,0,1980,0,0.0,0.0,0.0,0.0,0,0,0.0
1225,0,0.0,0.5,,,,,,,,,,,,,,,,,,
1227,0,0.0,0.51,,,,,,,,,,,,,,,,,,
1229,0,0.0,0.51,,,,,,,,,,,,,,,,,,
1231,0,0.0,0.51,,,,,,,,,,,,,,,,,,
1233,0,0.0,0.51,,0.02,0.07,1.0,-0,-0,-0,0.07,,,,,,,,,,
1235,0,0.0,0.51,,,,,,,,,,,,,,,,,,
1237,0,0.0,0.52,,,,,,,,,,,,,,,,,,
1239,0,0.0,0.51,,,,,,,,,,,,,,,,,,
1241,0,0.0,0.51,,,,,,,,,,,,,,,,,,
1243,0,0.0,0.51,,-0.14,0.11,0.95,-0,1,-1,0.18,0,2040,0,0.0,0.0,0.0,0.0,0,0,0.0
1245,0,0.0,0.51,,,,,,,,,,,,,,,,,,
1247,0,0.0,0.51,,,,,,,,,,,,,,,,,,
1249,0,0.0,0.51,,,,,,,,,,,,,,,,,,
1251,0,0.0,0.51,,,,,,,,,,,,,,,,,,
1253,0,0.0,0.51,,-0.1,0.08,1.03,0,-0,-0,0.13,,,,,,,,,,
1255,0,0.0,0.51,,,,,,,,,,,,,,,,,,
1257,0,0.0,0.51,,,,,,,,,,,,,,,,,,
1259,0,0.0,0.51,,,,,,,,,,,,,,,,,,
1261,0,0.0,0.51,,,,,,,,,,,,,,,,,,
1263,0,0.0,0.51,,-0.05,0.05,1.01,-0,-0,-0,0.07,0,2040,0,0.0,0.0,0.0,0.0,0,0,0.0
1265,0,0.0,0.51,,,,,,,,,,,,,,,,,,
1267,0,0.0,0.53,,,,,,,,,,,,,,,,,,
1269,0,0.0,0.52,,,,,,,,,,,,,,,,,,
1271,0,0.0,0.52,,,,,,,,,,,,,,,,,,
1273,0,0.0,0.51,,-0.13,0.1,0.94,0,-0,-1,0.16,,,,,,,,,,
1275,0,0.01,0.52,,,,,,,,,,,,,,,,,,
1277,0,0.0,0.51,,,,,,,,,,,,,,,,,,
1279,0,0.0,0.52,,,,,,,,,,,,,,,,,,
1281,0,0.0,0.51,,,,,,,,,,,,,,,,,,
1283,0,0.0,0.52,,-0.01,0.07,1.0,1,-0,-0,0.07,0,1980,0,0.0,0.0,0.0,0.0,0,0,0.0
1285,0,0.0,0.52,,,,,,,,,,,,,,,,,,
1287,0,0.0,0.52,,,,,,,,,,,,,,,,,,
1289,0,0.0,0.52,,,,,,,,,,,,,,,,,,
1291,0,0.0,0.52,,,,,,,,,,,,,,,,,,
1293,0,0.0,0.52,,-0.02,0.07,1.01,-0,0,-0,0.08,,,,,,,,,,
1295,0,0.0,0.52,,,,,,,,,,,,,,,,,,
1297,0,0.0,0.52,,,,,,,,,,,,,,,,,,
1299,0,0.0,0.52,,,,,,,,,,,,,,,,,,
1301,0,0.0,0.52,,,,,,,,,,,,,,,,,,
1303,0,0.0,0.52,,-0.15,0.12,0.93,0,0,-1,0.19,0,2040,0,0.0,0.0,0.0,0.0,0,0,0.0
1305,0,0.0,0.52,,,,,,,,,,,,,,,,,,
1307,0,0.0,0.52,,,,,,,,,,,,,,,,,,
1309,0,0.0,0.52,,,,,,,,,,,,,,,,,,
1311,0,0.0,0.52,,,,,,,,,,,,,,,,,,
1313,0,0.0,0.52,,-0.05,0.06,0.95,0,-0,-0,0.08,,,,,,,,,,
1315,0,0.0,0.52,,,,,,,,,,,,,,,,,,
1317,0,0.0,0.52,,,,,,,,,,,,,,,,,,
1319,0,0.0,0.53,,,,,,,,,,,,,,,,,,
1321,0,0.0,0.53,,,,,,,,,,,,,,,,,,
1323,0,0.0,0.52,,-0.07,0.08,1.02,-0,-0,-0,0.1,0,2040,0,0.0,0.0,0.0,0.0,0,0,0.0
1325,0,0.0,0.53,,,,,,,,,,,,,,,,,,
1327,0,0.0,0.52,,,,,,,,,,,,,,,,,,
1329,0,0.0,0.53,,,,,,,,,,,,,,,,,,
1331,0,0.0,0.52,,,,,,,,,,,,,,,,,,
1333,0,0.0,0.52,,-0.17,0.1,0.93,0,-0,-1,0.2,,,,,,,,,,
1335,0,0.0,0.53,,,,,,,,,,,,,,,,,,
1337,0,0.0,0.53,,,,,,,,,,,,,,,,,,
1339,0,0.0,0.53,,,,,,,,,,,,,,,,,,
1341,0,0.0,0.53,,,,,,,,,,,,,,,,,,
1343,0,0.0,0.53,,0.03,0.06,0.99,1,-0,-0,0.07,0,1980,0,0.0,0.0,0.0,0.0,0,0,0.0
1345,0,0.0,0.53,,,,,,,,,,,,,,,,,,
1347,0,0.0,0.53,,,,,,,,,,,,,,,,,,
1349,0,0.0,0.53,,,,,,,,,,,,,,,,,,
1351,0,0.0,0.53,,,,,,,,,,,,,,,,,,
1353,0,0.0,0.53,,-0.06,0.09,0.98,-0,-0,-0,0.11,,,,,,,,,,
1355,0,0.0,0.54,,,,,,,,,,,,,,,,,,
1357,0,0.0,0.53,,,,,,,,,,,,,,,,,,
1359,0,0.0,0.53,,,,,,,,,,,,,,,,,,
1361,0,0.0,0.53,,,,,,,,,,,,,,,,,,
1363,0,0.0,0.53,,-0.16,0.12,0.94,0,-0,-1,0.2,0,2040,0,0.0,0.0,0.0,0.0,0,0,0.0
1365,0,0.0,0.53,,,,,,,,,,,,,,,,,,
1367,0,0.0,0.53,,,,,,,,,,,,,,,,,,
1369,0,0.0,0.53,,,,,,,,,,,,,,,,,,
1371,0,0.0,0.53,,,,,,,,,,,,,,,,,,
1373,0,0.0,0.53,,-0.02,0.04,0.93,0,-1,-0,0.04,,,,,,,,,,
1375,0,0.0,0.53,,,,,,,,,,,,,,,,,,
1377,0,0.0,0.53,,,,,,,,,,,,,,,,,,
1379,0,0.0,0.53,,,,,,,,,,,,,,,,,,
1381,0,0.0,0.53,,,,,,,,,,,,,,,,,,
1383,0,0.0,0.54,,-0.07,0.1,1.04,-0,-0,-0,0.13,0,2040,0,0.0,0.0,0.0,0.0,0,0,0.0
1385,0,0.0,0.54,,,,,,,,,,,,,,,,,,
1387,0,0.0,0.53,,,,,,,,,,,,,,,,,,
1389,0,0.0,0.54,,,,,,,,,,,,,,,,,,
1391,0,0.0,0.53,,,,,,,,,,,,,,,,,,
1393,0,0.0,0.54,,-0.2,0.11,0.95,0,-1,-0,0.22,,,,,,,,,,
1395,0,0.0,0.54,,,,,,,,,,,,,,,,,,
1397,0,0.0,0.53,,,,,,,,,,,,,,,,,,
1399,0,0.0,0.54,,,,,,,,,,,,,,,,,,
1401,0,0.0,0.54,,,,,,,,,,,,,,,,,,
1403,0,0.0,0.54,,0.03,0.04,0.97,0,-0,-0,0.05,0,1980,0,0.0,0.0,0.0,0.0,0,0,0.0
1405,0,0.0,0.54,,,,,,,,,,,,,,,,,,
1407,0,0.0,0.54,,,,,,,,,,,,,,,,,,
1409,0,0.0,0.53,,,,,,,,,,,,,,,,,,
1411,0,0.0,0.54,,,,,,,,,,,,,,,,,,
1413,0,0.0,0.55,,-0.08,0.1,0.99,-0,-0,-0,0.13,,,,,,,,,,
1415,0,0.0,0.54,,,,,,,,,,,,,,,,,,
1417,0,0.0,0.54,,,,,,,,,,,,,,,,,,
1419,0,0.0,0.54,,,,,,,,,,,,,,,,,,
1421,0,0.0,0.54,,,,,,,,,,,,,,,,,,
1423,0,0.0,0.54,,-0.16,0.12,0.95,0,-1,-0,0.2,0,2040,0,0.0,0.0,0.0,0.0,0,0,0.0
1425,0,0.0,0.54,,,,,,,,,,,,,,,,,,
1427,0,0.0,0.54,,,,,,,,,,,,,,,,,,
1429,0,0.0,0.54,,,,,,,,,,,,,,,,,,
1431,0,0.0,0.54,,,,,,,,,,,,,,,,,,
1433,0,0.0,0.54,,-0.02,0.04,0.93,0,-1,-0,0.04,,,,,,,,,,
1435,0,0.0,0.54,,,,,,,,,,,,,,,,,,
1437,0,0.0,0.54,,,,,,,,,,,,,,,,,,
1439,0,0.0,0.54,,,,,,,,,,,,,,,,,,
1441,0,0.0,0.54,,,,,,,,,,,,,,,,,,
1443,0,0.0,0.55,,-0.08,0.12,1.05,-0,-0,-0,0.14,0,1980,0,0.0,0.0,0.0,0.0,0,0,0.0
1445,0,0.0,0.55,,,,,,,,,,,,,,,,,,
1447,0,0.0,0.54,,,,,,,,,,,,,,,,,,
1449,0,0.0,0.54,,,,,,,,,,,,,,,,,,
1451,0,0.0,0.54,,,,,,,,,,,,,,,,,,
1453,0,0.0,0.54,,-0.21,0.09,0.97,0,-1,-1,0.23,,,,,,,,,,
1455,0,0.0,0.55,,,,,,,,,,,,,,,,,,
1457,0,0.0,0.55,,,,,,,,,,,,,,,,,,
1459,0,0.0,0.55,,,,,,,,,,,,,,,,,,
1461,0,0.0,0.55,,,,,,,,,,,,,,,,,,
1463,0,0.0,0.55,,0.01,0.03,1.0,0,-1,-1,0.04,0,1980,0,0.0,0.0,0.0,0.0,0,0,0.0
1465,0,0.0,0.55,,,,,,,,,,,,,,,,,,
1467,0,0.0,0.55,,,,,,,,,,,,,,,,,,
1469,0,0.0,0.55,,,,,,,,,,,,,,,,,,
1471,0,0.0,0.55,,,,,,,,,,,,,,,,,,
1473,0,0.0,0.56,,-0.09,0.09,1.01,-0,0,-0,0.13,,,,,,,,,,
1475,0,0.0,0.55,,,,,,,,,,,,,,,,,,
1477,0,0.0,0.55,,,,,,,,,,,,,,,,,,
1479,0,0.0,0.55,,,,,,,,,,,,,,,,,,
1481,0,0.0,0.55,,,,,,,,,,,,,,,,,,
1483,0,0.0,0.55,,-0.15,0.1,0.98,0,-1,-1,0.17,0,1980,0,0.0,0.0,0.0,0.0,0,0,0.0
1485,0,0.0,0.55,,,,,,,,,,,,,,,,,,
1487,0,0.0,0.55,,,,,,,,,,,,,,,,,,
1489,0,0.0,0.55,,,,,,,,,,,,,,,,,,
1491,0,0.0,0.55,,,,,,,,,,,,,,,,,,
1493,0,0.0,0.55,,-0.01,0.04,0.94,0,-1,-0,0.04,,,,,,,,,,
1495,0,0.0,0.55,,,,,,,,,,,,,,,,,,
1497,0,0.0,0.55,,,,,,,,,,,,,,,,,,
1499,0,0.0,0.55,,,,,,,,,,,,,,,,,,
1501,0,0.0,0.55,,,,,,,,,,,,,,,,,,
1503,0,0.0,0.56,,-0.08,0.13,1.06,-0,0,-1,0.15,0,1980,0,0.0,0.0,0.0,0.0,0,0,0.0
1505,0,0.0,0.55,,,,,,,,,,,,,,,,,,
1507,0,0.0,0.55,,,,,,,,,,,,,,,,,,
1509,0,0.0,0.55,,,,,,,,,,,,,,,,,,
1511,0,0.0,0.55,,,,,,,,,,,,,,,,,,
1513,0,0.0,0.55,,-0.24,0.09,0.98,0,-0,-1,0.26,,,,,,,,,,
1515,0,0.0,0.55,,,,,,,,,,,,,,,,,,
1517,0,0.0,0.55,,,,,,,,,,,,,,,,,,
1519,0,0.0,0.56,,,,,,,,,,,,,,,,,,
1521,0,0.0,0.56,,,,,,,,,,,,,,,,,,
1523,0,0.0,0.56,,0.0,0.04,1.05,0,-0,-0,0.04,0,1980,0,0.0,0.0,0.0,0.0,0,0,0.0
1525,0,0.0,0.56,,,,,,,,,,,,,,,,,,
1527,0,0.0,0.56,,,,,,,,,,,,,,,,,,
1529,0,0.0,0.56,,,,,,,,,,,,,,,,,,
1531,0,0.0,0.56,,,,,,,,,,,,,,,,,,
1533,0,0.0,0.57,,-0.14,0.1,1.02,-0,0,-0,0.17,,,,,,,,,,
1535,0,0.0,0.56,,,,,,,,,,,,,,,,,,
1537,0,0.0,0.56,,,,,,,,,,,,,,,,,,
1539,0,0.0,0.56,,,,,,,,,,,,,,,,,,
1541,0,0.0,0.56,,,,,,,,,,,,,,,,,,
1543,0,0.0,0.56,,-0.18,0.09,0.98,0,-1,-0,0.2,0,1980,0,0.0,0.0,0.0,0.0,0,0,0.0
1545,0,0.0,0.56,,,,,,,,,,,,,,,,,,
1547,0,0.0,0.56,,,,,,,,,,,,,,,,,,
1549,0,0.0,0.56,,,,,,,,,,,,,,,,,,
1551,0,0.0,0.56,,,,,,,,,,,,,,,,,,
1553,0,0.0,0.56,,-0.03,0.04,0.92,0,-1,-0,0.05,,,,,,,,,,
1555,0,0.0,0.56,,,,,,,,,,,,,,,,,,
1557,0,0.0,0.56,,,,,,,,,,,,,,,,,,
1559,0,0.0,0.56,,,,,,,,,,,,,,,,,,
1561,0,0.0,0.56,,,,,,,,,,,,,,,,,,
1563,0,0.0,0.57,,-0.1,0.14,1.07,-0,0,-0,0.17,0,1980,0,0.0,0.0,0.0,0.0,0,0,0.0
1565,0,0.0,0.56,,,,,,,,,,,,,,,,,,
1567,0,0.0,0.56,,,,,,,,,,,,,,,,,,
1569,0,0.0,0.56,,,,,,,,,,,,,,,,,,
1571,0,0.0,0.56,,,,,,,,,,,,,,,,,,
1573,0,0.0,0.57,,-0.26,0.1,1.01,0,-0,-1,0.28,,,,,,,,,,
1575,0,0.0,0.57,,,,,,,,,,,,,,,,,,
1577,0,0.0,0.57,,,,,,,,,,,,,,,,,,
1579,0,0.0,0.57,,,,,,,,,,,,,,,,,,
1581,0,0.0,0.57,,,,,,,,,,,,,,,,,,
1583,0,0.0,0.57,,-0.02,0.05,1.04,0,-0,-1,0.06,0,1980,0,0.0,0.0,0.0,0.0,0,0,0.0
1585,0,0.0,0.57,,,,,,,,,,,,,,,,,,
1587,0,0.0,0.57,,,,,,,,,,,,,,,,,,
1589,0,0.0,0.57,,,,,,,,,,,,,,,,,,
1591,0,0.0,0.57,,,,,,,,,,,,,,,,,,
1593,0,0.0,0.57,,-0.16,0.1,1.03,-0,1,-1,0.19,,,,,,,,,,
1595,0,0.0,0.57,,,,,,,,,,,,,,,,,,
1597,0,0.0,0.57,,,,,,,,,,,,,,,,,,
1599,0,0.0,0.57,,,,,,,,,,,,,,,,,,
1601,0,0.0,0.57,,,,,,,,,,,,,,,,,,
1603,0,0.0,0.57,,-0.2,0.12,1.03,0,-0,-1,0.23,0,2040,0,0.0,0.0,0.0,0.0,0,0,0.0
1605,0,0.0,0.57,,,,,,,,,,,,,,,,,,
1607,0,0.0,0.57,,,,,,,,,,,,,,,,,,
1609,0,0.0,0.57,,,,,,,,,,,,,,,,,,
1611,0,0.0,0.57,,,,,,,,,,,,,,,,,,
1613,0,0.0,0.57,,-0.07,0.03,0.92,0,0,-1,0.07,,,,,,,,,,
1615,0,0.0,0.57,,,,,,,,,,,,,,,,,,
1617,0,0.0,0.57,,,,,,,,,,,,,,,,,,
1619,0,0.0,0.57,,,,,,,,,,,,,,,,,,
1621,0,0.0,0.58,,,,,,,,,,,,,,,,,,
1623,0,0.0,0.57,,-0.14,0.13,1.04,-0,1,-1,0.19,0,1980,0,0.0,0.0,0.0,0.0,0,0,0.0
1625,0,0.0,0.57,,,,,,,,,,,,,,,,,,
1627,0,0.0,0.57,,,,,,,,,,,,,,,,,,
1629,0,0.0,0.57,,,,,,,,,,,,,,,,,,
1631,0,0.0,0.57,,,,,,,,,,,,,,,,,,
1633,0,0.0,0.57,,-0.29,0.11,1.0,0,0,-1,0.31,,,,,,,,,,
1635,0,0.0,0.57,,,,,,,,,,,,,,,,,,
1637,0,0.0,0.57,,,,,,,,,,,,,,,,,,
1639,0,0.0,0.57,,,,,,,,,,,,,,,,,,
1641,0,0.0,0.58,,,,,,,,,,,,,,,,,,
1643,0,0.0,0.58,,-0.08,0.05,1.01,0,0,-1,0.09,0,1980,0,0.0,0.0,0.0,0.0,0,0,0.0
1645,0,0.0,0.58,,,,,,,,,,,,,,,,,,
1647,0,0.0,0.58,,,,,,,,,,,,,,,,,,
1649,0,0.0,0.58,,,,,,,,,,,,,,,,,,
1651,0,0.0,0.59,,,,,,,,,,,,,,,,,,
1653,0,0.0,0.58,,-0.23,0.09,1.03,-0,1,-1,0.25,,,,,,,,,,
1655,0,0.0,0.58,,,,,,,,,,,,,,,,,,
1657,0,0.0,0.58,,,,,,,,,,,,,,,,,,
1659,0,0.0,0.58,,,,,,,,,,,,,,,,,,
1661,0,0.0,0.58,,,,,,,,,,,,,,,,,,
1663,0,0.0,0.58,,-0.25,0.08,1.03,0,-0,-1,0.26,0,2040,0,0.0,0.0,0.0,0.0,0,0,0.0
1665,0,0.0,0.58,,,,,,,,,,,,,,,,,,
1667,0,0.0,0.58,,,,,,,,,,,,,,,,,,
1669,0,0.0,0.58,,,,,,,,,,,,,,,,,,
1671,0,0.0,0.58,,,,,,,,,,,,,,,,,,
1673,0,0.0,0.58,,-0.12,0.04,0.94,0,0,-1,0.12,,,,,,,,,,
1675,0,0.0,0.58,,,,,,,,,,,,,,,,,,
1677,0,0.0,0.58,,,,,,,,,,,,,,,,,,
1679,0,0.0,0.58,,,,,,,,,,,,,,,,,,
1681,0,0.0,0.59,,,,,,,,,,,,,,,,,,
1683,0,0.0,0.58,,-0.2,0.12,1.05,-0,2,-1,0.23,0,1980,0,0.0,0.0,0.0,0.0,0,0,0.0
1685,0,0.0,0.58,,,,,,,,,,,,,,,,,,
1687,0,0.0,0.58,,,,,,,,,,,,,,,,,,
1689,0,0.0,0.58,,,,,,,,,,,,,,,,,,
1691,0,0.0,0.57,,,,,,,,,,,,,,,,,,
1693,0,0.0,0.57,,-0.33,0.11,1.06,0,1,-1,0.35,,,,,,,,,,
1695,0,0.0,0.57,,,,,,,,,,,,,,,,,,
1697,0,0.0,0.57,,,,,,,,,,,,,,,,,,
1699,0,0.0,0.57,,,,,,,,,,,,,,,,,,
1701,0,0.0,0.57,,,,,,,,,,,,,,,,,,
1703,0,0.0,0.57,,-0.14,0.05,1.02,0,1,-1,0.14,0,1980,0,0.0,0.0,0.0,0.0,0,0,0.0
1705,0,0.0,0.57,,,,,,,,,,,,,,,,,,
1707,0,0.0,0.57,,,,,,,,,,,,,,,,,,
1709,0,0.0,0.57,,,,,,,,,,,,,,,,,,
1711,0,0.0,0.58,,,,,,,,,,,,,,,,,,
1713,0,0.0,0.57,,-0.31,0.09,1.03,-0,2,-1,0.32,,,,,,,,,,
1715,0,0.0,0.57,,,,,,,,,,,,,,,,,,
1717,0,0.0,0.57,,,,,,,,,,,,,,,,,,
1719,0,0.0,0.57,,,,,,,,,,,,,,,,,,
1721,0,0.0,0.57,,,,,,,,,,,,,,,,,,
1723,0,0.0,0.57,,-0.34,0.13,1.06,0,1,-2,0.37,0,1980,0,0.0,0.0,0.0,0.0,0,0,0.0
1725,0,0.0,0.57,,,,,,,,,,,,,,,,,,
1727,0,0.0,0.57,,,,,,,,,,,,,,,,,,
1729,0,0.0,0.57,,,,,,,,,,,,,,,,,,
1731,0,0.0,0.57,,,,,,,,,,,,,,,,,,
1733,0,0.0,0.57,,-0.19,0.05,0.92,0,1,-2,0.2,,,,,,,,,,
1735,0,0.0,0.57,,,,,,,,,,,,,,,,,,
1737,0,0.0,0.57,,,,,,,,,,,,,,,,,,
1739,0,0.0,0.57,,,,,,,,,,,,,,,,,,
1741,0,0.0,0.58,,,,,,,,,,,,,,,,,,
1743,0,0.0,0.57,,-0.28,0.14,1.01,-0,2,-2,0.31,0,1980,0,0.0,0.0,0.0,0.0,0,0,0.0
1745,0,0.0,0.57,,,,,,,,,,,,,,,,,,
1747,0,0.0,0.57,,,,,,,,,,,,,,,,,,
1749,0,0.0,0.56,,,,,,,,,,,,,,,,,,
1751,0,0.0,0.56,,,,,,,,,,,,,,,,,,
1753,0,0.0,0.56,,-0.38,0.15,1.04,0,1,-2,0.41,,,,,,,,,,
1755,0,0.0,0.57,,,,,,,,,,,,,,,,,,
1757,0,0.0,0.56,,,,,,,,,,,,,,,,,,
1759,0,0.0,0.56,,,,,,,,,,,,,,,,,,
1761,0,0.0,0.57,,,,,,,,,,,,,,,,,,
1763,0,0.0,0.56,,-0.14,0.06,0.95,0,1,-2,0.15,0,1980,0,0.0,0.0,0.0,0.0,0,0,0.0
1765,0,0.0,0.57,,,,,,,,,,,,,,,,,,
1767,0,0.0,0.57,,,,,,,,,,,,,,,,,,
1769,0,0.0,0.57,,,,,,,,,,,,,,,,,,
1771,0,0.0,0.57,,,,,,,,,,,,,,,,,,
1773,0,0.0,0.56,,-0.34,0.11,1.01,-0,3,-2,0.36,,,,,,,,,,
1775,0,0.0,0.56,,,,,,,,,,,,,,,,,,
1777,0,0.0,0.56,,,,,,,,,,,,,,,,,,
1779,0,0.0,0.56,,,,,,,,,,,,,,,,,,
1781,0,0.0,0.57,,,,,,,,,,,,,,,,,,
1783,0,0.0,0.57,,-0.4,0.13,1.05,0,1,-2,0.42,0,1980,0,0.0,0.0,0.0,0.0,0,0,0.0
1785,0,0.0,0.57,,,,,,,,,,,,,,,,,,
1787,0,0.0,0.57,,,,,,,,,,,,,,,,,,
1789,0,0.0,0.57,,,,,,,,,,,,,,,,,,
1791,0,0.0,0.57,,,,,,,,,,,,,,,,,,
1793,0,0.0,0.57,,-0.17,0.03,0.86,0,1,-2,0.17,,,,,,,,,,
1795,0,0.0,0.57,,,,,,,,,,,,,,,,,,
1797,0,0.0,0.58,,,,,,,,,,,,,,,,,,
1799,0,0.0,0.58,,,,,,,,,,,,,,,,,,
1801,0,0.0,0.59,,,,,,,,,,,,,,,,,,
1803,0,0.0,0.58,,-0.29,0.12,1.01,-0,2,-2,0.31,0,1920,0,0.0,0.0,0.0,0.0,0,0,0.0
1805,0,0.0,0.57,,,,,,,,,,,,,,,,,,
1807,0,0.0,0.58,,,,,,,,,,,,,,,,,,
1809,0,0.0,0.58,,,,,,,,,,,,,,,,,,
1811,0,0.0,0.58,,,,,,,,,,,,,,,,,,
1813,0,0.0,0.58,,-0.43,0.14,1.05,0,1,-2,0.45,,,,,,,,,,
1815,0,0.0,0.58,,,,,,,,,,,,,,,,,,
1817,0,0.0,0.58,,,,,,,,,,,,,,,,,,
1819,0,0.0,0.58,,,,,,,,,,,,,,,,,,
1821,0,0.0,0.58,,,,,,,,,,,,,,,,,,
1823,0,0.0,0.58,,-0.15,0.03,0.94,0,1,-2,0.15,0,1920,0,0.0,0.0,0.0,0.0,0,0,0.0
1825,0,0.0,0.58,,,,,,,,,,,,,,,,,,
1827,0,0.0,0.58,,,,,,,,,,,,,,,,,,
1829,0,0.0,0.58,,,,,,,,,,,,,,,,,,
1831,0,0.0,0.6,,,,,,,,,,,,,,,,,,
1833,0,0.0,0.58,,-0.38,0.08,0.99,-0,2,-2,0.39,,,,,,,,,,
1835,0,0.0,0.58,,,,,,,,,,,,,,,,,,
1837,0,0.0,0.58,,,,,,,,,,,,,,,,,,
1839,0,0.0,0.58,,,,,,,,,,,,,,,,,,
1841,0,0.0,0.58,,,,,,,,,,,,,,,,,,
1843,0,0.0,0.58,,-0.41,0.13,1.07,0,0,-2,0.43,0,1980,0,0.0,0.0,0.0,0.0,0,0,0.0
1845,0,0.0,0.58,,,,,,,,,,,,,,,,,,
1847,0,0.0,0.58,,,,,,,,,,,,,,,,,,
1849,0,0.0,0.58,,,,,,,,,,,,,,,,,,
1851,0,0.0,0.59,,,,,,,,,,,,,,,,,,
1853,0,0.0,0.58,,-0.16,-0.0,0.87,0,0,-2,0.16,,,,,,,,,,
1855,0,0.0,0.59,,,,,,,,,,,,,,,,,,
1857,0,0.0,0.59,,,,,,,,,,,,,,,,,,
1859,0,0.0,0.59,,,,,,,,,,,,,,,,,,
1861,0,0.0,0.6,,,,,,,,,,,,,,,,,,
1863,0,0.0,0.59,,-0.28,0.08,0.99,-0,1,-2,0.29,0,1920,0,0.0,0.0,0.0,0.0,0,0,0.0
1865,0,0.0,0.59,,,,,,,,,,,,,,,,,,
1867,0,0.0,0.59,,,,,,,,,,,,,,,,,,
1869,0,0.0,0.59,,,,,,,,,,,,,,,,,,
1871,0,0.0,0.58,,,,,,,,,,,,,,,,,,
1873,0,0.0,0.58,,-0.4,0.11,1.03,0,-0,-2,0.42,,,,,,,,,,
1875,0,0.0,0.58,,,,,,,,,,,,,,,,,,
1877,0,0.0,0.58,,,,,,,,,,,,,,,,,,
1879,0,0.0,0.58,,,,,,,,,,,,,,,,,,
1881,0,0.0,0.58,,,,,,,,,,,,,,,,,,
1883,0,0.0,0.58,,-0.13,0.0,0.98,0,0,-1,0.13,40,1920,0,0.0,0.0,0.0,0.0,0,0,0.0
1885,0,0.0,0.58,,,,,,,,,,,,,,,,,,
1887,0,0.0,0.58,,,,,,,,,,,,,,,,,,
1889,0,0.0,0.58,,,,,,,,,,,,,,,,,,
1891,0,0.0,0.59,,,,,,,,,,,,,,,,,,
1893,0,0.0,0.58,,-0.37,0.05,1.02,-0,2,-2,0.38,,,,,,,,,,
1895,0,0.0,0.58,,,,,,,,,,,,,,,,,,
1897,0,0.0,0.57,,,,,,,,,,,,,,,,,,
1899,0,0.0,0.57,,,,,,,,,,,,,,,,,,
1901,0,0.0,0.57,,,,,,,,,,,,,,,,,,
1903,0,0.0,0.57,,-0.44,0.05,1.03,1,0,-1,0.44,40,1980,0,0.0,0.0,0.0,0.0,0,0,0.0
1905,0,0.0,0.57,,,,,,,,,,,,,,,,,,
1907,0,0.0,0.57,,,,,,,,,,,,,,,,,,
1909,0,0.0,0.57,,,,,,,,,,,,,,,,,,
1911,0,0.0,0.57,,,,,,,,,,,,,,,,,,
1913,0,0.0,0.57,,-0.2,0.02,0.88,1,1,-1,0.2,,,,,,,,,,
1915,0,0.0,0.57,,,,,,,,,,,,,,,,,,
1917,0,0.0,0.57,,,,,,,,,,,,,,,,,,
1919,0,0.0,0.57,,,,,,,,,,,,,,,,,,
1921,0,0.0,0.59,,,,,,,,,,,,,,,,,,
1923,0,0.0,0.58,,-0.32,0.08,0.93,0,1,-1,0.33,40,1920,0,0.0,0.0,0.0,0.0,0,0,0.0
1925,0,0.0,0.58,,,,,,,,,,,,,,,,,,
1927,0,0.0,0.58,,,,,,,,,,,,,,,,,,
1929,0,0.0,0.58,,,,,,,,,,,,,,,,,,
1931,0,0.0,0.58,,,,,,,,,,,,,,,,,,
1933,0,0.0,0.58,,-0.47,0.13,0.99,1,-0,-2,0.49,,,,,,,,,,
1935,0,0.0,0.58,,,,,,,,,,,,,,,,,,
1937,0,0.0,0.58,,,,,,,,,,,,,,,,,,
1939,0,0.0,0.59,,,,,,,,,,,,,,,,,,
1941,0,0.0,0.58,,,,,,,,,,,,,,,,,,
1943,0,0.0,0.59,,-0.1,0.02,0.84,1,-1,-1,0.1,40,1920,0,0.0,0.0,0.0,0.0,0,0,0.0
1945,0,0.0,0.59,,,,,,,,,,,,,,,,,,
1947,0,0.0,0.59,,,,,,,,,,,,,,,,,,
1949,0,0.0,0.59,,,,,,,,,,,,,,,,,,
1951,0,0.0,0.6,,,,,,,,,,,,,,,,,,
1953,0,0.0,0.59,,-0.3,0.05,0.89,0,-0,-1,0.3,,,,,,,,,,
1955,0,0.0,0.59,,,,,,,,,,,,,,,,,,
1957,0,0.0,0.59,,,,,,,,,,,,,,,,,,
1959,0,0.0,0.59,,,,,,,,,,,,,,,,,,
1961,0,0.0,0.59,,,,,,,,,,,,,,,,,,
1963,0,0.0,0.59,,-0.36,0.12,0.99,1,-2,-1,0.38,40,1980,0,0.0,0.0,0.0,0.0,0,0,0.0
1965,0,0.0,0.59,,,,,,,,,,,,,,,,,,
1967,0,0.0,0.59,,,,,,,,,,,,,,,,,,
1969,0,0.0,0.59,,,,,,,,,,,,,,,,,,
1971,0,0.0,0.59,,,,,,,,,,,,,,,,,,
1973,0,0.0,0.59,,-0.08,-0.0,0.87,1,-3,-0,0.08,,,,,,,,,,
1975,0,0.0,0.59,,,,,,,,,,,,,,,,,,
1977,0,0.0,0.59,,,,,,,,,,,,,,,,,,
1979,0,0.0,0.59,,,,,,,,,,,,,,,,,,
1981,0,0.0,0.6,,,,,,,,,,,,,,,,,,
1983,0,0.0,0.59,,-0.21,0.07,1.08,0,-1,-0,0.22,18,1920,0,0.0,0.0,0.0,0.0,0,0,0.0
1985,0,0.0,0.58,,,,,,,,,,,,,,,,,,
1987,0,0.0,0.58,,,,,,,,,,,,,,,,,,
1989,0,0.0,0.58,,,,,,,,,,,,,,,,,,
1991,0,0.0,0.58,,,,,,,,,,,,,,,,,,
1993,0,0.0,0.58,,-0.42,0.14,1.14,1,-2,-0,0.44,,,,,,,,,,
1995,0,0.0,0.58,,,,,,,,,,,,,,,,,,
1997,0,0.0,0.58,,,,,,,,,,,,,,,,,,
1999,0,0.0,0.58,,,,,,,,,,,,,,,,,,
2001,0,0.0,0.58,,,,,,,,,,,,,,,,,,
2003,0,0.0,0.59,,-0.07,0.02,1.12,0,-1,-0,0.08,18,1920,0,0.0,0.0,0.0,0.0,0,0,0.0
2005,0,0.0,0.58,,,,,,,,,,,,,,,,,,
2007,0,0.0,0.58,,,,,,,,,,,,,,,,,,
2009,0,0.0,0.58,,,,,,,,,,,,,,,,,,
2011,0,0.0,0.59,,,,,,,,,,,,,,,,,,
2013,0,0.0,0.58,,-0.29,0.06,1.1,-0,1,-0,0.3,,,,,,,,,,
2015,0,0.0,0.58,,,,,,,,,,,,,,,,,,
2017,0,0.0,0.58,,,,,,,,,,,,,,,,,,
2019,0,0.0,0.58,,,,,,,,,,,,,,,,,,
2021,0,0.0,0.58,,,,,,,,,,,,,,,,,,
2023,0,0.0,0.59,,-0.4,0.12,1.11,1,0,-1,0.42,18,1980,0,0.0,0.0,0.0,0.0,0,0,0.0
2025,0,0.0,0.59,,,,,,,,,,,,,,,,,,
2027,0,0.0,0.59,,,,,,,,,,,,,,,,,,
2029,0,0.0,0.59,,,,,,,,,,,,,,,,,,
2031,0,0.0,0.59,,,,,,,,,,,,,,,,,,
2033,0,0.0,0.59,,-0.1,0.03,0.88,1,0,-1,0.1,,,,,,,,,,
2035,0,0.0,0.59,,,,,,,,,,,,,,,,,,
2037,0,0.0,0.59,,,,,,,,,,,,,,,,,,
2039,0,0.0,0.59,,,,,,,,,,,,,,,,,,
2041,0,0.0,0.59,,,,,,,,,,,,,,,,,,
2043,0,0.0,0.6,13.43,-0.21,0.06,0.91,0,1,-1,0.22,18,1920,0,0.0,0.0,0.0,0.0,0,0,0.0
2045,0,0.0,0.6,,,,,,,,,,,,,,,,,,
2047,0,0.0,0.59,,,,,,,,,,,,,,,,,,
2049,0,0.0,0.6,,,,,,,,,,,,,,,,,,
2051,0,0.0,0.6,,,,,,,,,,,,,,,,,,
2053,0,0.0,0.59,,-0.45,0.13,0.94,1,0,-1,0.47,,,,,,,,,,
2055,0,0.0,0.6,,,,,,,,,,,,,,,,,,
2057,0,0.0,0.6,,,,,,,,,,,,,,,,,,
2059,0,0.0,0.6,,,,,,,,,,,,,,,,,,
2061,0,0.0,0.6,,,,,,,,,,,,,,,,,,
2063,0,0.0,0.6,,-0.05,0.0,0.85,1,-1,-1,0.05,18,1920,0,0.0,0.0,0.0,0.0,0,0,0.0
2065,0,0.0,0.6,,,,,,,,,,,,,,,,,,
2067,0,0.0,0.6,,,,,,,,,,,,,,,,,,
2069,0,0.0,0.59,,,,,,,,,,,,,,,,,,
2071,0,0.0,0.6,,,,,,,,,,,,,,,,,,
2073,0,0.0,0.59,,-0.27,0.04,0.91,-0,0,-0,0.27,,,,,,,,,,
2075,0,0.0,0.59,,,,,,,,,,,,,,,,,,
2077,0,0.0,0.59,,,,,,,,,,,,,,,,,,
2079,0,0.0,0.59,,,,,,,,,,,,,,,,,,
2081,0,0.0,0.59,,,,,,,,,,,,,,,,,,
2083,0,0.0,0.59,,-0.44,0.14,1.02,1,-1,-0,0.46,25,1980,0,0.0,0.0,0.0,0.0,0,0,0.0
2085,0,0.0,0.59,,,,,,,,,,,,,,,,,,
2087,0,0.0,0.59,,,,,,,,,,,,,,,,,,
2089,0,0.0,0.59,,,,,,,,,,,,,,,,,,
2091,0,0.0,0.59,,,,,,,,,,,,,,,,,,
2093,0,0.0,0.59,,-0.15,0.0,0.91,1,-2,0,0.15,,,,,,,,,,
2095,0,0.0,0.59,,,,,,,,,,,,,,,,,,
2097,0,0.0,0.59,,,,,,,,,,,,,,,,,,
2099,0,0.0,0.59,,,,,,,,,,,,,,,,,,
2101,0,0.0,0.59,,,,,,,,,,,,,,,,,,
2103,0,0.0,0.59,,-0.2,0.07,0.99,0,-1,0,0.22,25,1980,0,0.0,0.0,0.0,0.0,0,0,0.0
2105,0,0.0,0.59,,,,,,,,,,,,,,,,,,
2107,0,0.0,0.59,,,,,,,,,,,,,,,,,,
2109,0,0.0,0.59,,,,,,,,,,,,,,,,,,
2111,0,0.0,0.59,,,,,,,,,,,,,,,,,,
2113,0,0.0,0.59,,-0.42,0.16,1.04,1,-2,-0,0.45,,,,,,,,,,
2115,0,0.0,0.59,,,,,,,,,,,,,,,,,,
2117,0,0.0,0.6,,,,,,,,,,,,,,,,,,
2119,0,0.0,0.6,,,,,,,,,,,,,,,,,,
2121,0,0.0,0.6,,,,,,,,,,,,,,,,,,
2123,0,0.0,0.6,,0.01,0.04,0.94,1,-2,-1,0.05,25,1980,0,0.0,0.0,0.0,0.0,0,0,0.0
2125,0,0.0,0.6,,,,,,,,,,,,,,,,,,
2127,0,0.0,0.6,,,,,,,,,,,,,,,,,,
2129,0,0.0,0.6,,,,,,,,,,,,,,,,,,
2131,0,0.0,0.61,,,,,,,,,,,,,,,,,,
2133,0,0.0,0.6,,-0.16,0.09,0.94,1,-1,-1,0.18,,,,,,,,,,
2135,0,0.0,0.6,,,,,,,,,,,,,,,,,,
2137,0,0.0,0.6,,,,,,,,,,,,,,,,,,
2139,0,0.0,0.6,,,,,,,,,,,,,,,,,,
2141,0,0.0,0.6,,,,,,,,,,,,,,,,,,
2143,0,0.0,0.6,,-0.3,0.1,1.05,1,-2,-1,0.32,25,2040,0,0.0,0.0,0.0,0.0,0,0,0.0
2145,0,0.0,0.6,,,,,,,,,,,,,,,,,,
2147,0,0.0,0.6,,,,,,,,,,,,,,,,,,
2149,0,0.0,0.6,,,,,,,,,,,,,,,,,,
2151,0,0.0,0.59,,,,,,,,,,,,,,,,,,
2153,0,0.0,0.59,,-0.0,-0.03,0.91,1,-1,0,0.03,,,,,,,,,,
2155,0,0.0,0.59,,,,,,,,,,,,,,,,,,
2157,0,0.0,0.59,,,,,,,,,,,,,,,,,,
2159,0,0.0,0.59,,,,,,,,,,,,,,,,,,
2161,0,0.0,0.6,,,,,,,,,,,,,,,,,,
2163,0,0.0,0.59,,-0.22,0.1,1.13,1,1,0,0.24,28,1980,0,0.0,0.0,0.0,0.0,0,0,0.0
2165,0,0.0,0.59,,,,,,,,,,,,,,,,,,
2167,0,0.0,0.59,,,,,,,,,,,,,,,,,,
2169,0,0.0,0.59,,,,,,,,,,,,,,,,,,
2171,0,0.0,0.59,,,,,,,,,,,,,,,,,,
2173,0,0.0,0.59,,-0.54,0.16,1.2,2,0,0,0.56,,,,,,,,,,
2175,0,0.0,0.59,,,,,,,,,,,,,,,,,,
2177,0,0.0,0.59,,,,,,,,,,,,,,,,,,
2179,0,0.0,0.6,,,,,,,,,,,,,,,,,,
2181,0,0.0,0.6,,,,,,,,,,,,,,,,,,
2183,0,0.0,0.6,,-0.03,0.04,0.99,1,0,1,0.05,28,1980,0,0.0,0.0,0.0,0.0,0,0,0.0
2185,0,0.0,0.6,,,,,,,,,,,,,,,,,,
2187,0,0.0,0.6,,,,,,,,,,,,,,,,,,
2189,0,0.0,0.6,,,,,,,,,,,,,,,,,,
2191,0,0.0,0.62,,,,,,,,,,,,,,,,,,
2193,0,0.0,0.61,,-0.19,0.11,0.9,0,2,0,0.22,,,,,,,,,,
2195,0,0.0,0.61,,,,,,,,,,,,,,,,,,
2197,0,0.0,0.61,,,,,,,,,,,,,,,,,,
2199,0,0.0,0.61,,,,,,,,,,,,,,,,,,
2201,0,0.0,0.61,,,,,,,,,,,,,,,,,,
2203,0,0.0,0.61,,-0.39,0.21,0.97,1,-0,-1,0.44,28,1980,0,0.0,0.0,0.0,0.0,0,0,0.0
2205,0,0.0,0.61,,,,,,,,,,,,,,,,,,
2207,0,0.0,0.61,,,,,,,,,,,,,,,,,,
2209,0,0.0,0.61,,,,,,,,,,,,,,,,,,
2211,0,0.0,0.61,,,,,,,,,,,,,,,,,,
2213,0,0.0,0.61,,0.03,0.04,0.74,1,-1,-1,0.05,,,,,,,,,,
2215,0,0.01,0.61,,,,,,,,,,,,,,,,,,
2217,0,0.0,0.61,,,,,,,,,,,,,,,,,,
2219,0,0.0,0.6,,,,,,,,,,,,,,,,,,
2221,0,0.0,0.62,,,,,,,,,,,,,,,,,,
2223,0,0.0,0.6,,-0.09,0.08,0.87,-1,1,-1,0.12,35,1980,0,0.0,0.0,0.0,0.0,0,0,0.0
2225,0,0.0,0.6,,,,,,,,,,,,,,,,,,
2227,0,0.0,0.6,,,,,,,,,,,,,,,,,,
2229,0,0.0,0.6,,,,,,,,,,,,,,,,,,
2231,0,0.0,0.6,,,,,,,,,,,,,,,,,,
2233,0,0.0,0.6,,-0.49,0.2,1.07,0,-0,-1,0.53,,,,,,,,,,
2235,0,0.0,0.6,,,,,,,,,,,,,,,,,,
2237,0,0.0,0.6,,,,,,,,,,,,,,,,,,
2239,0,0.0,0.6,,,,,,,,,,,,,,,,,,
2241,0,0.0,0.6,,,,,,,,,,,,,,,,,,
2243,0,0.0,0.61,,-0.14,-0.01,1.04,0,-0,-1,0.14,35,1980,0,0.0,0.0,0.0,0.0,0,0,0.0
2245,0,0.0,0.61,,,,,,,,,,,,,,,,,,
2247,0,0.0,0.61,,,,,,,,,,,,,,,,,,
2249,0,0.0,0.61,,,,,,,,,,,,,,,,,,
2251,0,0.0,0.62,,,,,,,,,,,,,,,,,,
2253,0,0.0,0.61,,-0.33,-0.01,1.03,-1,1,-0,0.33,,,,,,,,,,
2255,0,0.0,0.61,,,,,,,,,,,,,,,,,,
2257,0,0.0,0.61,,,,,,,,,,,,,,,,,,
2259,0,0.0,0.61,,,,,,,,,,,,,,,,,,
2261,0,0.0,0.61,,,,,,,,,,,,,,,,,,
2263,0,0.0,0.61,,-0.44,0.17,1.12,0,0,-0,0.47,35,1980,0,0.0,0.0,0.0,0.0,0,0,0.0
2265,0,0.0,0.61,,,,,,,,,,,,,,,,,,
2267,0,0.0,0.61,,,,,,,,,,,,,,,,,,
2269,0,0.0,0.61,,,,,,,,,,,,,,,,,,
2271,0,0.0,0.61,,,,,,,,,,,,,,,,,,
2273,0,0.0,0.61,,-0.06,0.02,0.82,1,-0,-1,0.06,,,,,,,,,,
2275,0,0.0,0.61,,,,,,,,,,,,,,,,,,
2277,0,0.0,0.61,,,,,,,,,,,,,,,,,,
2279,0,0.0,0.62,,,,,,,,,,,,,,,,,,
2281,0,0.0,0.63,,,,,,,,,,,,,,,,,,
2283,0,0.0,0.62,,-0.16,0.05,0.9,0,1,-1,0.17,35,1920,0,0.0,0.0,0.0,0.0,0,0,0.0
2285,0,0.0,0.61,,,,,,,,,,,,,,,,,,
2287,0,0.0,0.61,,,,,,,,,,,,,,,,,,
2289,0,0.0,0.61,,,,,,,,,,,,,,,,,,
2291,0,0.0,0.61,,,,,,,,,,,,,,,,,,
2293,0,0.0,0.61,,-0.33,0.12,0.97,1,-1,-1,0.35,,,,,,,,,,
2295,0,0.0,0.61,,,,,,,,,,,,,,,,,,
2297,0,0.0,0.61,,,,,,,,,,,,,,,,,,
2299,0,0.0,0.6,,,,,,,,,,,,,,,,,,
2301,0,0.0,0.6,,,,,,,,,,,,,,,,,,
2303,0,0.0,0.61,,0.03,-0.01,0.85,1,-2,-1,0.03,40,1920,0,0.0,0.0,0.0,0.0,0,0,0.0
2305,0,0.0,0.61,,,,,,,,,,,,,,,,,,
2307,0,0.0,0.6,,,,,,,,,,,,,,,,,,
2309,0,0.0,0.61,,,,,,,,,,,,,,,,,,
2311,0,0.0,0.62,,,,,,,,,,,,,,,,,,
2313,0,0.0,0.61,,-0.15,0.07,0.94,0,-1,-1,0.17,,,,,,,,,,
2315,0,0.0,0.61,,,,,,,,,,,,,,,,,,
2317,0,0.0,0.61,,,,,,,,,,,,,,,,,,
2319,0,0.0,0.61,,,,,,,,,,,,,,,,,,
2321,0,0.0,0.61,,,,,,,,,,,,,,,,,,
2323,0,0.0,0.61,,-0.3,0.11,1.14,1,-2,-1,0.32,40,1980,0,0.0,0.0,0.0,0.0,0,0,0.0
2325,0,0.0,0.61,,,,,,,,,,,,,,,,,,
2327,0,0.0,0.62,,,,,,,,,,,,,,,,,,
2329,0,0.0,0.61,,,,,,,,,,,,,,,,,,
2331,0,0.0,0.62,,,,,,,,,,,,,,,,,,
2333,0,0.0,0.62,,-0.02,-0.07,1.0,1,-3,-1,0.07,,,,,,,,,,
2335,0,0.0,0.62,,,,,,,,,,,,,,,,,,
2337,0,0.0,0.62,,,,,,,,,,,,,,,,,,
2339,0,0.0,0.62,,,,,,,,,,,,,,,,,,
2341,0,0.0,0.63,,,,,,,,,,,,,,,,,,
2343,0,0.0,0.61,,-0.18,0.06,1.11,1,-1,-1,0.19,32,1980,0,0.0,0.0,0.0,0.0,0,0,0.0
2345,0,0.0,0.61,,,,,,,,,,,,,,,,,,
2347,0,0.0,0.61,,,,,,,,,,,,,,,,,,
2349,0,0.0,0.61,,,,,,,,,,,,,,,,,,
2351,0,0.0,0.61,,,,,,,,,,,,,,,,,,
2353,0,0.0,0.61,,-0.37,0.11,1.17,2,-2,-0,0.38,,,,,,,,,,
2355,0,0.0,0.61,,,,,,,,,,,,,,,,,,
2357,0,0.0,0.61,,,,,,,,,,,,,,,,,,
2359,0,0.0,0.61,,,,,,,,,,,,,,,,,,
2361,0,0.0,0.61,,,,,,,,,,,,,,,,,,
2363,0,0.0,0.61,,0.06,-0.01,1.01,2,-1,0,0.06,32,1980,0,0.0,0.0,0.0,0.0,0,0,0.0
2365,0,0.0,0.61,,,,,,,,,,,,,,,,,,
2367,0,0.0,0.61,,,,,,,,,,,,,,,,,,
2369,0,0.0,0.61,,,,,,,,,,,,,,,,,,
2371,0,0.0,0.61,,,,,,,,,,,,,,,,,,
2373,0,0.0,0.61,,-0.13,0.12,0.93,1,0,-0,0.17,,,,,,,,,,
2375,0,0.0,0.61,,,,,,,,,,,,,,,,,,
2377,0,0.0,0.61,,,,,,,,,,,,,,,,,,
2379,0,0.0,0.61,,,,,,,,,,,,,,,,,,
2381,0,0.0,0.62,,,,,,,,,,,,,,,,,,
2383,0,0.0,0.62,,-0.23,0.19,1.02,2,-1,-1,0.3,32,1980,0,0.0,0.0,0.0,0.0,0,0,0.0
2385,0,0.0,0.62,,,,,,,,,,,,,,,,,,
2387,0,0.0,0.62,,,,,,,,,,,,,,,,,,
2389,0,0.0,0.61,,,,,,,,,,,,,,,,,,
2391,0,0.0,0.61,,,,,,,,,,,,,,,,,,
2393,0,0.0,0.62,,0.14,0.04,0.79,2,-2,-1,0.15,,,,,,,,,,
2395,0,0.0,0.62,,,,,,,,,,,,,,,,,,
2397,0,0.0,0.62,,,,,,,,,,,,,,,,,,
2399,0,0.0,0.62,,,,,,,,,,,,,,,,,,
2401,0,0.0,0.62,,,,,,,,,,,,,,,,,,
2403,0,0.0,0.62,,0.01,0.08,0.9,1,-1,-1,0.08,32,1980,0,0.0,0.0,0.0,0.0,0,0,0.0
2405,0,0.0,0.62,,,,,,,,,,,,,,,,,,
2407,0,0.0,0.62,,,,,,,,,,,,,,,,,,
2409,0,0.0,0.61,,,,,,,,,,,,,,,,,,
2411,0,0.0,0.61,,,,,,,,,,,,,,,,,,
2413,0,0.0,0.61,,-0.25,0.16,1.07,2,-3,-1,0.29,,,,,,,,,,
2415,0,0.0,0.61,,,,,,,,,,,,,,,,,,
2417,0,0.0,0.61,,,,,,,,,,,,,,,,,,
2419,0,0.0,0.61,,,,,,,,,,,,,,,,,,
2421,0,0.0,0.61,,,,,,,,,,,,,,,,,,
2423,0,0.0,0.61,,0.12,0.04,1.0,2,-2,-1,0.13,38,1980,0,0.0,0.0,0.0,0.0,0,0,0.0
2425,0,0.0,0.61,,,,,,,,,,,,,,,,,,
2427,0,0.0,0.61,,,,,,,,,,,,,,,,,,
2429,0,0.0,0.62,,,,,,,,,,,,,,,,,,
2431,0,0.0,0.62,,,,,,,,,,,,,,,,,,
2433,0,0.0,0.62,,-0.15,0.09,1.08,1,-1,-0,0.17,,,,,,,,,,
2435,0,0.0,0.62,,,,,,,,,,,,,,,,,,
2437,0,0.0,0.62,,,,,,,,,,,,,,,,,,
2439,0,0.0,0.61,,,,,,,,,,,,,,,,,,
2441,0,0.0,0.62,,,,,,,,,,,,,,,,,,
2443,0,0.0,0.62,,-0.32,0.15,1.19,1,-1,-0,0.35,38,1980,0,0.0,0.0,0.0,0.0,0,0,0.0
2445,0,0.0,0.62,,,,,,,,,,,,,,,,,,
2447,0,0.0,0.62,,,,,,,,,,,,,,,,,,
2449,0,0.0,0.62,,,,,,,,,,,,,,,,,,
2451,0,0.0,0.62,,,,,,,,,,,,,,,,,,
2453,0,0.0,0.62,,0.08,0.04,0.95,1,-1,-0,0.09,,,,,,,,,,
2455,0,0.0,0.63,,,,,,,,,,,,,,,,,,
2457,0,0.0,0.62,,,,,,,,,,,,,,,,,,
2459,0,0.0,0.64,,,,,,,,,,,,,,,,,,
2461,0,0.0,0.63,,,,,,,,,,,,,,,,,,
2463,0,0.0,0.63,,0.0,0.06,0.91,0,0,-0,0.06,38,1980,0,0.0,0.0,0.0,0.0,0,0,0.0
2465,0,0.0,0.62,,,,,,,,,,,,,,,,,,
2467,0,0.0,0.62,,,,,,,,,,,,,,,,,,
2469,0,0.0,0.63,,,,,,,,,,,,,,,,,,
2471,0,0.0,0.63,,,,,,,,,,,,,,,,,,
2473,0,0.0,0.62,,-0.19,0.14,1.04,1,-1,-1,0.23,,,,,,,,,,
2475,0,0.0,0.62,,,,,,,,,,,,,,,,,,
2477,0,0.0,0.62,,,,,,,,,,,,,,,,,,
2479,0,0.0,0.62,,,,,,,,,,,,,,,,,,
2481,0,0.0,0.62,,,,,,,,,,,,,,,,,,
2483,0,0.0,0.62,,0.13,0.01,0.87,1,-1,-0,0.13,45,1980,0,0.0,0.0,0.0,0.0,0,0,0.0
2485,0,0.0,0.61,,,,,,,,,,,,,,,,,,
2487,0,0.0,0.61,,,,,,,,,,,,,,,,,,
2489,0,0.0,0.63,,,,,,,,,,,,,,,,,,
2491,0,0.0,0.62,,,,,,,,,,,,,,,,,,
2493,0,0.0,0.62,,-0.06,0.03,0.9,-0,0,-0,0.07,,,,,,,,,,
2495,0,0.0,0.62,,,,,,,,,,,,,,,,,,
2497,0,0.0,0.62,,,,,,,,,,,,,,,,,,
2499,0,0.0,0.62,,,,,,,,,,,,,,,,,,
2501,0,0.0,0.62,,,,,,,,,,,,,,,,,,
2503,0,0.0,0.62,,-0.25,0.08,1.13,1,-1,-1,0.26,45,1980,0,0.0,0.0,0.0,0.0,0,0,0.0
2505,0,0.0,0.62,,,,,,,,,,,,,,,,,,
2507,0,0.0,0.62,,,,,,,,,,,,,,,,,,
2509,0,0.0,0.62,,,,,,,,,,,,,,,,,,
2511,0,0.0,0.62,,,,,,,,,,,,,,,,,,
2513,0,0.0,0.63,,0.01,-0.04,1.02,0,-0,-0,0.04,,,,,,,,,,
2515,0,0.0,0.62,,,,,,,,,,,,,,,,,,
2517,0,0.0,0.63,,,,,,,,,,,,,,,,,,
2519,0,0.0,0.64,,,,,,,,,,,,,,,,,,
2521,0,0.0,0.63,,,,,,,,,,,,,,,,,,
2523,0,0.0,0.63,,-0.15,0.06,1.06,0,1,0,0.16,45,1980,0,0.0,0.0,0.0,0.0,0,0,0.0
2525,0,0.0,0.63,,,,,,,,,,,,,,,,,,
2527,0,0.0,0.63,,,,,,,,,,,,,,,,,,
2529,0,0.0,0.63,,,,,,,,,,,,,,,,,,
2531,0,0.0,0.63,,,,,,,,,,,,,,,,,,
2533,0,0.0,0.63,,-0.27,0.11,1.1,2,0,0,0.3,,,,,,,,,,
2535,0,0.0,0.62,,,,,,,,,,,,,,,,,,
2537,0,0.0,0.62,,,,,,,,,,,,,,,,,,
2539,0,0.0,0.63,,,,,,,,,,,,,,,,,,
2541,0,0.0,0.62,,,,,,,,,,,,,,,,,,
2543,0,0.0,0.62,,0.1,-0.04,0.89,1,0,0,0.11,38,1980,0,0.0,0.0,0.0,0.0,0,0,0.0
2545,0,0.0,0.62,,,,,,,,,,,,,,,,,,
2547,0,0.0,0.62,,,,,,,,,,,,,,,,,,
2549,0,0.0,0.63,,,,,,,,,,,,,,,,,,
2551,0,0.0,0.62,,,,,,,,,,,,,,,,,,
2553,0,0.0,0.63,,-0.09,0.06,0.83,1,1,0,0.1,,,,,,,,,,
2555,0,0.0,0.62,,,,,,,,,,,,,,,,,,
2557,0,0.0,0.62,,,,,,,,,,,,,,,,,,
2559,0,0.0,0.62,,,,,,,,,,,,,,,,,,
2561,0,0.0,0.62,,,,,,,,,,,,,,,,,,
2563,0,0.0,0.62,,-0.18,0.18,1.0,2,-1,-1,0.26,38,1980,0,0.0,0.0,0.0,0.0,0,0,0.0
2565,0,0.0,0.62,,,,,,,,,,,,,,,,,,
2567,0,0.0,0.62,,,,,,,,,,,,,,,,,,
2569,0,0.0,0.63,,,,,,,,,,,,,,,,,,
2571,0,0.0,0.63,,,,,,,,,,,,,,,,,,
2573,0,0.0,0.63,,0.22,0.01,0.79,2,-3,-1,0.22,,,,,,,,,,
2575,0,0.0,0.63,,,,,,,,,,,,,,,,,,
2577,0,0.0,0.62,,,,,,,,,,,,,,,,,,
2579,0,0.0,0.64,,,,,,,,,,,,,,,,,,
2581,0,0.0,0.63,,,,,,,,,,,,,,,,,,
2583,0,0.0,0.63,,0.09,0.06,0.92,1,-2,-0,0.11,38,1980,0,0.0,0.0,0.0,0.0,0,0,0.0
2585,0,0.0,0.63,,,,,,,,,,,,,,,,,,
2587,0,0.0,0.63,,,,,,,,,,,,,,,,,,
2589,0,0.0,0.63,,,,,,,,,,,,,,,,,,
2591,0,0.0,0.63,,,,,,,,,,,,,,,,,,
2593,0,0.0,0.63,,-0.15,0.12,1.2,2,-3,-0,0.19,,,,,,,,,,
2595,0,0.0,0.62,,,,,,,,,,,,,,,,,,
2597,0,0.0,0.62,,,,,,,,,,,,,,,,,,
2599,0,0.0,0.62,,,,,,,,,,,,,,,,,,
2601,0,0.0,0.62,,,,,,,,,,,,,,,,,,
2603,0,0.0,0.62,,0.11,0.04,1.12,2,-2,0,0.12,32,1980,0,0.0,0.0,0.0,0.0,0,0,0.0
2605,0,0.01,0.62,,,,,,,,,,,,,,,,,,
2607,0,0.0,0.62,,,,,,,,,,,,,,,,,,
2609,0,0.0,0.63,,,,,,,,,,,,,,,,,,
2611,0,0.0,0.62,,,,,,,,,,,,,,,,,,
2613,0,0.0,0.62,,-0.14,0.08,1.19,1,-0,0,0.16,,,,,,,,,,
2615,0,0.0,0.62,,,,,,,,,,,,,,,,,,
2617,0,0.0,0.62,,,,,,,,,,,,,,,,,,
2619,0,0.0,0.62,,,,,,,,,,,,,,,,,,
2621,0,0.0,0.62,,,,,,,,,,,,,,,,,,
2623,0,0.0,0.63,,-0.24,0.11,1.25,2,-0,0,0.26,32,1980,0,0.0,0.0,0.0,0.0,0,0,0.0
2625,0,0.0,0.62,,,,,,,,,,,,,,,,,,
2627,0,0.0,0.63,,,,,,,,,,,,,,,,,,
2629,0,0.0,0.63,,,,,,,,,,,,,,,,,,
2631,0,0.0,0.63,,,,,,,,,,,,,,,,,,
2633,0,0.0,0.63,,0.11,0.0,1.0,2,-0,1,0.11,,,,,,,,,,
2635,0,0.0,0.63,,,,,,,,,,,,,,,,,,
2637,0,0.0,0.63,,,,,,,,,,,,,,,,,,
2639,0,0.0,0.65,,,,,,,,,,,,,,,,,,
2641,0,0.0,0.64,,,,,,,,,,,,,,,,,,
2643,0,0.0,0.64,,0.03,0.16,0.91,1,2,0,0.16,32,1980,0,0.0,0.0,0.0,0.0,0,0,0.0
2645,0,0.0,0.64,,,,,,,,,,,,,,,,,,
2647,0,0.0,0.64,,,,,,,,,,,,,,,,,,
2649,0,0.0,0.64,,,,,,,,,,,,,,,,,,
2651,0,0.0,0.64,,,,,,,,,,,,,,,,,,
2653,0,0.0,0.64,,-0.06,0.22,1.0,1,0,-1,0.23,,,,,,,,,,
2655,0,0.0,0.64,,,,,,,,,,,,,,,,,,
2657,0,0.0,0.64,,,,,,,,,,,,,,,,,,
2659,0,0.0,0.64,,,,,,,,,,,,,,,,,,
2661,0,0.0,0.63,,,,,,,,,,,,,,,,,,
2663,0,0.0,0.63,,0.2,0.07,0.84,1,0,-1,0.21,50,1980,0,0.0,0.0,0.0,0.0,0,0,0.0
2665,0,0.0,0.63,,,,,,,,,,,,,,,,,,
2667,0,0.0,0.63,,,,,,,,,,,,,,,,,,
2669,0,0.0,0.64,,,,,,,,,,,,,,,,,,
2671,0,0.0,0.63,,,,,,,,,,,,,,,,,,
2673,0,0.0,0.62,,-0.04,0.13,0.91,-0,1,-1,0.14,,,,,,,,,,
2675,0,0.0,0.62,,,,,,,,,,,,,,,,,,
2677,0,0.0,0.63,,,,,,,,,,,,,,,,,,
2679,0,0.0,0.63,,,,,,,,,,,,,,,,,,
2681,0,0.0,0.62,,,,,,,,,,,,,,,,,,
2683,0,0.0,0.63,,-0.14,0.16,1.1,0,-0,-1,0.21,50,1980,0,0.0,0.0,0.0,0.0,0,0,0.0
2685,0,0.0,0.63,,,,,,,,,,,,,,,,,,
2687,0,0.0,0.63,,,,,,,,,,,,,,,,,,
2689,0,0.0,0.63,,,,,,,,,,,,,,,,,,
2691,0,0.0,0.64,,,,,,,,,,,,,,,,,,
2693,0,0.0,0.64,,0.11,0.04,1.0,-0,-1,-1,0.12,,,,,,,,,,
2695,0,0.0,0.64,,,,,,,,,,,,,,,,,,
2697,0,0.0,0.64,,,,,,,,,,,,,,,,,,
2699,0,0.0,0.65,,,,,,,,,,,,,,,,,,
2701,0,0.0,0.64,,,,,,,,,,,,,,,,,,
2703,0,0.0,0.64,,-0.08,0.07,1.01,-1,1,-1,0.11,50,1980,0,0.0,0.0,0.0,0.0,0,0,0.0
2705,0,0.0,0.64,,,,,,,,,,,,,,,,,,
2707,0,0.0,0.64,,,,,,,,,,,,,,,,,,
2709,0,0.0,0.63,,,,,,,,,,,,,,,,,,
2711,0,0.0,0.64,,,,,,,,,,,,,,,,,,
2713,0,0.0,0.64,,-0.15,0.13,1.14,0,-0,-1,0.2,,,,,,,,,,
2715,0,0.0,0.64,,,,,,,,,,,,,,,,,,
2717,0,0.0,0.64,,,,,,,,,,,,,,,,,,
2719,0,0.0,0.64,,,,,,,,,,,,,,,,,,
2721,0,0.0,0.64,,,,,,,,,,,,,,,,,,
2723,0,0.0,0.64,,0.18,-0.03,0.95,-0,-0,-1,0.18,50,1980,0,0.0,0.0,0.0,0.0,0,0,0.0
2725,0,0.0,0.64,,,,,,,,,,,,,,,,,,
2727,0,0.0,0.66,,,,,,,,,,,,,,,,,,
2729,0,0.0,0.65,,,,,,,,,,,,,,,,,,
2731,0,0.0,0.65,,,,,,,,,,,,,,,,,,
2733,0,0.0,0.64,,-0.06,0.02,0.92,-0,1,-1,0.06,,,,,,,,,,
2735,0,0.0,0.64,,,,,,,,,,,,,,,,,,
2737,0,0.0,0.64,,,,,,,,,,,,,,,,,,
2739,0,0.0,0.64,,,,,,,,,,,,,,,,,,
2741,0,0.0,0.64,,,,,,,,,,,,,,,,,,
2743,0,0.0,0.64,,-0.08,0.09,1.02,1,-1,-0,0.12,38,1980,0,0.0,0.0,0.0,0.0,0,0,0.0
2745,0,0.0,0.63,,,,,,,,,,,,,,,,,,
2747,0,0.0,0.63,,,,,,,,,,,,,,,,,,
2749,0,0.0,0.63,,,,,,,,,,,,,,,,,,
2751,0,0.0,0.63,,,,,,,,,,,,,,,,,,
2753,0,0.0,0.63,,0.23,-0.0,0.85,0,-1,-1,0.23,,,,,,,,,,
2755,0,0.0,0.63,,,,,,,,,,,,,,,,,,
2757,0,0.0,0.65,,,,,,,,,,,,,,,,,,
2759,0,0.0,0.64,,,,,,,,,,,,,,,,,,
2761,0,0.0,0.64,,,,,,,,,,,,,,,,,,
2763,0,0.0,0.64,,0.04,0.05,0.91,0,-0,-1,0.07,38,1980,0,0.0,0.0,0.0,0.0,0,0,0.0
2765,0,0.0,0.64,,,,,,,,,,,,,,,,,,
2767,0,0.0,0.64,,,,,,,,,,,,,,,,,,
2769,0,0.0,0.64,,,,,,,,,,,,,,,,,,
2771,0,0.0,0.64,,,,,,,,,,,,,,,,,,
2773,0,0.0,0.64,,-0.08,0.07,1.14,1,-1,-1,0.11,,,,,,,,,,
2775,0,0.0,0.64,,,,,,,,,,,,,,,,,,
2777,0,0.0,0.64,,,,,,,,,,,,,,,,,,
2779,0,0.0,0.64,,,,,,,,,,,,,,,,,,
2781,0,0.0,0.64,,,,,,,,,,,,,,,,,,
2783,0,0.0,0.65,,0.11,-0.03,1.11,1,-0,-0,0.11,38,1980,0,0.0,0.0,0.0,0.0,0,0,0.0
2785,0,0.0,0.64,,,,,,,,,,,,,,,,,,
2787,0,0.0,0.66,,,,,,,,,,,,,,,,,,
2789,0,0.0,0.65,,,,,,,,,,,,,,,,,,
2791,0,0.0,0.64,,,,,,,,,,,,,,,,,,
2793,0,0.0,0.64,,-0.19,0.09,1.1,1,2,-0,0.2,,,,,,,,,,
2795,0,0.0,0.64,,,,,,,,,,,,,,,,,,
2797,0,0.0,0.64,,,,,,,,,,,,,,,,,,
2799,0,0.0,0.63,,,,,,,,,,,,,,,,,,
2801,0,0.0,0.63,,,,,,,,,,,,,,,,,,
2803,0,0.0,0.63,,-0.22,0.12,1.2,2,2,0,0.24,32,1980,0,0.0,0.0,0.0,0.0,0,0,0.0
2805,0,0.0,0.63,,,,,,,,,,,,,,,,,,
2807,0,0.0,0.64,,,,,,,,,,,,,,,,,,
2809,0,0.0,0.63,,,,,,,,,,,,,,,,,,
2811,0,0.0,0.64,,,,,,,,,,,,,,,,,,
2813,0,0.0,0.64,,0.08,0.01,0.92,1,1,0,0.08,,,,,,,,,,
2815,0,0.0,0.64,,,,,,,,,,,,,,,,,,
2817,0,0.0,0.65,,,,,,,,,,,,,,,,,,
2819,0,0.0,0.64,,,,,,,,,,,,,,,,,,
2821,0,0.0,0.64,,,,,,,,,,,,,,,,,,
2823,0,0.0,0.64,,-0.09,0.14,0.87,1,2,0,0.17,32,1980,0,0.0,0.0,0.0,0.0,0,0,0.0
2825,0,0.0,0.64,,,,,,,,,,,,,,,,,,
2827,0,0.0,0.64,,,,,,,,,,,,,,,,,,
2829,0,0.0,0.64,,,,,,,,,,,,,,,,,,
2831,0,0.0,0.64,,,,,,,,,,,,,,,,,,
2833,0,0.0,0.64,,-0.04,0.17,0.91,2,1,-1,0.18,,,,,,,,,,
2835,0,0.0,0.64,,,,,,,,,,,,,,,,,,
2837,0,0.0,0.64,,,,,,,,,,,,,,,,,,
2839,0,0.0,0.64,,,,,,,,,,,,,,,,,,
2841,0,0.0,0.64,,,,,,,,,,,,,,,,,,
2843,0,0.0,0.65,,0.25,0.07,0.76,1,0,-1,0.26,32,1980,0,0.0,0.0,0.0,0.0,0,0,0.0
2845,0,0.0,0.65,,,,,,,,,,,,,,,,,,
2847,0,0.0,0.66,,,,,,,,,,,,,,,,,,
2849,0,0.0,0.65,,,,,,,,,,,,,,,,,,
2851,0,0.0,0.65,,,,,,,,,,,,,,,,,,
2853,0,0.0,0.65,,-0.09,0.18,0.83,0,0,-1,0.2,,,,,,,,,,
2855,0,0.0,0.64,,,,,,,,,,,,,,,,,,
2857,0,0.0,0.65,,,,,,,,,,,,,,,,,,
2859,0,0.0,0.65,,,,,,,,,,,,,,,,,,
2861,0,0.0,0.65,,,,,,,,,,,,,,,,,,
2863,0,0.0,0.65,,-0.11,0.14,1.03,1,-2,-1,0.18,32,1980,0,0.0,0.0,0.0,0.0,0,0,0.0
2865,0,0.0,0.65,,,,,,,,,,,,,,,,,,
2867,0,0.0,0.65,,,,,,,,,,,,,,,,,,
2869,0,0.0,0.64,,,,,,,,,,,,,,,,,,
2871,0,0.0,0.64,,,,,,,,,,,,,,,,,,
2873,0,0.0,0.64,,0.16,0.04,1.01,-0,-2,-0,0.16,,,,,,,,,,
2875,0,0.0,0.64,,,,,,,,,,,,,,,,,,
2877,0,0.0,0.65,,,,,,,,,,,,,,,,,,
2879,0,0.0,0.64,,,,,,,,,,,,,,,,,,
2881,0,0.0,0.64,,,,,,,,,,,,,,,,,,
2883,0,0.0,0.64,,-0.1,0.1,1.05,-0,-1,0,0.15,32,1980,0,0.0,0.0,0.0,0.0,0,0,0.0
2885,0,0.0,0.64,,,,,,,,,,,,,,,,,,
2887,0,0.0,0.63,,,,,,,,,,,,,,,,,,
2889,0,0.0,0.63,,,,,,,,,,,,,,,,,,
2891,0,0.0,0.64,,,,,,,,,,,,,,,,,,
2893,0,0.0,0.64,,-0.08,0.09,1.2,1,-2,1,0.13,,,,,,,,,,
2895,0,0.0,0.63,,,,,,,,,,,,,,,,,,
2897,0,0.0,0.64,,,,,,,,,,,,,,,,,,
2899,0,0.0,0.64,,,,,,,,,,,,,,,,,,
2901,0,0.0,0.64,,,,,,,,,,,,,,,,,,
2903,0,0.0,0.64,,0.23,0.0,1.02,0,-1,0,0.23,32,1980,0,0.0,0.0,0.0,0.0,0,0,0.0
2905,0,0.0,0.64,,,,,,,,,,,,,,,,,,
2907,0,0.0,0.66,,,,,,,,,,,,,,,,,,
2909,0,0.0,0.65,,,,,,,,,,,,,,,,,,
2911,0,0.0,0.65,,,,,,,,,,,,,,,,,,
2913,0,0.0,0.65,,-0.08,0.11,0.98,0,0,-0,0.14,,,,,,,,,,
2915,0,0.0,0.65,,,,,,,,,,,,,,,,,,
2917,0,0.0,0.65,,,,,,,,,,,,,,,,,,
2919,0,0.0,0.65,,,,,,,,,,,,,,,,,,
2921,0,0.0,0.65,,,,,,,,,,,,,,,,,,
2923,0,0.0,0.65,,-0.1,0.13,1.09,1,-0,-1,0.16,32,1980,0,0.0,0.0,0.0,0.0,0,0,0.0
2925,0,0.0,0.65,,,,,,,,,,,,,,,,,,
2927,0,0.0,0.65,,,,,,,,,,,,,,,,,,
2929,0,0.0,0.65,,,,,,,,,,,,,,,,,,
2931,0,0.0,0.65,,,,,,,,,,,,,,,,,,
2933,0,0.0,0.65,,0.18,-0.0,0.91,0,0,-1,0.18,,,,,,,,,,
2935,0,0.0,0.65,,,,,,,,,,,,,,,,,,
2937,0,0.0,0.66,,,,,,,,,,,,,,,,,,
2939,0,0.0,0.65,,,,,,,,,,,,,,,,,,
2941,0,0.0,0.65,,,,,,,,,,,,,,,,,,
2943,0,0.0,0.65,,-0.09,0.08,0.96,0,1,-1,0.12,32,1980,0,0.0,0.0,0.0,0.0,0,0,0.0
2945,0,0.0,0.65,,,,,,,,,,,,,,,,,,
2947,0,0.0,0.65,,,,,,,,,,,,,,,,,,
2949,0,0.0,0.65,,,,,,,,,,,,,,,,,,
2951,0,0.0,0.65,,,,,,,,,,,,,,,,,,
2953,0,0.0,0.65,,-0.08,0.11,1.06,1,0,-1,0.14,,,,,,,,,,
2955,0,0.0,0.64,,,,,,,,,,,,,,,,,,
2957,0,0.0,0.65,,,,,,,,,,,,,,,,,,
2959,0,0.0,0.64,,,,,,,,,,,,,,,,,,
2961,0,0.0,0.64,,,,,,,,,,,,,,,,,,
2963,0,0.0,0.64,,0.17,0.03,0.95,0,1,-0,0.18,35,1980,0,0.0,0.0,0.0,0.0,0,0,0.0
2965,0,0.0,0.64,,,,,,,,,,,,,,,,,,
2967,0,0.0,0.66,,,,,,,,,,,,,,,,,,
2969,0,0.0,0.65,,,,,,,,,,,,,,,,,,
2971,0,0.0,0.64,,,,,,,,,,,,,,,,,,
2973,0,0.0,0.64,,-0.12,0.13,0.89,-0,1,-0,0.17,,,,,,,,,,
2975,0,0.0,0.64,,,,,,,,,,,,,,,,,,
2977,0,0.0,0.64,,,,,,,,,,,,,,,,,,
2979,0,0.0,0.65,,,,,,,,,,,,,,,,,,
2981,0,0.0,0.65,,,,,,,,,,,,,,,,,,
2983,0,0.0,0.65,,-0.1,0.11,1.05,1,0,-0,0.14,35,1980,0,0.0,0.0,0.0,0.0,0,0,0.0
2985,0,0.0,0.65,,,,,,,,,,,,,,,,,,
2987,0,0.0,0.65,,,,,,,,,,,,,,,,,,
2989,0,0.0,0.65,,,,,,,,,,,,,,,,,,
2991,0,0.0,0.65,,,,,,,,,,,,,,,,,,
2993,0,0.0,0.65,,0.13,0.04,0.92,0,0,-0,0.14,,,,,,,,,,
2995,0,0.0,0.65,,,,,,,,,,,,,,,,,,
2997,0,0.0,0.67,,,,,,,,,,,,,,,,,,
2999,0,0.0,0.66,,,,,,,,,,,,,,,,,,
3001,0,0.0,0.65,,,,,,,,,,,,,,,,,,
3003,0,0.0,0.65,,-0.09,0.07,0.91,-0,1,-1,0.12,35,1980,0,0.0,0.0,0.0,0.0,0,0,0.0
3005,0,0.0,0.65,,,,,,,,,,,,,,,,,,
3007,0,0.0,0.65,,,,,,,,,,,,,,,,,,
3009,0,0.0,0.65,,,,,,,,,,,,,,,,,,
3011,0,0.01,0.65,,,,,,,,,,,,,,,,,,
3013,0,0.0,0.66,,-0.08,0.1,1.06,1,0,-1,0.12,,,,,,,,,,
3015,0,0.0,0.66,,,,,,,,,,,,,,,,,,
3017,0,0.0,0.66,,,,,,,,,,,,,,,,,,
3019,0,0.0,0.66,,,,,,,,,,,,,,,,,,
3021,0,0.0,0.66,,,,,,,,,,,,,,,,,,
3023,0,0.0,0.66,,0.09,-0.01,0.97,-0,0,-1,0.09,35,1980,0,0.0,0.0,0.0,0.0,0,0,0.0
3025,0,0.0,0.66,,,,,,,,,,,,,,,,,,
3027,0,0.0,0.67,,,,,,,,,,,,,,,,,,
3029,0,0.0,0.66,,,,,,,,,,,,,,,,,,
3031,0,0.0,0.66,,,,,,,,,,,,,,,,,,
3033,0,0.0,0.66,,-0.18,0.1,0.9,-0,0,-1,0.2,,,,,,,,,,
3035,0,0.0,0.66,,,,,,,,,,,,,,,,,,
3037,0,0.0,0.65,,,,,,,,,,,,,,,,,,
3039,0,0.0,0.65,,,,,,,,,,,,,,,,,,
3041,0,0.0,0.65,,,,,,,,,,,,,,,,,,
3043,0,0.0,0.65,13.41,-0.06,0.12,0.99,0,-1,-1,0.13,32,1980,0,0.0,0.0,0.0,0.0,0,0,0.0
3045,0,0.0,0.65,,,,,,,,,,,,,,,,,,
3047,0,0.0,0.65,,,,,,,,,,,,,,,,,,
3049,0,0.0,0.65,,,,,,,,,,,,,,,,,,
3051,0,0.0,0.65,,,,,,,,,,,,,,,,,,
3053,0,0.0,0.65,,0.18,0.0,0.9,-1,-2,-1,0.18,,,,,,,,,,
3055,0,0.0,0.65,,,,,,,,,,,,,,,,,,
3057,0,0.0,0.66,,,,,,,,,,,,,,,,,,
3059,0,0.0,0.65,,,,,,,,,,,,,,,,,,
3061,0,0.0,0.65,,,,,,,,,,,,,,,,,,
3063,0,0.0,0.65,,0.01,0.1,0.9,-1,-2,-1,0.1,32,1980,0,0.0,0.0,0.0,0.0,0,0,0.0
3065,0,0.0,0.65,,,,,,,,,,,,,,,,,,
3067,0,0.0,0.65,,,,,,,,,,,,,,,,,,
3069,0,0.0,0.65,,,,,,,,,,,,,,,,,,
3071,0,0.0,0.66,,,,,,,,,,,,,,,,,,
3073,0,0.0,0.65,,0.1,0.08,1.08,0,-2,-0,0.12,,,,,,,,,,
3075,0,0.0,0.66,,,,,,,,,,,,,,,,,,
3077,0,0.0,0.66,,,,,,,,,,,,,,,,,,
3079,0,0.0,0.66,,,,,,,,,,,,,,,,,,
3081,0,0.0,0.66,,,,,,,,,,,,,,,,,,
3083,0,0.0,0.66,,0.25,-0.02,1.06,-0,-1,-0,0.25,32,1980,0,0.0,0.0,0.0,0.0,0,0,0.0
3085,0,0.0,0.66,,,,,,,,,,,,,,,,,,
3087,0,0.0,0.67,,,,,,,,,,,,,,,,,,
3089,0,0.0,0.66,,,,,,,,,,,,,,,,,,
3091,0,0.0,0.66,,,,,,,,,,,,,,,,,,
3093,0,0.0,0.66,,-0.13,0.04,1.1,0,0,0,0.13,,,,,,,,,,
3095,0,0.0,0.66,,,,,,,,,,,,,,,,,,
3097,0,0.0,0.66,,,,,,,,,,,,,,,,,,
3099,0,0.0,0.66,,,,,,,,,,,,,,,,,,
3101,0,0.0,0.66,,,,,,,,,,,,,,,,,,
3103,0,0.0,0.66,,-0.13,0.04,1.2,1,0,1,0.13,32,1980,0,0.0,0.0,0.0,0.0,0,0,0.0
3105,0,0.0,0.66,,,,,,,,,,,,,,,,,,
3107,0,0.0,0.67,,,,,,,,,,,,,,,,,,
3109,0,0.0,0.67,,,,,,,,,,,,,,,,,,
3111,0,0.0,0.66,,,,,,,,,,,,,,,,,,
3113,0,0.0,0.67,,0.03,0.02,1.07,1,1,1,0.04,,,,,,,,,,
3115,0,0.0,0.67,,,,,,,,,,,,,,,,,,
3117,0,0.0,0.68,,,,,,,,,,,,,,,,,,
3119,0,0.0,0.67,,,,,,,,,,,,,,,,,,
3121,0,0.0,0.67,,,,,,,,,,,,,,,,,,
3123,0,0.0,0.67,,-0.18,0.11,0.96,1,1,0,0.21,32,1920,0,0.0,0.0,0.0,0.0,0,0,0.0
3125,0,0.0,0.66,,,,,,,,,,,,,,,,,,
3127,0,0.0,0.66,,,,,,,,,,,,,,,,,,
3129,0,0.0,0.66,,,,,,,,,,,,,,,,,,
3131,0,0.0,0.66,,,,,,,,,,,,,,,,,,
3133,0,0.0,0.66,,-0.01,0.12,0.99,1,1,-0,0.13,,,,,,,,,,
3135,0,0.0,0.66,,,,,,,,,,,,,,,,,,
3137,0,0.0,0.66,,,,,,,,,,,,,,,,,,
3139,0,0.0,0.66,,,,,,,,,,,,,,,,,,
3141,0,0.0,0.66,,,,,,,,,,,,,,,,,,
3143,0,0.0,0.66,,0.24,0.08,0.8,0,1,-0,0.25,28,1920,0,0.0,0.0,0.0,0.0,0,0,0.0
3145,0,0.0,0.66,,,,,,,,,,,,,,,,,,
3147,0,0.0,0.67,,,,,,,,,,,,,,,,,,
3149,0,0.0,0.66,,,,,,,,,,,,,,,,,,
3151,0,0.0,0.66,,,,,,,,,,,,,,,,,,
3153,0,0.0,0.66,,-0.09,0.2,0.81,-0,2,-1,0.22,,,,,,,,,,
3155,0,0.0,0.66,,,,,,,,,,,,,,,,,,
3157,0,0.0,0.66,,,,,,,,,,,,,,,,,,
3159,0,0.0,0.67,,,,,,,,,,,,,,,,,,
3161,0,0.0,0.66,,,,,,,,,,,,,,,,,,
3163,0,0.0,0.66,,-0.08,0.13,0.99,1,0,-1,0.15,28,1980,0,0.0,0.0,0.0,0.0,0,0,0.0
3165,0,0.0,0.66,,,,,,,,,,,,,,,,,,
3167,0,0.0,0.67,,,,,,,,,,,,,,,,,,
3169,0,0.0,0.66,,,,,,,,,,,,,,,,,,
3171,0,0.0,0.67,,,,,,,,,,,,,,,,,,
3173,0,0.0,0.67,,0.08,0.04,0.95,-0,0,-1,0.09,,,,,,,,,,
3175,0,0.0,0.67,,,,,,,,,,,,,,,,,,
3177,0,0.0,0.68,,,,,,,,,,,,,,,,,,
3179,0,0.0,0.67,,,,,,,,,,,,,,,,,,
3181,0,0.0,0.67,,,,,,,,,,,,,,,,,,
3183,0,0.0,0.67,,-0.25,0.08,1.0,-0,1,-0,0.26,28,1920,0,0.0,0.0,0.0,0.0,0,0,0.0
3185,0,0.0,0.67,,,,,,,,,,,,,,,,,,
3187,0,0.0,0.67,,,,,,,,,,,,,,,,,,
3189,0,0.0,0.67,,,,,,,,,,,,,,,,,,
3191,0,0.0,0.67,,,,,,,,,,,,,,,,,,
3193,0,0.0,0.67,,-0.13,0.08,1.11,1,-1,0,0.16,,,,,,,,,,
3195,0,0.0,0.67,,,,,,,,,,,,,,,,,,
3197,0,0.0,0.67,,,,,,,,,,,,,,,,,,
3199,0,0.0,0.68,,,,,,,,,,,,,,,,,,
3201,0,0.0,0.68,,,,,,,,,,,,,,,,,,
3203,0,0.0,0.68,,0.18,0.01,0.9,0,-1,0,0.18,28,1920,0,0.0,0.0,0.0,0.0,0,0,0.0
3205,0,0.0,0.67,,,,,,,,,,,,,,,,,,
3207,0,0.0,0.69,,,,,,,,,,,,,,,,,,
3209,0,0.0,0.68,,,,,,,,,,,,,,,,,,
3211,0,0.0,0.68,,,,,,,,,,,,,,,,,,
3213,0,0.0,0.68,,-0.09,0.13,0.85,-0,-0,-0,0.16,,,,,,,,,,
3215,0,0.0,0.68,,,,,,,,,,,,,,,,,,
3217,0,0.0,0.68,,,,,,,,,,,,,,,,,,
3219,0,0.0,0.68,,,,,,,,,,,,,,,,,,
3221,0,0.0,0.68,,,,,,,,,,,,,,,,,,
3223,0,0.0,0.68,,-0.07,0.16,1.0,1,-2,-1,0.17,28,1980,0,0.0,0.0,0.0,0.0,0,0,0.0
3225,0,0.0,0.68,,,,,,,,,,,,,,,,,,
3227,0,0.0,0.68,,,,,,,,,,,,,,,,,,
3229,0,0.0,0.67,,,,,,,,,,,,,,,,,,
3231,0,0.0,0.67,,,,,,,,,,,,,,,,,,
3233,0,0.0,0.67,,0.23,0.04,0.89,-0,-2,-1,0.23,,,,,,,,,,
3235,0,0.0,0.67,,,,,,,,,,,,,,,,,,
3237,0,0.0,0.68,,,,,,,,,,,,,,,,,,
3239,0,0.0,0.67,,,,,,,,,,,,,,,,,,
3241,0,0.0,0.67,,,,,,,,,,,,,,,,,,
3243,0,0.0,0.67,,0.08,0.1,0.94,-1,-2,-1,0.12,28,1980,0,0.0,0.0,0.0,0.0,0,0,0.0
3245,0,0.0,0.67,,,,,,,,,,,,,,,,,,
3247,0,0.0,0.67,,,,,,,,,,,,,,,,,,
3249,0,0.0,0.67,,,,,,,,,,,,,,,,,,
3251,0,0.0,0.67,,,,,,,,,,,,,,,,,,
3253,0,0.0,0.67,,0.0,0.07,1.15,0,-2,-1,0.07,,,,,,,,,,
