"Interval"|"ms"|0|0|1,"Utc"|"ms"|0|0|1,"Analog4"|"Volts"|0.0|5.0|500,"Analog5"|"Volts"|0.0|5.0|500,"Battery"|"Volts"|0.0|20.0|1,"AccelX"|"G"|-3.0|3.0|200,"AccelY"|"G"|-3.0|3.0|200,"AccelZ"|"G"|-3.0|3.0|200,"Yaw"|"Deg/Sec"|-120|120|200,"Pitch"|"Deg/Sec"|-120|120|200,"Roll"|"Deg/Sec"|-120|120|200,"Gsum"|"G"|0.0|3.0|200,"RPM2"|"rpm"|0|8000|50,"RPM3"|"rpm"|0|8000|50,"GPIO1"|""|0.0|1.0|50,"Latitude"|"Degrees"|-180.0|180.0|50,"Longitude"|"Degrees"|-180.0|180.0|50,"Speed"|"mph"|0.0|150.0|50,"Altitude"|"ft"|0.0|4000.0|50,"GPSSats"|""|0|20|50,"GPSQual"|""|0|5|50,"GPSDOP"|""|0.0|20.0|50
107,0,0.0,0.26,,,,,,,,,,,,,,,,,,
109,0,0.0,0.26,,,,,,,,,,,,,,,,,,
111,0,0.0,0.26,,,,,,,,,,,,,,,,,,
113,0,0.0,0.26,,-0.03,0.04,0.97,0,-1,-0,0.04,,,,,,,,,,
115,0,0.0,0.26,,,,,,,,,,,,,,,,,,
117,0,0.0,0.26,,,,,,,,,,,,,,,,,,
119,0,0.0,0.26,,,,,,,,,,,,,,,,,,
121,0,0.0,0.26,,,,,,,,,,,,,,,,,,
123,0,0.0,0.26,,-0.01,0.11,0.96,0,-0,-0,0.12,0,2040,0,0.0,0.0,0.0,0.0,0,0,0.0
125,0,0.0,0.26,,,,,,,,,,,,,,,,,,
127,0,0.0,0.26,,,,,,,,,,,,,,,,,,
129,0,0.0,0.26,,,,,,,,,,,,,,,,,,
131,0,0.0,0.26,,,,,,,,,,,,,,,,,,
133,0,0.0,0.26,,-0.16,0.09,1.08,0,-0,-1,0.19,,,,,,,,,,
135,0,0.0,0.26,,,,,,,,,,,,,,,,,,
137,0,0.0,0.26,,,,,,,,,,,,,,,,,,
139,0,0.0,0.26,,,,,,,,,,,,,,,,,,
141,0,0.0,0.26,,,,,,,,,,,,,,,,,,
143,0,0.0,0.26,,0.03,0.05,0.99,0,-1,-0,0.05,0,2040,0,0.0,0.0,0.0,0.0,0,0,0.0
145,0,0.0,0.26,,,,,,,,,,,,,,,,,,
147,0,0.0,0.28,,,,,,,,,,,,,,,,,,
149,0,0.0,0.27,,,,,,,,,,,,,,,,,,
151,0,0.0,0.27,,,,,,,,,,,,,,,,,,
153,0,0.0,0.27,,-0.08,0.08,0.95,-0,0,-0,0.11,,,,,,,,,,
155,0,0.0,0.27,,,,,,,,,,,,,,,,,,
157,0,0.0,0.26,,,,,,,,,,,,,,,,,,
159,0,0.0,0.27,,,,,,,,,,,,,,,,,,
161,0,0.0,0.27,,,,,,,,,,,,,,,,,,
163,0,0.0,0.27,,-0.17,0.09,1.08,0,0,-0,0.19,0,2040,0,0.0,0.0,0.0,0.0,0,0,0.0
165,0,0.0,0.27,,,,,,,,,,,,,,,,,,
167,0,0.0,0.26,,,,,,,,,,,,,,,,,,
169,0,0.0,0.27,,,,,,,,,,,,,,,,,,
171,0,0.0,0.27,,,,,,,,,,,,,,,,,,
173,0,0.0,0.27,,-0.01,0.06,1.0,0,-1,-0,0.07,,,,,,,,,,
175,0,0.0,0.28,,,,,,,,,,,,,,,,,,
177,0,0.0,0.27,,,,,,,,,,,,,,,,,,
179,0,0.0,0.27,,,,,,,,,,,,,,,,,,
181,0,0.0,0.27,,,,,,,,,,,,,,,,,,
183,0,0.0,0.27,,-0.08,0.08,0.96,0,-0,-0,0.11,0,2040,0,0.0,0.0,0.0,0.0,0,0,0.0
185,0,0.0,0.27,,,,,,,,,,,,,,,,,,
187,0,0.0,0.27,,,,,,,,,,,,,,,,,,
189,0,0.0,0.27,,,,,,,,,,,,,,,,,,
191,0,0.0,0.27,,,,,,,,,,,,,,,,,,
193,0,0.0,0.27,,-0.1,0.06,1.05,0,0,-0,0.12,,,,,,,,,,
195,0,0.0,0.27,,,,,,,,,,,,,,,,,,
197,0,0.0,0.27,,,,,,,,,,,,,,,,,,
199,0,0.0,0.27,,,,,,,,,,,,,,,,,,
201,0,0.0,0.27,,,,,,,,,,,,,,,,,,
203,0,0.0,0.27,,0.02,0.07,0.99,0,-0,-0,0.08,0,2040,0,0.0,0.0,0.0,0.0,0,0,0.0
205,0,0.0,0.29,,,,,,,,,,,,,,,,,,
207,0,0.0,0.28,,,,,,,,,,,,,,,,,,
209,0,0.0,0.28,,,,,,,,,,,,,,,,,,
211,0,0.0,0.28,,,,,,,,,,,,,,,,,,
213,0,0.0,0.27,,-0.1,0.08,0.94,-0,-0,-1,0.12,,,,,,,,,,
215,0,0.0,0.27,,,,,,,,,,,,,,,,,,
217,0,0.0,0.27,,,,,,,,,,,,,,,,,,
219,0,0.0,0.28,,,,,,,,,,,,,,,,,,
221,0,0.0,0.28,,,,,,,,,,,,,,,,,,
223,0,0.0,0.28,,-0.12,0.04,1.01,0,-0,-0,0.13,0,2040,0,0.0,0.0,0.0,0.0,0,0,0.0
225,0,0.0,0.28,,,,,,,,,,,,,,,,,,
227,0,0.0,0.28,,,,,,,,,,,,,,,,,,
229,0,0.0,0.27,,,,,,,,,,,,,,,,,,
231,0,0.0,0.28,,,,,,,,,,,,,,,,,,
233,0,0.0,0.29,,0.01,0.1,1.0,-0,-0,-0,0.1,,,,,,,,,,
235,0,0.0,0.28,,,,,,,,,,,,,,,,,,
237,0,0.0,0.28,,,,,,,,,,,,,,,,,,
239,0,0.0,0.28,,,,,,,,,,,,,,,,,,
241,0,0.0,0.28,,,,,,,,,,,,,,,,,,
243,0,0.0,0.28,,-0.17,0.07,0.95,-0,-0,-1,0.18,0,2040,0,0.0,0.0,0.0,0.0,0,0,0.0
245,0,0.0,0.28,,,,,,,,,,,,,,,,,,
247,0,0.0,0.28,,,,,,,,,,,,,,,,,,
249,0,0.0,0.28,,,,,,,,,,,,,,,,,,
251,0,0.0,0.28,,,,,,,,,,,,,,,,,,
253,0,0.0,0.28,,-0.08,0.02,1.04,0,-1,-0,0.08,,,,,,,,,,
255,0,0.0,0.28,,,,,,,,,,,,,,,,,,
257,0,0.0,0.28,,,,,,,,,,,,,,,,,,
259,0,0.0,0.28,,,,,,,,,,,,,,,,,,
261,0,0.0,0.28,,,,,,,,,,,,,,,,,,
263,0,0.0,0.29,,-0.0,0.09,0.97,-0,0,-0,0.09,0,2040,0,0.0,0.0,0.0,0.0,0,0,0.0
265,0,0.0,0.29,,,,,,,,,,,,,,,,,,
267,0,0.0,0.29,,,,,,,,,,,,,,,,,,
269,0,0.0,0.28,,,,,,,,,,,,,,,,,,
271,0,0.0,0.29,,,,,,,,,,,,,,,,,,
273,0,0.0,0.28,,-0.16,0.1,1.0,-0,-0,-1,0.19,,,,,,,,,,
275,0,0.0,0.28,,,,,,,,,,,,,,,,,,
277,0,0.0,0.28,,,,,,,,,,,,,,,,,,
279,0,0.0,0.28,,,,,,,,,,,,,,,,,,
281,0,0.0,0.28,,,,,,,,,,,,,,,,,,
283,0,0.0,0.28,,-0.07,0.01,0.92,0,-1,0,0.08,0,2040,0,0.0,0.0,0.0,0.0,0,0,0.0
285,0,0.0,0.29,,,,,,,,,,,,,,,,,,
287,0,0.0,0.29,,,,,,,,,,,,,,,,,,
289,0,0.0,0.29,,,,,,,,,,,,,,,,,,
291,0,0.0,0.3,,,,,,,,,,,,,,,,,,
293,0,0.0,0.29,,0.02,0.11,0.99,0,0,-0,0.11,,,,,,,,,,
295,0,0.0,0.29,,,,,,,,,,,,,,,,,,
297,0,0.0,0.29,,,,,,,,,,,,,,,,,,
299,0,0.0,0.29,,,,,,,,,,,,,,,,,,
301,0,0.0,0.29,,,,,,,,,,,,,,,,,,
303,0,0.0,0.29,,-0.23,0.09,1.04,0,-0,-1,0.25,0,2040,0,0.0,0.0,0.0,0.0,0,0,0.0
305,0,0.0,0.29,,,,,,,,,,,,,,,,,,
307,0,0.0,0.29,,,,,,,,,,,,,,,,,,
309,0,0.0,0.29,,,,,,,,,,,,,,,,,,
311,0,0.0,0.29,,,,,,,,,,,,,,,,,,
313,0,0.0,0.29,,-0.03,0.01,1.0,0,-1,-0,0.03,,,,,,,,,,
315,0,0.0,0.29,,,,,,,,,,,,,,,,,,
317,0,0.0,0.29,,,,,,,,,,,,,,,,,,
319,0,0.0,0.3,,,,,,,,,,,,,,,,,,
321,0,0.0,0.3,,,,,,,,,,,,,,,,,,
323,0,0.0,0.3,,-0.03,0.09,0.94,0,0,-0,0.09,0,2040,0,0.0,0.0,0.0,0.0,0,0,0.0
325,0,0.0,0.3,,,,,,,,,,,,,,,,,,
327,0,0.0,0.29,,,,,,,,,,,,,,,,,,
329,0,0.0,0.3,,,,,,,,,,,,,,,,,,
331,0,0.0,0.29,,,,,,,,,,,,,,,,,,
333,0,0.0,0.29,,-0.2,0.11,1.05,0,-0,-1,0.23,,,,,,,,,,
335,0,0.0,0.29,,,,,,,,,,,,,,,,,,
337,0,0.0,0.29,,,,,,,,,,,,,,,,,,
339,0,0.0,0.3,,,,,,,,,,,,,,,,,,
341,0,0.0,0.3,,,,,,,,,,,,,,,,,,
343,0,0.0,0.3,,-0.04,0.03,0.91,0,-1,-0,0.05,0,2040,0,0.0,0.0,0.0,0.0,0,0,0.0
345,0,0.0,0.3,,,,,,,,,,,,,,,,,,
347,0,0.0,0.3,,,,,,,,,,,,,,,,,,
349,0,0.0,0.31,,,,,,,,,,,,,,,,,,
351,0,0.0,0.3,,,,,,,,,,,,,,,,,,
353,0,0.0,0.3,,-0.0,0.12,0.95,0,-0,-0,0.12,,,,,,,,,,
355,0,0.0,0.3,,,,,,,,,,,,,,,,,,
357,0,0.0,0.3,,,,,,,,,,,,,,,,,,
359,0,0.0,0.3,,,,,,,,,,,,,,,,,,
361,0,0.0,0.3,,,,,,,,,,,,,,,,,,
363,0,0.0,0.3,,-0.18,0.11,1.06,0,-0,-1,0.21,0,2040,0,0.0,0.0,0.0,0.0,0,0,0.0
365,0,0.0,0.3,,,,,,,,,,,,,,,,,,
367,0,0.0,0.3,,,,,,,,,,,,,,,,,,
369,0,0.0,0.3,,,,,,,,,,,,,,,,,,
371,0,0.0,0.3,,,,,,,,,,,,,,,,,,
373,0,0.0,0.3,,0.02,0.03,0.97,0,-1,-0,0.04,,,,,,,,,,
375,0,0.0,0.3,,,,,,,,,,,,,,,,,,
377,0,0.0,0.32,,,,,,,,,,,,,,,,,,
379,0,0.0,0.31,,,,,,,,,,,,,,,,,,
381,0,0.0,0.31,,,,,,,,,,,,,,,,,,
383,0,0.0,0.31,,-0.07,0.08,0.94,-0,0,-0,0.1,0,2040,0,0.0,0.0,0.0,0.0,0,0,0.0
385,0,0.0,0.31,,,,,,,,,,,,,,,,,,
387,0,0.0,0.31,,,,,,,,,,,,,,,,,,
389,0,0.0,0.3,,,,,,,,,,,,,,,,,,
391,0,0.0,0.3,,,,,,,,,,,,,,,,,,
393,0,0.0,0.3,,-0.2,0.09,1.11,0,-0,-1,0.22,,,,,,,,,,
395,0,0.0,0.31,,,,,,,,,,,,,,,,,,
397,0,0.0,0.31,,,,,,,,,,,,,,,,,,
399,0,0.0,0.3,,,,,,,,,,,,,,,,,,
401,0,0.0,0.31,,,,,,,,,,,,,,,,,,
403,0,0.0,0.31,,-0.02,0.04,0.97,0,-1,-0,0.04,0,2040,0,0.0,0.0,0.0,0.0,0,0,0.0
405,0,0.0,0.31,,,,,,,,,,,,,,,,,,
407,0,0.0,0.32,,,,,,,,,,,,,,,,,,
409,0,0.0,0.31,,,,,,,,,,,,,,,,,,
411,0,0.0,0.31,,,,,,,,,,,,,,,,,,
413,0,0.0,0.31,,-0.04,0.08,0.94,0,-0,-0,0.09,,,,,,,,,,
415,0,0.0,0.31,,,,,,,,,,,,,,,,,,
451,0,0.0,0.32,,,,,,,,,,,,,,,,,,
453,0,0.0,0.32,,-0.15,0.07,1.05,0,0,-0,0.17,,,,,,,,,,
455,0,0.0,0.31,,,,,,,,,,,,,,,,,,
457,0,0.0,0.32,,,,,,,,,,,,,,,,,,
459,0,0.0,0.32,,,,,,,,,,,,,,,,,,
461,0,0.0,0.32,,,,,,,,,,,,,,,,,,
463,0,0.0,0.32,,-0.01,0.08,1.01,0,-0,-0,0.08,0,2040,0,0.0,0.0,0.0,0.0,0,0,0.0
465,0,0.0,0.33,,,,,,,,,,,,,,,,,,
467,0,0.0,0.32,,,,,,,,,,,,,,,,,,
469,0,0.0,0.32,,,,,,,,,,,,,,,,,,
471,0,0.0,0.32,,,,,,,,,,,,,,,,,,
473,0,0.0,0.32,,-0.1,0.06,0.94,0,-0,-0,0.12,,,,,,,,,,
475,0,0.0,0.32,,,,,,,,,,,,,,,,,,
477,0,0.0,0.32,,,,,,,,,,,,,,,,,,
479,0,0.0,0.32,,,,,,,,,,,,,,,,,,
481,0,0.0,0.32,,,,,,,,,,,,,,,,,,
483,0,0.0,0.32,,-0.09,0.05,1.05,0,-0,-0,0.1,0,2040,0,0.0,0.0,0.0,0.0,0,0,0.0
485,0,0.0,0.32,,,,,,,,,,,,,,,,,,
487,0,0.0,0.32,,,,,,,,,,,,,,,,,,
489,0,0.0,0.32,,,,,,,,,,,,,,,,,,
491,0,0.0,0.32,,,,,,,,,,,,,,,,,,
493,0,0.0,0.34,,0.01,0.08,1.0,0,-0,0,0.08,,,,,,,,,,
495,0,0.0,0.33,,,,,,,,,,,,,,,,,,
497,0,0.0,0.33,,,,,,,,,,,,,,,,,,
499,0,0.0,0.33,,,,,,,,,,,,,,,,,,
501,0,0.0,0.33,,,,,,,,,,,,,,,,,,
503,0,0.0,0.33,,-0.12,0.08,0.96,0,-0,-0,0.14,0,2040,0,0.0,0.0,0.0,0.0,0,0,0.0
505,0,0.0,0.33,,,,,,,,,,,,,,,,,,
507,0,0.0,0.33,,,,,,,,,,,,,,,,,,
509,0,0.0,0.33,,,,,,,,,,,,,,,,,,
511,0,0.0,0.33,,,,,,,,,,,,,,,,,,
513,0,0.0,0.33,,-0.11,0.05,0.97,0,-1,-0,0.12,,,,,,,,,,
515,0,0.0,0.33,,,,,,,,,,,,,,,,,,
517,0,0.0,0.32,,,,,,,,,,,,,,,,,,
519,0,0.0,0.33,,,,,,,,,,,,,,,,,,
521,0,0.0,0.33,,,,,,,,,,,,,,,,,,
523,0,0.0,0.34,,0.02,0.1,0.99,0,-0,-0,0.1,0,2040,0,0.0,0.0,0.0,0.0,0,0,0.0
525,0,0.0,0.33,,,,,,,,,,,,,,,,,,
527,0,0.0,0.33,,,,,,,,,,,,,,,,,,
529,0,0.0,0.33,,,,,,,,,,,,,,,,,,
531,0,0.0,0.33,,,,,,,,,,,,,,,,,,
533,0,0.0,0.33,,-0.2,0.07,0.98,-0,-0,-1,0.21,,,,,,,,,,
535,0,0.0,0.33,,,,,,,,,,,,,,,,,,
537,0,0.0,0.33,,,,,,,,,,,,,,,,,,
539,0,0.0,0.33,,,,,,,,,,,,,,,,,,
541,0,0.0,0.33,,,,,,,,,,,,,,,,,,
543,0,0.0,0.33,,-0.07,0.02,1.03,0,-1,-0,0.07,0,2040,0,0.0,0.0,0.0,0.0,0,0,0.0
545,0,0.0,0.34,,,,,,,,,,,,,,,,,,
547,0,0.0,0.34,,,,,,,,,,,,,,,,,,
549,0,0.0,0.34,,,,,,,,,,,,,,,,,,
551,0,0.0,0.34,,,,,,,,,,,,,,,,,,
553,0,0.0,0.34,,-0.02,0.08,0.97,-0,0,-0,0.08,,,,,,,,,,
555,0,0.0,0.34,,,,,,,,,,,,,,,,,,
557,0,0.0,0.34,,,,,,,,,,,,,,,,,,
559,0,0.0,0.34,,,,,,,,,,,,,,,,,,
561,0,0.0,0.34,,,,,,,,,,,,,,,,,,
563,0,0.0,0.34,,-0.18,0.1,1.04,-0,-0,-1,0.2,0,2040,0,0.0,0.0,0.0,0.0,0,0,0.0
565,0,0.0,0.34,,,,,,,,,,,,,,,,,,
567,0,0.0,0.34,,,,,,,,,,,,,,,,,,
569,0,0.0,0.34,,,,,,,,,,,,,,,,,,
571,0,0.0,0.34,,,,,,,,,,,,,,,,,,
573,0,0.0,0.34,,-0.06,0.02,0.92,0,-1,0,0.07,,,,,,,,,,
575,0,0.0,0.34,,,,,,,,,,,,,,,,,,
577,0,0.0,0.34,,,,,,,,,,,,,,,,,,
579,0,0.0,0.34,,,,,,,,,,,,,,,,,,
581,0,0.0,0.34,,,,,,,,,,,,,,,,,,
583,0,0.0,0.34,,0.01,0.13,0.94,0,0,-0,0.13,0,2040,0,0.0,0.0,0.0,0.0,0,0,0.0
585,0,0.0,0.34,,,,,,,,,,,,,,,,,,
587,0,0.0,0.34,,,,,,,,,,,,,,,,,,
589,0,0.0,0.34,,,,,,,,,,,,,,,,,,
591,0,0.0,0.34,,,,,,,,,,,,,,,,,,
593,0,0.0,0.34,,-0.21,0.12,1.04,0,-0,-1,0.24,,,,,,,,,,
595,0,0.0,0.34,,,,,,,,,,,,,,,,,,
597,0,0.0,0.34,,,,,,,,,,,,,,,,,,
599,0,0.0,0.34,,,,,,,,,,,,,,,,,,
601,0,0.0,0.34,,,,,,,,,,,,,,,,,,
603,0,0.0,0.34,,-0.01,0.02,0.97,0,-1,-0,0.02,0,2040,0,0.0,0.0,0.0,0.0,0,0,0.0
605,0,0.0,0.35,,,,,,,,,,,,,,,,,,
607,0,0.0,0.35,,,,,,,,,,,,,,,,,,
609,0,0.0,0.36,,,,,,,,,,,,,,,,,,
611,0,0.0,0.35,,,,,,,,,,,,,,,,,,
613,0,0.0,0.35,,-0.05,0.09,0.92,-0,0,-0,0.1,,,,,,,,,,
615,0,0.0,0.35,,,,,,,,,,,,,,,,,,
617,0,0.0,0.35,,,,,,,,,,,,,,,,,,
619,0,0.0,0.35,,,,,,,,,,,,,,,,,,
621,0,0.0,0.35,,,,,,,,,,,,,,,,,,
623,0,0.0,0.35,,-0.2,0.11,1.09,0,-0,-1,0.23,0,2040,0,0.0,0.0,0.0,0.0,0,0,0.0
625,0,0.0,0.35,,,,,,,,,,,,,,,,,,
627,0,0.0,0.35,,,,,,,,,,,,,,,,,,
629,0,0.0,0.35,,,,,,,,,,,,,,,,,,
631,0,0.0,0.35,,,,,,,,,,,,,,,,,,
633,0,0.0,0.35,,-0.03,0.02,0.93,0,-1,-0,0.04,,,,,,,,,,
635,0,0.0,0.35,,,,,,,,,,,,,,,,,,
637,0,0.0,0.36,,,,,,,,,,,,,,,,,,
639,0,0.0,0.35,,,,,,,,,,,,,,,,,,
641,0,0.0,0.35,,,,,,,,,,,,,,,,,,
643,0,0.0,0.35,,-0.0,0.1,0.94,0,-0,-0,0.1,0,2040,0,0.0,0.0,0.0,0.0,0,0,0.0
645,0,0.0,0.35,,,,,,,,,,,,,,,,,,
647,0,0.0,0.35,,,,,,,,,,,,,,,,,,
649,0,0.0,0.35,,,,,,,,,,,,,,,,,,
651,0,0.0,0.36,,,,,,,,,,,,,,,,,,
653,0,0.0,0.36,,-0.16,0.1,1.07,0,-0,-1,0.19,,,,,,,,,,
655,0,0.0,0.35,,,,,,,,,,,,,,,,,,
657,0,0.0,0.36,,,,,,,,,,,,,,,,,,
659,0,0.0,0.36,,,,,,,,,,,,,,,,,,
661,0,0.0,0.35,,,,,,,,,,,,,,,,,,
663,0,0.0,0.36,,0.01,0.05,0.99,0,-1,-0,0.05,0,2040,0,0.0,0.0,0.0,0.0,0,0,0.0
665,0,0.0,0.36,,,,,,,,,,,,,,,,,,
667,0,0.0,0.37,,,,,,,,,,,,,,,,,,
669,0,0.0,0.36,,,,,,,,,,,,,,,,,,
671,0,0.0,0.36,,,,,,,,,,,,,,,,,,
673,0,0.0,0.36,,-0.07,0.08,0.94,-0,-0,-0,0.11,,,,,,,,,,
675,0,0.0,0.36,,,,,,,,,,,,,,,,,,
677,0,0.0,0.36,,,,,,,,,,,,,,,,,,
679,0,0.0,0.36,,,,,,,,,,,,,,,,,,
681,0,0.0,0.36,,,,,,,,,,,,,,,,,,
683,0,0.0,0.36,,-0.18,0.09,1.07,0,0,-0,0.2,0,2040,0,0.0,0.0,0.0,0.0,0,0,0.0
685,0,0.0,0.36,,,,,,,,,,,,,,,,,,
687,0,0.0,0.36,,,,,,,,,,,,,,,,,,
689,0,0.0,0.36,,,,,,,,,,,,,,,,,,
691,0,0.0,0.36,,,,,,,,,,,,,,,,,,
693,0,0.0,0.36,,-0.02,0.04,1.0,0,-1,-0,0.05,,,,,,,,,,
695,0,0.0,0.37,,,,,,,,,,,,,,,,,,
697,0,0.0,0.36,,,,,,,,,,,,,,,,,,
699,0,0.0,0.37,,,,,,,,,,,,,,,,,,
701,0,0.0,0.36,,,,,,,,,,,,,,,,,,
703,0,0.0,0.36,,-0.06,0.07,0.94,-0,-0,-0,0.09,0,2040,0,0.0,0.0,0.0,0.0,0,0,0.0
705,0,0.0,0.36,,,,,,,,,,,,,,,,,,
707,0,0.0,0.36,,,,,,,,,,,,,,,,,,
709,0,0.0,0.36,,,,,,,,,,,,,,,,,,
711,0,0.0,0.36,,,,,,,,,,,,,,,,,,
713,0,0.0,0.37,,-0.11,0.08,1.05,0,0,-0,0.14,,,,,,,,,,
715,0,0.0,0.37,,,,,,,,,,,,,,,,,,
717,0,0.0,0.36,,,,,,,,,,,,,,,,,,
719,0,0.0,0.37,,,,,,,,,,,,,,,,,,
721,0,0.0,0.37,,,,,,,,,,,,,,,,,,
723,0,0.0,0.37,,0.0,0.08,1.0,-0,-1,-0,0.08,0,2040,0,0.0,0.0,0.0,0.0,0,0,0.0
725,0,0.0,0.38,,,,,,,,,,,,,,,,,,
727,0,0.0,0.37,,,,,,,,,,,,,,,,,,
729,0,0.0,0.37,,,,,,,,,,,,,,,,,,
731,0,0.0,0.37,,,,,,,,,,,,,,,,,,
733,0,0.0,0.37,,-0.09,0.08,0.94,-0,-0,-1,0.12,,,,,,,,,,
735,0,0.0,0.37,,,,,,,,,,,,,,,,,,
737,0,0.0,0.37,,,,,,,,,,,,,,,,,,
739,0,0.0,0.37,,,,,,,,,,,,,,,,,,
741,0,0.0,0.37,,,,,,,,,,,,,,,,,,
743,0,0.0,0.37,,-0.14,0.07,1.03,0,0,-0,0.16,0,2040,0,0.0,0.0,0.0,0.0,0,0,0.0
745,0,0.0,0.37,,,,,,,,,,,,,,,,,,
747,0,0.0,0.37,,,,,,,,,,,,,,,,,,
749,0,0.0,0.37,,,,,,,,,,,,,,,,,,
751,0,0.0,0.37,,,,,,,,,,,,,,,,,,
753,0,0.0,0.38,,0.0,0.1,1.01,-0,-0,-0,0.1,,,,,,,,,,
755,0,0.0,0.38,,,,,,,,,,,,,,,,,,
757,0,0.0,0.38,,,,,,,,,,,,,,,,,,
759,0,0.0,0.38,,,,,,,,,,,,,,,,,,
761,0,0.0,0.37,,,,,,,,,,,,,,,,,,
763,0,0.0,0.37,,-0.13,0.07,0.91,-0,-0,-1,0.15,0,2040,0,0.0,0.0,0.0,0.0,0,0,0.0
765,0,0.0,0.37,,,,,,,,,,,,,,,,,,
767,0,0.0,0.37,,,,,,,,,,,,,,,,,,
769,0,0.0,0.38,,,,,,,,,,,,,,,,,,
771,0,0.0,0.38,,,,,,,,,,,,,,,,,,
773,0,0.0,0.38,,-0.08,0.04,1.05,0,-0,-0,0.09,,,,,,,,,,
775,0,0.0,0.38,,,,,,,,,,,,,,,,,,
777,0,0.0,0.38,,,,,,,,,,,,,,,,,,
779,0,0.0,0.38,,,,,,,,,,,,,,,,,,
781,0,0.0,0.38,,,,,,,,,,,,,,,,,,
783,0,0.0,0.39,,-0.01,0.09,0.97,-0,0,-0,0.09,0,2040,0,0.0,0.0,0.0,0.0,0,0,0.0
785,0,0.0,0.38,,,,,,,,,,,,,,,,,,
787,0,0.0,0.38,,,,,,,,,,,,,,,,,,
789,0,0.0,0.38,,,,,,,,,,,,,,,,,,
791,0,0.0,0.38,,,,,,,,,,,,,,,,,,
793,0,0.0,0.38,,-0.13,0.09,0.97,-0,-0,-1,0.16,,,,,,,,,,
795,0,0.0,0.38,,,,,,,,,,,,,,,,,,
797,0,0.0,0.38,,,,,,,,,,,,,,,,,,
799,0,0.0,0.38,,,,,,,,,,,,,,,,,,
801,0,0.0,0.38,,,,,,,,,,,,,,,,,,
803,0,0.0,0.38,,-0.07,0.03,0.89,0,-1,-0,0.08,0,2040,0,0.0,0.0,0.0,0.0,0,0,0.0
805,0,0.0,0.38,,,,,,,,,,,,,,,,,,
807,0,0.0,0.38,,,,,,,,,,,,,,,,,,
809,0,0.0,0.38,,,,,,,,,,,,,,,,,,
811,0,0.0,0.39,,,,,,,,,,,,,,,,,,
813,0,0.0,0.38,,0.04,0.13,0.94,0,0,-0,0.14,,,,,,,,,,
815,0,0.0,0.39,,,,,,,,,,,,,,,,,,
817,0,0.0,0.38,,,,,,,,,,,,,,,,,,
819,0,0.0,0.38,,,,,,,,,,,,,,,,,,
821,0,0.0,0.38,,,,,,,,,,,,,,,,,,
823,0,0.0,0.38,,-0.21,0.1,0.97,-0,-0,-1,0.24,0,2040,0,0.0,0.0,0.0,0.0,0,0,0.0
825,0,0.0,0.39,,,,,,,,,,,,,,,,,,
827,0,0.0,0.38,,,,,,,,,,,,,,,,,,
829,0,0.0,0.38,,,,,,,,,,,,,,,,,,
831,0,0.0,0.39,,,,,,,,,,,,,,,,,,
833,0,0.0,0.39,,-0.05,0.01,1.01,0,-1,-0,0.05,,,,,,,,,,
835,0,0.0,0.39,,,,,,,,,,,,,,,,,,
837,0,0.0,0.39,,,,,,,,,,,,,,,,,,
839,0,0.0,0.39,,,,,,,,,,,,,,,,,,
841,0,0.0,0.4,,,,,,,,,,,,,,,,,,
843,0,0.0,0.39,,-0.04,0.07,0.92,0,0,-0,0.08,0,2040,0,0.0,0.0,0.0,0.0,0,0,0.0
845,0,0.0,0.39,,,,,,,,,,,,,,,,,,
847,0,0.0,0.39,,,,,,,,,,,,,,,,,,
849,0,0.0,0.39,,,,,,,,,,,,,,,,,,
851,0,0.0,0.39,,,,,,,,,,,,,,,,,,
853,0,0.0,0.39,,-0.2,0.1,1.06,0,-0,-1,0.22,,,,,,,,,,
855,0,0.0,0.39,,,,,,,,,,,,,,,,,,
857,0,0.0,0.39,,,,,,,,,,,,,,,,,,
859,0,0.0,0.39,,,,,,,,,,,,,,,,,,
861,0,0.0,0.39,,,,,,,,,,,,,,,,,,
863,0,0.0,0.39,,-0.04,0.01,0.93,0,-1,-0,0.04,0,2040,0,0.0,0.0,0.0,0.0,0,0,0.0
865,0,0.0,0.39,,,,,,,,,,,,,,,,,,
867,0,0.0,0.39,,,,,,,,,,,,,,,,,,
869,0,0.0,0.4,,,,,,,,,,,,,,,,,,
871,0,0.0,0.4,,,,,,,,,,,,,,,,,,
873,0,0.0,0.4,,0.01,0.1,0.93,0,0,-0,0.1,,,,,,,,,,
875,0,0.0,0.39,,,,,,,,,,,,,,,,,,
877,0,0.0,0.4,,,,,,,,,,,,,,,,,,
879,0,0.0,0.4,,,,,,,,,,,,,,,,,,
881,0,0.0,0.4,,,,,,,,,,,,,,,,,,
883,0,0.0,0.4,,-0.18,0.1,1.08,0,-0,-1,0.2,0,2040,0,0.0,0.0,0.0,0.0,0,0,0.0
885,0,0.0,0.4,,,,,,,,,,,,,,,,,,
887,0,0.0,0.4,,,,,,,,,,,,,,,,,,
889,0,0.0,0.39,,,,,,,,,,,,,,,,,,
891,0,0.0,0.4,,,,,,,,,,,,,,,,,,
893,0,0.0,0.4,,0.0,0.03,0.99,0,-1,-0,0.03,,,,,,,,,,
895,0,0.0,0.4,,,,,,,,,,,,,,,,,,
897,0,0.0,0.4,,,,,,,,,,,,,,,,,,
899,0,0.0,0.4,,,,,,,,,,,,,,,,,,
901,0,0.0,0.4,,,,,,,,,,,,,,,,,,
903,0,0.0,0.4,,-0.07,0.08,0.94,-0,0,-0,0.1,0,2040,0,0.0,0.0,0.0,0.0,0,0,0.0
905,0,0.0,0.4,,,,,,,,,,,,,,,,,,
907,0,0.0,0.4,,,,,,,,,,,,,,,,,,
909,0,0.0,0.4,,,,,,,,,,,,,,,,,,
911,0,0.0,0.4,,,,,,,,,,,,,,,,,,
913,0,0.0,0.4,,-0.2,0.09,1.09,0,-0,-1,0.22,,,,,,,,,,
915,0,0.0,0.4,,,,,,,,,,,,,,,,,,
917,0,0.0,0.4,,,,,,,,,,,,,,,,,,
919,0,0.0,0.4,,,,,,,,,,,,,,,,,,
921,0,0.0,0.4,,,,,,,,,,,,,,,,,,
923,0,0.0,0.4,,-0.03,0.03,0.98,0,-1,-0,0.04,0,2040,0,0.0,0.0,0.0,0.0,0,0,0.0
925,0,0.0,0.4,,,,,,,,,,,,,,,,,,
927,0,0.0,0.41,,,,,,,,,,,,,,,,,,
929,0,0.0,0.4,,,,,,,,,,,,,,,,,,
931,0,0.0,0.41,,,,,,,,,,,,,,,,,,
933,0,0.0,0.41,,-0.05,0.07,0.93,0,-0,-0,0.09,,,,,,,,,,
935,0,0.0,0.41,,,,,,,,,,,,,,,,,,
937,0,0.0,0.41,,,,,,,,,,,,,,,,,,
939,0,0.0,0.4,,,,,,,,,,,,,,,,,,
941,0,0.0,0.41,,,,,,,,,,,,,,,,,,
943,0,0.0,0.41,,-0.11,0.07,1.06,0,0,-0,0.13,0,2040,0,0.0,0.0,0.0,0.0,0,0,0.0
945,0,0.0,0.41,,,,,,,,,,,,,,,,,,
947,0,0.0,0.41,,,,,,,,,,,,,,,,,,
949,0,0.0,0.41,,,,,,,,,,,,,,,,,,
951,0,0.0,0.41,,,,,,,,,,,,,,,,,,
953,0,0.0,0.41,,0.0,0.04,0.99,0,-1,-0,0.04,,,,,,,,,,
955,0,0.0,0.42,,,,,,,,,,,,,,,,,,
957,0,0.0,0.41,,,,,,,,,,,,,,,,,,
959,0,0.0,0.42,,,,,,,,,,,,,,,,,,
961,0,0.0,0.41,,,,,,,,,,,,,,,,,,
963,0,0.0,0.41,,-0.08,0.06,0.93,-0,0,-0,0.1,0,2040,0,0.0,0.0,0.0,0.0,0,0,0.0
965,0,0.0,0.41,,,,,,,,,,,,,,,,,,
967,0,0.0,0.41,,,,,,,,,,,,,,,,,,
969,0,0.0,0.41,,,,,,,,,,,,,,,,,,
971,0,0.0,0.41,,,,,,,,,,,,,,,,,,
973,0,0.0,0.41,,-0.14,0.07,1.03,0,0,-0,0.16,,,,,,,,,,
975,0,0.0,0.41,,,,,,,,,,,,,,,,,,
977,0,0.0,0.41,,,,,,,,,,,,,,,,,,
979,0,0.0,0.41,,,,,,,,,,,,,,,,,,
981,0,0.0,0.41,,,,,,,,,,,,,,,,,,
983,0,0.0,0.41,,-0.01,0.09,1.01,0,-1,-0,0.09,0,2040,0,0.0,0.0,0.0,0.0,0,0,0.0
985,0,0.0,0.43,,,,,,,,,,,,,,,,,,
987,0,0.0,0.42,,,,,,,,,,,,,,,,,,
989,0,0.0,0.42,,,,,,,,,,,,,,,,,,
991,0,0.0,0.42,,,,,,,,,,,,,,,,,,
993,0,0.0,0.42,,-0.11,0.07,0.94,-0,-0,-0,0.13,,,,,,,,,,
995,0,0.0,0.42,,,,,,,,,,,,,,,,,,
997,0,0.0,0.42,,,,,,,,,,,,,,,,,,
999,0,0.0,0.41,,,,,,,,,,,,,,,,,,
1001,0,0.0,0.42,,,,,,,,,,,,,,,,,,
1003,0,0.0,0.42,,-0.1,0.06,1.04,0,0,-0,0.11,0,2040,0,0.0,0.0,0.0,0.0,0,0,0.0
1005,0,0.0,0.42,,,,,,,,,,,,,,,,,,
1007,0,0.0,0.42,,,,,,,,,,,,,,,,,,
1009,0,0.0,0.42,,,,,,,,,,,,,,,,,,
1011,0,0.0,0.42,,,,,,,,,,,,,,,,,,
1013,0,0.0,0.43,,-0.0,0.08,0.98,0,-0,-0,0.08,,,,,,,,,,
1015,0,0.0,0.42,,,,,,,,,,,,,,,,,,
1017,0,0.0,0.42,,,,,,,,,,,,,,,,,,
1019,0,0.0,0.42,,,,,,,,,,,,,,,,,,
1021,0,0.0,0.42,,,,,,,,,,,,,,,,,,
1023,0,0.0,0.42,,-0.12,0.09,0.96,-0,-0,-1,0.15,0,2040,0,0.0,0.0,0.0,0.0,0,0,0.0
1025,0,0.0,0.42,,,,,,,,,,,,,,,,,,
1027,0,0.0,0.42,,,,,,,,,,,,,,,,,,
1029,0,0.0,0.42,,,,,,,,,,,,,,,,,,
1031,0,0.0,0.42,,,,,,,,,,,,,,,,,,
1033,0,0.0,0.42,,-0.11,0.04,0.94,0,-0,-0,0.11,,,,,,,,,,
1035,0,0.0,0.42,,,,,,,,,,,,,,,,,,
1037,0,0.0,0.42,,,,,,,,,,,,,,,,,,
1039,0,0.0,0.42,,,,,,,,,,,,,,,,,,
1041,0,0.0,0.42,,,,,,,,,,,,,,,,,,
1043,0,0.0,0.44,13.31,0.01,0.1,0.99,0,-0,-0,0.1,0,2040,0,0.0,0.0,0.0,0.0,0,0,0.0
1045,0,0.0,0.43,,,,,,,,,,,,,,,,,,
1047,0,0.0,0.43,,,,,,,,,,,,,,,,,,
1049,0,0.0,0.43,,,,,,,,,,,,,,,,,,
1051,0,0.0,0.43,,,,,,,,,,,,,,,,,,
1053,0,0.0,0.43,,-0.2,0.08,0.99,-0,-0,-1,0.21,,,,,,,,,,
1055,0,0.0,0.42,,,,,,,,,,,,,,,,,,
1057,0,0.0,0.43,,,,,,,,,,,,,,,,,,
1059,0,0.0,0.43,,,,,,,,,,,,,,,,,,
1061,0,0.0,0.43,,,,,,,,,,,,,,,,,,
1063,0,0.0,0.43,,-0.06,0.01,1.03,0,-1,-0,0.06,0,2040,0,0.0,0.0,0.0,0.0,0,0,0.0
1065,0,0.0,0.43,,,,,,,,,,,,,,,,,,
1067,0,0.0,0.43,,,,,,,,,,,,,,,,,,
1069,0,0.0,0.43,,,,,,,,,,,,,,,,,,
1071,0,0.0,0.44,,,,,,,,,,,,,,,,,,
1073,0,0.0,0.43,,-0.02,0.09,0.96,0,-0,-0,0.09,,,,,,,,,,
1075,0,0.0,0.43,,,,,,,,,,,,,,,,,,
1077,0,0.0,0.43,,,,,,,,,,,,,,,,,,
1079,0,0.0,0.43,,,,,,,,,,,,,,,,,,
1081,0,0.0,0.43,,,,,,,,,,,,,,,,,,
1083,0,0.0,0.43,,-0.17,0.1,1.04,-0,-0,-0,0.2,0,2040,0,0.0,0.0,0.0,0.0,0,0,0.0
1085,0,0.0,0.43,,,,,,,,,,,,,,,,,,
1087,0,0.0,0.43,,,,,,,,,,,,,,,,,,
1089,0,0.0,0.43,,,,,,,,,,,,,,,,,,
1091,0,0.0,0.43,,,,,,,,,,,,,,,,,,
1093,0,0.0,0.43,,-0.05,0.02,0.92,0,-1,0,0.06,,,,,,,,,,
1095,0,0.0,0.43,,,,,,,,,,,,,,,,,,
1097,0,0.0,0.43,,,,,,,,,,,,,,,,,,
1099,0,0.0,0.43,,,,,,,,,,,,,,,,,,
1101,0,0.0,0.45,,,,,,,,,,,,,,,,,,
1103,0,0.0,0.44,,0.02,0.13,0.95,0,0,-0,0.13,0,2040,0,0.0,0.0,0.0,0.0,0,0,0.0
1105,0,0.0,0.44,,,,,,,,,,,,,,,,,,
1107,0,0.0,0.44,,,,,,,,,,,,,,,,,,
1109,0,0.0,0.44,,,,,,,,,,,,,,,,,,
1111,0,0.0,0.44,,,,,,,,,,,,,,,,,,
1113,0,0.0,0.44,,-0.21,0.11,1.06,0,-0,-1,0.24,,,,,,,,,,
1115,0,0.0,0.44,,,,,,,,,,,,,,,,,,
1117,0,0.0,0.43,,,,,,,,,,,,,,,,,,
1119,0,0.0,0.44,,,,,,,,,,,,,,,,,,
1121,0,0.0,0.44,,,,,,,,,,,,,,,,,,
1123,0,0.0,0.44,,-0.01,0.03,0.99,0,-1,-0,0.03,0,2040,0,0.0,0.0,0.0,0.0,0,0,0.0
1125,0,0.0,0.44,,,,,,,,,,,,,,,,,,
1127,0,0.0,0.44,,,,,,,,,,,,,,,,,,
1129,0,0.0,0.45,,,,,,,,,,,,,,,,,,
1131,0,0.0,0.44,,,,,,,,,,,,,,,,,,
1133,0,0.0,0.45,,-0.04,0.08,0.93,0,0,-0,0.09,,,,,,,,,,
1135,0,0.0,0.45,,,,,,,,,,,,,,,,,,
1137,0,0.0,0.44,,,,,,,,,,,,,,,,,,
1139,0,0.0,0.44,,,,,,,,,,,,,,,,,,
1141,0,0.0,0.45,,,,,,,,,,,,,,,,,,
1143,0,0.0,0.44,,-0.19,0.11,1.08,0,-0,-1,0.22,0,2040,0,0.0,0.0,0.0,0.0,0,0,0.0
1145,0,0.0,0.44,,,,,,,,,,,,,,,,,,
1147,0,0.0,0.44,,,,,,,,,,,,,,,,,,
1149,0,0.0,0.44,,,,,,,,,,,,,,,,,,
1151,0,0.0,0.44,,,,,,,,,,,,,,,,,,
1153,0,0.0,0.44,,-0.03,0.02,0.94,0,-1,0,0.04,,,,,,,,,,
1155,0,0.0,0.44,,,,,,,,,,,,,,,,,,
1157,0,0.0,0.45,,,,,,,,,,,,,,,,,,
1159,0,0.0,0.46,,,,,,,,,,,,,,,,,,
1161,0,0.0,0.45,,,,,,,,,,,,,,,,,,
1163,0,0.0,0.45,,-0.01,0.09,0.95,0,-0,-0,0.09,0,1980,0,0.0,0.0,0.0,0.0,0,0,0.0
1165,0,0.0,0.45,,,,,,,,,,,,,,,,,,
1167,0,0.0,0.44,,,,,,,,,,,,,,,,,,
1169,0,0.0,0.45,,,,,,,,,,,,,,,,,,
1171,0,0.0,0.45,,,,,,,,,,,,,,,,,,
1173,0,0.0,0.45,,-0.18,0.1,1.07,0,-0,-1,0.21,,,,,,,,,,
1175,0,0.0,0.45,,,,,,,,,,,,,,,,,,
1177,0,0.0,0.45,,,,,,,,,,,,,,,,,,
1179,0,0.0,0.45,,,,,,,,,,,,,,,,,,
1181,0,0.0,0.45,,,,,,,,,,,,,,,,,,
1183,0,0.0,0.45,,0.02,0.02,1.0,0,-1,-0,0.03,0,1980,0,0.0,0.0,0.0,0.0,0,0,0.0
1185,0,0.0,0.45,,,,,,,,,,,,,,,,,,
1187,0,0.0,0.45,,,,,,,,,,,,,,,,,,
1189,0,0.0,0.47,,,,,,,,,,,,,,,,,,
1191,0,0.0,0.46,,,,,,,,,,,,,,,,,,
1193,0,0.0,0.45,,-0.06,0.08,0.94,-0,0,-0,0.1,,,,,,,,,,
1195,0,0.0,0.46,,,,,,,,,,,,,,,,,,
1197,0,0.0,0.45,,,,,,,,,,,,,,,,,,
1199,0,0.0,0.45,,,,,,,,,,,,,,,,,,
1201,0,0.0,0.45,,,,,,,,,,,,,,,,,,
1203,0,0.0,0.45,,-0.19,0.09,1.11,0,-0,-1,0.21,0,2040,0,0.0,0.0,0.0,0.0,0,0,0.0
1205,0,0.0,0.45,,,,,,,,,,,,,,,,,,
1207,0,0.0,0.45,,,,,,,,,,,,,,,,,,
1209,0,0.0,0.45,,,,,,,,,,,,,,,,,,
1211,0,0.0,0.45,,,,,,,,,,,,,,,,,,
1213,0,0.0,0.45,,-0.02,0.03,0.98,0,-1,-0,0.04,,,,,,,,,,
1215,0,0.0,0.45,,,,,,,,,,,,,,,,,,
1217,0,0.0,0.47,,,,,,,,,,,,,,,,,,
1219,0,0.0,0.46,,,,,,,,,,,,,,,,,,
1221,0,0.0,0.46,,,,,,,,,,,,,,,,,,
1223,0,0.0,0.46,,-0.05,0.08,0.95,0,-0,-0,0.1,0,1980,0,0.0,0.0,0.0,0.0,0,0,0.0
1225,0,0.0,0.46,,,,,,,,,,,,,,,,,,
1227,0,0.0,0.46,,,,,,,,,,,,,,,,,,
1229,0,0.0,0.46,,,,,,,,,,,,,,,,,,
1231,0,0.0,0.46,,,,,,,,,,,,,,,,,,
1233,0,0.0,0.46,,-0.12,0.09,1.07,0,0,-0,0.15,,,,,,,,,,
1235,0,0.0,0.46,,,,,,,,,,,,,,,,,,
1237,0,0.0,0.46,,,,,,,,,,,,,,,,,,
1239,0,0.0,0.46,,,,,,,,,,,,,,,,,,
1241,0,0.0,0.46,,,,,,,,,,,,,,,,,,
1243,0,0.0,0.46,,0.02,0.06,0.97,0,-1,-0,0.06,0,1980,0,0.0,0.0,0.0,0.0,0,0,0.0
1245,0,0.0,0.46,,,,,,,,,,,,,,,,,,
1247,0,0.0,0.47,,,,,,,,,,,,,,,,,,
1249,0,0.0,0.47,,,,,,,,,,,,,,,,,,
1251,0,0.0,0.47,,,,,,,,,,,,,,,,,,
1253,0,0.0,0.46,,-0.08,0.08,0.94,-0,0,-1,0.11,,,,,,,,,,
1255,0,0.0,0.45,,,,,,,,,,,,,,,,,,
1257,0,0.0,0.46,,,,,,,,,,,,,,,,,,
1259,0,0.0,0.46,,,,,,,,,,,,,,,,,,
1261,0,0.0,0.46,,,,,,,,,,,,,,,,,,
1263,0,0.0,0.46,,-0.16,0.08,1.04,0,0,-1,0.18,0,2040,0,0.0,0.0,0.0,0.0,0,0,0.0
1265,0,0.0,0.46,,,,,,,,,,,,,,,,,,
1267,0,0.0,0.46,,,,,,,,,,,,,,,,,,
1269,0,0.0,0.46,,,,,,,,,,,,,,,,,,
1271,0,0.0,0.46,,,,,,,,,,,,,,,,,,
1273,0,0.0,0.46,,-0.01,0.06,1.0,0,-1,-0,0.07,,,,,,,,,,
1275,0,0.0,0.47,,,,,,,,,,,,,,,,,,
1277,0,0.0,0.47,,,,,,,,,,,,,,,,,,
1279,0,0.0,0.47,,,,,,,,,,,,,,,,,,
1281,0,0.0,0.47,,,,,,,,,,,,,,,,,,
1283,0,0.0,0.47,,-0.09,0.06,0.94,0,-0,-0,0.11,0,2040,0,0.0,0.0,0.0,0.0,0,0,0.0
1285,0,0.0,0.47,,,,,,,,,,,,,,,,,,
1287,0,0.0,0.47,,,,,,,,,,,,,,,,,,
1289,0,0.0,0.47,,,,,,,,,,,,,,,,,,
1291,0,0.0,0.47,,,,,,,,,,,,,,,,,,
1293,0,0.0,0.47,,-0.11,0.05,1.05,0,0,-0,0.12,,,,,,,,,,
1295,0,0.0,0.47,,,,,,,,,,,,,,,,,,
1297,0,0.0,0.47,,,,,,,,,,,,,,,,,,
1299,0,0.0,0.47,,,,,,,,,,,,,,,,,,
1301,0,0.0,0.47,,,,,,,,,,,,,,,,,,
1303,0,0.0,0.47,,0.01,0.08,1.01,-0,-0,-0,0.08,0,2040,0,0.0,0.0,0.0,0.0,0,0,0.0
1305,0,0.0,0.49,,,,,,,,,,,,,,,,,,
1307,0,0.0,0.48,,,,,,,,,,,,,,,,,,
1309,0,0.0,0.47,,,,,,,,,,,,,,,,,,
1311,0,0.0,0.48,,,,,,,,,,,,,,,,,,
1313,0,0.0,0.48,,-0.1,0.08,0.95,-0,0,-1,0.13,,,,,,,,,,
1315,0,0.0,0.47,,,,,,,,,,,,,,,,,,
1317,0,0.0,0.47,,,,,,,,,,,,,,,,,,
1319,0,0.0,0.47,,,,,,,,,,,,,,,,,,
1321,0,0.0,0.47,,,,,,,,,,,,,,,,,,
1323,0,0.0,0.47,,-0.13,0.06,1.01,0,0,-0,0.14,0,2040,0,0.0,0.0,0.0,0.0,0,0,0.0
1325,0,0.0,0.47,,,,,,,,,,,,,,,,,,
1327,0,0.0,0.47,,,,,,,,,,,,,,,,,,
1329,0,0.0,0.47,,,,,,,,,,,,,,,,,,
1331,0,0.0,0.47,,,,,,,,,,,,,,,,,,
1333,0,0.0,0.48,,0.01,0.1,0.99,-0,-0,-0,0.1,,,,,,,,,,
1335,0,0.0,0.48,,,,,,,,,,,,,,,,,,
1337,0,0.0,0.48,,,,,,,,,,,,,,,,,,
1339,0,0.0,0.47,,,,,,,,,,,,,,,,,,
1341,0,0.0,0.48,,,,,,,,,,,,,,,,,,
1343,0,0.0,0.48,,-0.17,0.08,0.95,-0,0,-1,0.18,0,2040,0,0.0,0.0,0.0,0.0,0,0,0.0
1345,0,0.0,0.48,,,,,,,,,,,,,,,,,,
1347,0,0.0,0.48,,,,,,,,,,,,,,,,,,
1349,0,0.0,0.47,,,,,,,,,,,,,,,,,,
1351,0,0.0,0.48,,,,,,,,,,,,,,,,,,
1353,0,0.0,0.48,,-0.08,0.04,1.05,0,-0,-0,0.09,,,,,,,,,,
1355,0,0.0,0.48,,,,,,,,,,,,,,,,,,
1357,0,0.0,0.48,,,,,,,,,,,,,,,,,,
1359,0,0.0,0.48,,,,,,,,,,,,,,,,,,
1361,0,0.0,0.48,,,,,,,,,,,,,,,,,,
1363,0,0.0,0.49,,-0.01,0.08,0.95,-0,0,-0,0.08,0,2040,0,0.0,0.0,0.0,0.0,0,0,0.0
1365,0,0.0,0.48,,,,,,,,,,,,,,,,,,
1367,0,0.0,0.48,,,,,,,,,,,,,,,,,,
1369,0,0.0,0.48,,,,,,,,,,,,,,,,,,
1371,0,0.0,0.48,,,,,,,,,,,,,,,,,,
1373,0,0.0,0.48,,-0.15,0.09,0.99,-0,-0,-1,0.18,,,,,,,,,,
1375,0,0.0,0.48,,,,,,,,,,,,,,,,,,
1377,0,0.0,0.48,,,,,,,,,,,,,,,,,,
1379,0,0.0,0.48,,,,,,,,,,,,,,,,,,
1381,0,0.0,0.48,,,,,,,,,,,,,,,,,,
1383,0,0.0,0.48,,-0.07,0.02,0.92,0,-1,-0,0.08,0,2040,0,0.0,0.0,0.0,0.0,0,0,0.0
1385,0,0.0,0.48,,,,,,,,,,,,,,,,,,
1387,0,0.0,0.48,,,,,,,,,,,,,,,,,,
1389,0,0.0,0.49,,,,,,,,,,,,,,,,,,
1391,0,0.0,0.5,,,,,,,,,,,,,,,,,,
1393,0,0.0,0.49,,0.03,0.13,0.96,0,0,-0,0.13,,,,,,,,,,
1395,0,0.0,0.49,,,,,,,,,,,,,,,,,,
1397,0,0.0,0.49,,,,,,,,,,,,,,,,,,
1399,0,0.0,0.49,,,,,,,,,,,,,,,,,,
1401,0,0.0,0.49,,,,,,,,,,,,,,,,,,
1403,0,0.0,0.49,,-0.21,0.09,1.03,-0,0,-1,0.23,0,2040,0,0.0,0.0,0.0,0.0,0,0,0.0
1405,0,0.0,0.49,,,,,,,,,,,,,,,,,,
1407,0,0.0,0.49,,,,,,,,,,,,,,,,,,
1409,0,0.0,0.49,,,,,,,,,,,,,,,,,,
1411,0,0.0,0.49,,,,,,,,,,,,,,,,,,
1413,0,0.0,0.49,,-0.03,0.03,1.01,0,-1,-0,0.04,,,,,,,,,,
1415,0,0.0,0.49,,,,,,,,,,,,,,,,,,
1417,0,0.0,0.49,,,,,,,,,,,,,,,,,,
1419,0,0.0,0.49,,,,,,,,,,,,,,,,,,
1421,0,0.0,0.5,,,,,,,,,,,,,,,,,,
1423,0,0.0,0.49,,-0.04,0.09,0.93,0,0,-0,0.09,0,2040,0,0.0,0.0,0.0,0.0,0,0,0.0
1425,0,0.0,0.49,,,,,,,,,,,,,,,,,,
1427,0,0.0,0.49,,,,,,,,,,,,,,,,,,
1429,0,0.0,0.49,,,,,,,,,,,,,,,,,,
1431,0,0.0,0.49,,,,,,,,,,,,,,,,,,
1433,0,0.0,0.49,,-0.19,0.12,1.05,-0,-0,-1,0.23,,,,,,,,,,
1435,0,0.0,0.49,,,,,,,,,,,,,,,,,,
1437,0,0.0,0.49,,,,,,,,,,,,,,,,,,
1439,0,0.0,0.49,,,,,,,,,,,,,,,,,,
1441,0,0.0,0.49,,,,,,,,,,,,,,,,,,
1443,0,0.0,0.49,,-0.05,0.03,0.91,0,-1,-0,0.05,0,2040,0,0.0,0.0,0.0,0.0,0,0,0.0
1445,0,0.0,0.49,,,,,,,,,,,,,,,,,,
1447,0,0.0,0.49,,,,,,,,,,,,,,,,,,
1449,0,0.0,0.5,,,,,,,,,,,,,,,,,,
1451,0,0.0,0.5,,,,,,,,,,,,,,,,,,
1453,0,0.0,0.49,,0.01,0.11,0.95,0,0,-0,0.11,,,,,,,,,,
1455,0,0.0,0.49,,,,,,,,,,,,,,,,,,
1457,0,0.0,0.49,,,,,,,,,,,,,,,,,,
1459,0,0.0,0.49,,,,,,,,,,,,,,,,,,
1461,0,0.0,0.5,,,,,,,,,,,,,,,,,,
1463,0,0.0,0.5,,-0.16,0.11,1.07,0,-0,-1,0.2,0,2040,0,0.0,0.0,0.0,0.0,0,0,0.0
1465,0,0.0,0.5,,,,,,,,,,,,,,,,,,
1467,0,0.0,0.49,,,,,,,,,,,,,,,,,,
1469,0,0.0,0.49,,,,,,,,,,,,,,,,,,
1471,0,0.0,0.5,,,,,,,,,,,,,,,,,,
1473,0,0.0,0.5,,0.02,0.03,0.96,0,-1,-0,0.03,,,,,,,,,,
1475,0,0.0,0.5,,,,,,,,,,,,,,,,,,
1477,0,0.0,0.5,,,,,,,,,,,,,,,,,,
1479,0,0.0,0.5,,,,,,,,,,,,,,,,,,
1481,0,0.0,0.5,,,,,,,,,,,,,,,,,,
1483,0,0.0,0.5,,-0.05,0.09,0.93,0,0,-0,0.1,0,2040,0,0.0,0.0,0.0,0.0,0,0,0.0
1485,0,0.0,0.5,,,,,,,,,,,,,,,,,,
1487,0,0.0,0.5,,,,,,,,,,,,,,,,,,
1489,0,0.0,0.5,,,,,,,,,,,,,,,,,,
1491,0,0.0,0.5,,,,,,,,,,,,,,,,,,
1493,0,0.0,0.5,,-0.18,0.1,1.12,0,-0,-1,0.21,,,,,,,,,,
1495,0,0.0,0.5,,,,,,,,,,,,,,,,,,
1497,0,0.0,0.5,,,,,,,,,,,,,,,,,,
1499,0,0.0,0.5,,,,,,,,,,,,,,,,,,
1501,0,0.0,0.5,,,,,,,,,,,,,,,,,,
1503,0,0.0,0.5,,-0.03,0.03,1.0,0,-1,-0,0.05,0,2040,0,0.0,0.0,0.0,0.0,0,0,0.0
1505,0,0.0,0.5,,,,,,,,,,,,,,,,,,
1507,0,0.0,0.51,,,,,,,,,,,,,,,,,,
1509,0,0.0,0.5,,,,,,,,,,,,,,,,,,
1511,0,0.0,0.51,,,,,,,,,,,,,,,,,,
1513,0,0.0,0.51,,-0.05,0.07,0.94,0,-0,-0,0.09,,,,,,,,,,
1515,0,0.0,0.5,,,,,,,,,,,,,,,,,,
1517,0,0.0,0.5,,,,,,,,,,,,,,,,,,
1519,0,0.0,0.5,,,,,,,,,,,,,,,,,,
1521,0,0.0,0.5,,,,,,,,,,,,,,,,,,
1523,0,0.0,0.51,,-0.13,0.08,1.07,0,0,-1,0.16,0,2040,0,0.0,0.0,0.0,0.0,0,0,0.0
1525,0,0.0,0.51,,,,,,,,,,,,,,,,,,
1527,0,0.0,0.51,,,,,,,,,,,,,,,,,,
1529,0,0.0,0.5,,,,,,,,,,,,,,,,,,
1531,0,0.0,0.51,,,,,,,,,,,,,,,,,,
1533,0,0.0,0.51,,0.01,0.06,0.99,0,-1,-0,0.06,,,,,,,,,,
1535,0,0.0,0.52,,,,,,,,,,,,,,,,,,
1537,0,0.0,0.51,,,,,,,,,,,,,,,,,,
1539,0,0.0,0.51,,,,,,,,,,,,,,,,,,
1541,0,0.0,0.51,,,,,,,,,,,,,,,,,,
1543,0,0.0,0.51,,-0.06,0.08,0.94,-0,-0,-1,0.1,0,2040,0,0.0,0.0,0.0,0.0,0,0,0.0
1545,0,0.0,0.51,,,,,,,,,,,,,,,,,,
1547,0,0.0,0.51,,,,,,,,,,,,,,,,,,
1549,0,0.0,0.51,,,,,,,,,,,,,,,,,,
1551,0,0.0,0.51,,,,,,,,,,,,,,,,,,
1553,0,0.0,0.51,,-0.15,0.07,1.04,0,0,-0,0.17,,,,,,,,,,
1555,0,0.0,0.51,,,,,,,,,,,,,,,,,,
1557,0,0.0,0.51,,,,,,,,,,,,,,,,,,
1559,0,0.0,0.51,,,,,,,,,,,,,,,,,,
1561,0,0.0,0.51,,,,,,,,,,,,,,,,,,
1563,0,0.0,0.51,,-0.01,0.08,1.0,0,-1,-0,0.08,0,2040,0,0.0,0.0,0.0,0.0,0,0,0.0
1565,0,0.0,0.52,,,,,,,,,,,,,,,,,,
1567,0,0.0,0.51,,,,,,,,,,,,,,,,,,
1569,0,0.0,0.51,,,,,,,,,,,,,,,,,,
1571,0,0.0,0.51,,,,,,,,,,,,,,,,,,
1573,0,0.0,0.52,,-0.1,0.06,0.94,-0,-0,-1,0.12,,,,,,,,,,
1575,0,0.0,0.51,,,,,,,,,,,,,,,,,,
1577,0,0.0,0.51,,,,,,,,,,,,,,,,,,
1579,0,0.0,0.51,,,,,,,,,,,,,,,,,,
1581,0,0.0,0.51,,,,,,,,,,,,,,,,,,
1583,0,0.0,0.51,,-0.09,0.04,1.04,0,0,-0,0.1,0,2040,0,0.0,0.0,0.0,0.0,0,0,0.0
1585,0,0.0,0.51,,,,,,,,,,,,,,,,,,
1587,0,0.0,0.52,,,,,,,,,,,,,,,,,,
1589,0,0.0,0.52,,,,,,,,,,,,,,,,,,
1591,0,0.0,0.52,,,,,,,,,,,,,,,,,,
1593,0,0.0,0.53,,0.01,0.08,0.98,0,-0,-0,0.08,,,,,,,,,,
1595,0,0.0,0.52,,,,,,,,,,,,,,,,,,
1597,0,0.0,0.52,,,,,,,,,,,,,,,,,,
1599,0,0.0,0.52,,,,,,,,,,,,,,,,,,
1601,0,0.0,0.52,,,,,,,,,,,,,,,,,,
1603,0,0.0,0.52,,-0.12,0.09,0.95,-0,-0,-1,0.14,0,2040,0,0.0,0.0,0.0,0.0,0,0,0.0
1605,0,0.0,0.52,,,,,,,,,,,,,,,,,,
1607,0,0.0,0.52,,,,,,,,,,,,,,,,,,
1609,0,0.0,0.52,,,,,,,,,,,,,,,,,,
1611,0,0.0,0.52,,,,,,,,,,,,,,,,,,
1613,0,0.0,0.52,,-0.11,0.04,0.98,0,-0,-0,0.12,,,,,,,,,,
1615,0,0.0,0.52,,,,,,,,,,,,,,,,,,
1617,0,0.0,0.52,,,,,,,,,,,,,,,,,,
1619,0,0.0,0.52,,,,,,,,,,,,,,,,,,
1621,0,0.0,0.52,,,,,,,,,,,,,,,,,,
1623,0,0.0,0.53,,0.02,0.11,1.01,-0,-0,-0,0.11,0,2040,0,0.0,0.0,0.0,0.0,0,0,0.0
1625,0,0.0,0.52,,,,,,,,,,,,,,,,,,
1627,0,0.0,0.52,,,,,,,,,,,,,,,,,,
1629,0,0.0,0.52,,,,,,,,,,,,,,,,,,
1631,0,0.0,0.52,,,,,,,,,,,,,,,,,,
1633,0,0.0,0.52,,-0.18,0.07,0.99,-0,0,-1,0.2,,,,,,,,,,
1635,0,0.0,0.52,,,,,,,,,,,,,,,,,,
1637,0,0.0,0.52,,,,,,,,,,,,,,,,,,
1639,0,0.0,0.52,,,,,,,,,,,,,,,,,,
1641,0,0.0,0.52,,,,,,,,,,,,,,,,,,
1643,0,0.0,0.52,,-0.06,0.02,1.03,0,-1,-0,0.07,0,2040,0,0.0,0.0,0.0,0.0,0,0,0.0
1645,0,0.0,0.52,,,,,,,,,,,,,,,,,,
1647,0,0.0,0.53,,,,,,,,,,,,,,,,,,
1649,0,0.0,0.53,,,,,,,,,,,,,,,,,,
1651,0,0.0,0.53,,,,,,,,,,,,,,,,,,
1653,0,0.0,0.54,,0.0,0.1,0.95,0,0,-0,0.1,,,,,,,,,,
1655,0,0.0,0.53,,,,,,,,,,,,,,,,,,
1657,0,0.0,0.53,,,,,,,,,,,,,,,,,,
1659,0,0.0,0.53,,,,,,,,,,,,,,,,,,
1661,0,0.0,0.53,,,,,,,,,,,,,,,,,,
1663,0,0.0,0.53,,-0.17,0.11,1.01,-0,-0,-1,0.2,0,2040,0,0.0,0.0,0.0,0.0,0,0,0.0
1665,0,0.01,0.53,,,,,,,,,,,,,,,,,,
1667,0,0.0,0.53,,,,,,,,,,,,,,,,,,
1669,0,0.0,0.53,,,,,,,,,,,,,,,,,,
1671,0,0.0,0.53,,,,,,,,,,,,,,,,,,
1673,0,0.0,0.53,,-0.06,0.02,0.91,0,-1,0,0.06,,,,,,,,,,
1675,0,0.0,0.53,,,,,,,,,,,,,,,,,,
1677,0,0.0,0.53,,,,,,,,,,,,,,,,,,
1679,0,0.0,0.53,,,,,,,,,,,,,,,,,,
1681,0,0.0,0.54,,,,,,,,,,,,,,,,,,
1683,0,0.0,0.53,,0.03,0.14,0.95,0,0,-0,0.14,0,2040,0,0.0,0.0,0.0,0.0,0,0,0.0
1685,0,0.0,0.53,,,,,,,,,,,,,,,,,,
1687,0,0.0,0.53,,,,,,,,,,,,,,,,,,
1689,0,0.0,0.53,,,,,,,,,,,,,,,,,,
1691,0,0.0,0.53,,,,,,,,,,,,,,,,,,
1693,0,0.0,0.53,,-0.22,0.1,1.01,-0,-0,-1,0.24,,,,,,,,,,
1695,0,0.0,0.53,,,,,,,,,,,,,,,,,,
1697,0,0.0,0.53,,,,,,,,,,,,,,,,,,
1699,0,0.0,0.53,,,,,,,,,,,,,,,,,,
1701,0,0.0,0.53,,,,,,,,,,,,,,,,,,
1703,0,0.0,0.53,,-0.03,0.01,0.99,0,-1,-0,0.03,0,2040,0,0.0,0.0,0.0,0.0,0,0,0.0
1705,0,0.0,0.53,,,,,,,,,,,,,,,,,,
1707,0,0.0,0.54,,,,,,,,,,,,,,,,,,
1709,0,0.0,0.54,,,,,,,,,,,,,,,,,,
1711,0,0.0,0.55,,,,,,,,,,,,,,,,,,
1713,0,0.0,0.54,,-0.04,0.09,0.94,0,0,-0,0.1,,,,,,,,,,
1715,0,0.0,0.54,,,,,,,,,,,,,,,,,,
1717,0,0.0,0.54,,,,,,,,,,,,,,,,,,
1719,0,0.0,0.54,,,,,,,,,,,,,,,,,,
1721,0,0.0,0.54,,,,,,,,,,,,,,,,,,
1723,0,0.0,0.54,,-0.2,0.11,1.06,-0,-0,-1,0.23,0,2040,0,0.0,0.0,0.0,0.0,0,0,0.0
1725,0,0.0,0.54,,,,,,,,,,,,,,,,,,
1727,0,0.0,0.54,,,,,,,,,,,,,,,,,,
1729,0,0.0,0.54,,,,,,,,,,,,,,,,,,
1731,0,0.0,0.54,,,,,,,,,,,,,,,,,,
1733,0,0.0,0.54,,-0.05,0.01,0.92,0,-1,-0,0.05,,,,,,,,,,
1735,0,0.0,0.54,,,,,,,,,,,,,,,,,,
1737,0,0.0,0.53,,,,,,,,,,,,,,,,,,
1739,0,0.0,0.54,,,,,,,,,,,,,,,,,,
1741,0,0.0,0.54,,,,,,,,,,,,,,,,,,
1743,0,0.0,0.54,,-0.01,0.11,0.97,0,0,-0,0.11,0,2040,0,0.0,0.0,0.0,0.0,0,0,0.0
1745,0,0.0,0.54,,,,,,,,,,,,,,,,,,
1747,0,0.0,0.54,,,,,,,,,,,,,,,,,,
1749,0,0.0,0.54,,,,,,,,,,,,,,,,,,
1751,0,0.0,0.54,,,,,,,,,,,,,,,,,,
1753,0,0.0,0.54,,-0.2,0.11,1.08,0,-0,-1,0.23,,,,,,,,,,
1755,0,0.0,0.54,,,,,,,,,,,,,,,,,,
1757,0,0.0,0.54,,,,,,,,,,,,,,,,,,
1759,0,0.0,0.54,,,,,,,,,,,,,,,,,,
1761,0,0.0,0.54,,,,,,,,,,,,,,,,,,
1763,0,0.0,0.55,,0.0,0.02,0.98,0,-1,-0,0.02,0,2040,0,0.0,0.0,0.0,0.0,0,0,0.0
1765,0,0.0,0.54,,,,,,,,,,,,,,,,,,
1767,0,0.0,0.54,,,,,,,,,,,,,,,,,,
1769,0,0.0,0.56,,,,,,,,,,,,,,,,,,
1771,0,0.0,0.55,,,,,,,,,,,,,,,,,,
1773,0,0.0,0.55,,-0.06,0.09,0.94,-0,0,-0,0.11,,,,,,,,,,
1775,0,0.0,0.55,,,,,,,,,,,,,,,,,,
1777,0,0.0,0.55,,,,,,,,,,,,,,,,,,
1779,0,0.0,0.54,,,,,,,,,,,,,,,,,,
1781,0,0.0,0.55,,,,,,,,,,,,,,,,,,
1783,0,0.0,0.55,,-0.2,0.1,1.09,0,-0,-1,0.22,0,2040,0,0.0,0.0,0.0,0.0,0,0,0.0
1785,0,0.0,0.55,,,,,,,,,,,,,,,,,,
1787,0,0.0,0.55,,,,,,,,,,,,,,,,,,
1789,0,0.0,0.55,,,,,,,,,,,,,,,,,,
1791,0,0.0,0.55,,,,,,,,,,,,,,,,,,
1793,0,0.0,0.54,,-0.03,0.02,0.94,0,-1,-0,0.03,,,,,,,,,,
1795,0,0.0,0.55,,,,,,,,,,,,,,,,,,
1797,0,0.0,0.55,,,,,,,,,,,,,,,,,,
1799,0,0.0,0.56,,,,,,,,,,,,,,,,,,
1801,0,0.0,0.55,,,,,,,,,,,,,,,,,,
1803,0,0.0,0.55,,-0.03,0.09,0.94,0,-0,-0,0.09,0,2040,0,0.0,0.0,0.0,0.0,0,0,0.0
1805,0,0.0,0.55,,,,,,,,,,,,,,,,,,
1807,0,0.0,0.55,,,,,,,,,,,,,,,,,,
1809,0,0.0,0.55,,,,,,,,,,,,,,,,,,
1811,0,0.0,0.55,,,,,,,,,,,,,,,,,,
1813,0,0.0,0.55,,-0.15,0.08,1.07,0,-0,-1,0.18,,,,,,,,,,
1815,0,0.0,0.55,,,,,,,,,,,,,,,,,,
1817,0,0.0,0.55,,,,,,,,,,,,,,,,,,
1819,0,0.0,0.55,,,,,,,,,,,,,,,,,,
1821,0,0.0,0.55,,,,,,,,,,,,,,,,,,
1823,0,0.0,0.55,,0.02,0.04,0.99,0,-1,-0,0.05,0,2040,0,0.0,0.0,0.0,0.0,0,0,0.0
1825,0,0.0,0.55,,,,,,,,,,,,,,,,,,
1827,0,0.0,0.56,,,,,,,,,,,,,,,,,,
1829,0,0.0,0.56,,,,,,,,,,,,,,,,,,
1831,0,0.0,0.55,,,,,,,,,,,,,,,,,,
1833,0,0.0,0.56,,-0.08,0.08,0.96,-0,0,-1,0.11,,,,,,,,,,
1835,0,0.0,0.55,,,,,,,,,,,,,,,,,,
1837,0,0.0,0.55,,,,,,,,,,,,,,,,,,
1839,0,0.0,0.55,,,,,,,,,,,,,,,,,,
1841,0,0.0,0.55,,,,,,,,,,,,,,,,,,
1843,0,0.0,0.55,,-0.19,0.09,1.11,0,0,-1,0.21,0,2040,0,0.0,0.0,0.0,0.0,0,0,0.0
1845,0,0.0,0.55,,,,,,,,,,,,,,,,,,
1847,0,0.0,0.55,,,,,,,,,,,,,,,,,,
1849,0,0.0,0.55,,,,,,,,,,,,,,,,,,
1851,0,0.0,0.56,,,,,,,,,,,,,,,,,,
1853,0,0.0,0.56,,-0.02,0.06,1.0,-0,-1,-0,0.06,,,,,,,,,,
1855,0,0.0,0.55,,,,,,,,,,,,,,,,,,
1857,0,0.0,0.57,,,,,,,,,,,,,,,,,,
1859,0,0.0,0.56,,,,,,,,,,,,,,,,,,
1861,0,0.0,0.56,,,,,,,,,,,,,,,,,,
1863,0,0.0,0.56,,-0.07,0.07,0.96,-0,-0,-1,0.09,0,2040,0,0.0,0.0,0.0,0.0,0,0,0.0
1865,0,0.0,0.56,,,,,,,,,,,,,,,,,,
1867,0,0.0,0.56,,,,,,,,,,,,,,,,,,
1869,0,0.0,0.55,,,,,,,,,,,,,,,,,,
1871,0,0.0,0.56,,,,,,,,,,,,,,,,,,
1873,0,0.0,0.56,,-0.11,0.07,1.06,0,0,-0,0.13,,,,,,,,,,
1875,0,0.0,0.56,,,,,,,,,,,,,,,,,,
1877,0,0.0,0.56,,,,,,,,,,,,,,,,,,
1879,0,0.0,0.56,,,,,,,,,,,,,,,,,,
1881,0,0.0,0.56,,,,,,,,,,,,,,,,,,
1883,0,0.0,0.56,,0.01,0.07,0.99,0,-1,-0,0.07,0,2040,0,0.0,0.0,0.0,0.0,0,0,0.0
1885,0,0.0,0.58,,,,,,,,,,,,,,,,,,
1887,0,0.0,0.56,,,,,,,,,,,,,,,,,,
1889,0,0.0,0.56,,,,,,,,,,,,,,,,,,
1891,0,0.0,0.56,,,,,,,,,,,,,,,,,,
1893,0,0.0,0.56,,-0.08,0.07,0.92,-0,0,-1,0.11,,,,,,,,,,
1895,0,0.0,0.56,,,,,,,,,,,,,,,,,,
1897,0,0.0,0.56,,,,,,,,,,,,,,,,,,
1899,0,0.0,0.56,,,,,,,,,,,,,,,,,,
1901,0,0.0,0.56,,,,,,,,,,,,,,,,,,
1903,0,0.0,0.56,,-0.13,0.06,1.02,0,-0,-0,0.15,0,2040,0,0.0,0.0,0.0,0.0,0,0,0.0
1905,0,0.0,0.56,,,,,,,,,,,,,,,,,,
1907,0,0.0,0.56,,,,,,,,,,,,,,,,,,
1909,0,0.0,0.56,,,,,,,,,,,,,,,,,,
1911,0,0.0,0.56,,,,,,,,,,,,,,,,,,
1913,0,0.0,0.56,,0.01,0.09,0.98,0,-0,-0,0.1,,,,,,,,,,
1915,0,0.0,0.57,,,,,,,,,,,,,,,,,,
1917,0,0.0,0.56,,,,,,,,,,,,,,,,,,
1919,0,0.0,0.57,,,,,,,,,,,,,,,,,,
1921,0,0.0,0.57,,,,,,,,,,,,,,,,,,
1923,0,0.0,0.56,,-0.13,0.06,0.92,-0,-0,-1,0.14,0,2040,0,0.0,0.0,0.0,0.0,0,0,0.0
1925,0,0.0,0.57,,,,,,,,,,,,,,,,,,
1927,0,0.0,0.57,,,,,,,,,,,,,,,,,,
1929,0,0.0,0.57,,,,,,,,,,,,,,,,,,
1931,0,0.0,0.56,,,,,,,,,,,,,,,,,,
1933,0,0.0,0.57,,-0.08,0.03,1.05,0,-0,-0,0.09,,,,,,,,,,
1935,0,0.0,0.57,,,,,,,,,,,,,,,,,,
1937,0,0.0,0.57,,,,,,,,,,,,,,,,,,
1939,0,0.0,0.57,,,,,,,,,,,,,,,,,,
1941,0,0.0,0.57,,,,,,,,,,,,,,,,,,
1943,0,0.0,0.58,,-0.0,0.09,0.97,-0,-0,-0,0.09,0,2040,0,0.0,0.0,0.0,0.0,0,0,0.0
1945,0,0.0,0.57,,,,,,,,,,,,,,,,,,
1947,0,0.0,0.57,,,,,,,,,,,,,,,,,,
1949,0,0.0,0.57,,,,,,,,,,,,,,,,,,
1951,0,0.0,0.57,,,,,,,,,,,,,,,,,,
1953,0,0.0,0.57,,-0.13,0.09,1.0,-0,-0,-1,0.16,,,,,,,,,,
1955,0,0.0,0.57,,,,,,,,,,,,,,,,,,
1957,0,0.0,0.57,,,,,,,,,,,,,,,,,,
1959,0,0.0,0.57,,,,,,,,,,,,,,,,,,
1961,0,0.0,0.57,,,,,,,,,,,,,,,,,,
1963,0,0.0,0.57,,-0.08,0.02,0.93,0,-1,-0,0.09,0,2040,0,0.0,0.0,0.0,0.0,0,0,0.0
1965,0,0.0,0.57,,,,,,,,,,,,,,,,,,
1967,0,0.0,0.57,,,,,,,,,,,,,,,,,,
1969,0,0.0,0.57,,,,,,,,,,,,,,,,,,
1971,0,0.0,0.58,,,,,,,,,,,,,,,,,,
1973,0,0.0,0.58,,0.03,0.12,0.98,0,0,-0,0.12,,,,,,,,,,
1975,0,0.0,0.57,,,,,,,,,,,,,,,,,,
1977,0,0.0,0.57,,,,,,,,,,,,,,,,,,
1979,0,0.0,0.57,,,,,,,,,,,,,,,,,,
1981,0,0.0,0.57,,,,,,,,,,,,,,,,,,
1983,0,0.0,0.57,,-0.21,0.08,1.03,-0,0,-1,0.22,0,2040,0,0.0,0.0,0.0,0.0,0,0,0.0
1985,0,0.0,0.57,,,,,,,,,,,,,,,,,,
1987,0,0.0,0.58,,,,,,,,,,,,,,,,,,
1989,0,0.0,0.58,,,,,,,,,,,,,,,,,,
1991,0,0.0,0.57,,,,,,,,,,,,,,,,,,
1993,0,0.0,0.57,,-0.05,0.01,1.01,0,-1,-0,0.06,,,,,,,,,,
1995,0,0.0,0.58,,,,,,,,,,,,,,,,,,
1997,0,0.0,0.58,,,,,,,,,,,,,,,,,,
1999,0,0.0,0.58,,,,,,,,,,,,,,,,,,
2001,0,0.0,0.59,,,,,,,,,,,,,,,,,,
2003,0,0.0,0.58,,-0.03,0.09,0.94,-0,0,-0,0.1,0,2040,0,0.0,0.0,0.0,0.0,0,0,0.0
2005,0,0.0,0.58,,,,,,,,,,,,,,,,,,
2007,0,0.0,0.58,,,,,,,,,,,,,,,,,,
2009,0,0.0,0.58,,,,,,,,,,,,,,,,,,
2011,0,0.0,0.58,,,,,,,,,,,,,,,,,,
2013,0,0.0,0.58,,-0.19,0.1,1.07,-0,-0,-1,0.22,,,,,,,,,,
2015,0,0.0,0.58,,,,,,,,,,,,,,,,,,
2017,0,0.0,0.58,,,,,,,,,,,,,,,,,,
2019,0,0.0,0.58,,,,,,,,,,,,,,,,,,
2021,0,0.0,0.58,,,,,,,,,,,,,,,,,,
2023,0,0.0,0.58,,-0.05,0.02,0.91,0,-1,-0,0.05,0,2040,0,0.0,0.0,0.0,0.0,0,0,0.0
2025,0,0.0,0.58,,,,,,,,,,,,,,,,,,
2027,0,0.0,0.58,,,,,,,,,,,,,,,,,,
2029,0,0.0,0.59,,,,,,,,,,,,,,,,,,
2031,0,0.0,0.58,,,,,,,,,,,,,,,,,,
2033,0,0.0,0.58,,0.01,0.12,0.96,0,0,-0,0.12,,,,,,,,,,
2035,0,0.0,0.58,,,,,,,,,,,,,,,,,,
2037,0,0.0,0.58,,,,,,,,,,,,,,,,,,
2039,0,0.0,0.58,,,,,,,,,,,,,,,,,,
2041,0,0.0,0.58,,,,,,,,,,,,,,,,,,
2043,0,0.0,0.58,13.15,-0.19,0.11,1.08,0,-0,-1,0.22,0,2040,0,0.0,0.0,0.0,0.0,0,0,0.0
2045,0,0.0,0.58,,,,,,,,,,,,,,,,,,
2047,0,0.0,0.58,,,,,,,,,,,,,,,,,,
2049,0,0.0,0.58,,,,,,,,,,,,,,,,,,
2051,0,0.0,0.59,,,,,,,,,,,,,,,,,,
2053,0,0.0,0.58,,0.0,0.02,0.96,0,-1,-0,0.02,,,,,,,,,,
2055,0,0.0,0.58,,,,,,,,,,,,,,,,,,
2057,0,0.0,0.59,,,,,,,,,,,,,,,,,,
2059,0,0.0,0.6,,,,,,,,,,,,,,,,,,
2061,0,0.0,0.59,,,,,,,,,,,,,,,,,,
2063,0,0.0,0.59,,-0.05,0.09,0.93,-0,0,-0,0.11,0,2040,0,0.0,0.0,0.0,0.0,0,0,0.0
2065,0,0.0,0.59,,,,,,,,,,,,,,,,,,
2067,0,0.0,0.59,,,,,,,,,,,,,,,,,,
2069,0,0.0,0.59,,,,,,,,,,,,,,,,,,
2071,0,0.0,0.59,,,,,,,,,,,,,,,,,,
2073,0,0.0,0.59,,-0.2,0.1,1.09,0,-0,-1,0.22,,,,,,,,,,
2075,0,0.0,0.59,,,,,,,,,,,,,,,,,,
2077,0,0.0,0.59,,,,,,,,,,,,,,,,,,
2079,0,0.0,0.59,,,,,,,,,,,,,,,,,,
2081,0,0.0,0.59,,,,,,,,,,,,,,,,,,
2083,0,0.0,0.59,,-0.03,0.02,0.96,0,-1,-0,0.04,0,2040,0,0.0,0.0,0.0,0.0,0,0,0.0
2085,0,0.0,0.59,,,,,,,,,,,,,,,,,,
2087,0,0.0,0.6,,,,,,,,,,,,,,,,,,
2089,0,0.0,0.59,,,,,,,,,,,,,,,,,,
2091,0,0.0,0.59,,,,,,,,,,,,,,,,,,
2093,0,0.0,0.59,,-0.03,0.09,0.94,-0,-0,-0,0.09,,,,,,,,,,
2095,0,0.0,0.59,,,,,,,,,,,,,,,,,,
2097,0,0.0,0.59,,,,,,,,,,,,,,,,,,
2099,0,0.0,0.59,,,,,,,,,,,,,,,,,,
2101,0,0.0,0.59,,,,,,,,,,,,,,,,,,
2103,0,0.0,0.59,,-0.14,0.08,1.08,0,0,-1,0.16,0,2040,0,0.0,0.0,0.0,0.0,0,0,0.0
2105,0,0.0,0.59,,,,,,,,,,,,,,,,,,
2107,0,0.0,0.59,,,,,,,,,,,,,,,,,,
2109,0,0.0,0.59,,,,,,,,,,,,,,,,,,
2111,0,0.0,0.59,,,,,,,,,,,,,,,,,,
2129,0,0.0,0.6,,,,,,,,,,,,,,,,,,
2131,0,0.0,0.59,,,,,,,,,,,,,,,,,,
2147,0,0.0,0.6,,,,,,,,,,,,,,,,,,
2149,0,0.0,0.6,,,,,,,,,,,,,,,,,,
2151,0,0.0,0.6,,,,,,,,,,,,,,,,,,
2153,0,0.0,0.6,,-0.09,0.06,0.95,0,-0,-1,0.11,,,,,,,,,,
2155,0,0.0,0.6,,,,,,,,,,,,,,,,,,
2157,0,0.0,0.6,,,,,,,,,,,,,,,,,,
2159,0,0.0,0.6,,,,,,,,,,,,,,,,,,
2161,0,0.0,0.6,,,,,,,,,,,,,,,,,,
2163,0,0.0,0.6,,-0.11,0.05,1.06,1,0,-0,0.12,0,2040,0,0.0,0.0,0.0,0.0,0,0,0.0
2165,0,0.0,0.6,,,,,,,,,,,,,,,,,,
2167,0,0.0,0.6,,,,,,,,,,,,,,,,,,
2169,0,0.0,0.6,,,,,,,,,,,,,,,,,,
2171,0,0.0,0.6,,,,,,,,,,,,,,,,,,
2173,0,0.0,0.6,,0.01,0.08,1.0,0,-0,-0,0.08,,,,,,,,,,
2175,0,0.0,0.62,,,,,,,,,,,,,,,,,,
2177,0,0.0,0.61,,,,,,,,,,,,,,,,,,
2179,0,0.0,0.6,,,,,,,,,,,,,,,,,,
2181,0,0.0,0.6,,,,,,,,,,,,,,,,,,
2183,0,0.0,0.6,,-0.1,0.08,0.96,-0,-0,-1,0.12,0,2040,0,0.0,0.0,0.0,0.0,0,0,0.0
2185,0,0.0,0.6,,,,,,,,,,,,,,,,,,
2187,0,0.0,0.6,,,,,,,,,,,,,,,,,,
2189,0,0.0,0.61,,,,,,,,,,,,,,,,,,
2191,0,0.0,0.6,,,,,,,,,,,,,,,,,,
2193,0,0.0,0.6,,-0.13,0.05,1.01,0,-0,-0,0.14,,,,,,,,,,
2195,0,0.0,0.6,,,,,,,,,,,,,,,,,,
2197,0,0.0,0.6,,,,,,,,,,,,,,,,,,
2199,0,0.0,0.6,,,,,,,,,,,,,,,,,,
2201,0,0.0,0.6,,,,,,,,,,,,,,,,,,
2203,0,0.0,0.62,,0.01,0.1,1.01,-0,-0,-0,0.1,0,2040,0,0.0,0.0,0.0,0.0,0,0,0.0
2205,0,0.0,0.61,,,,,,,,,,,,,,,,,,
2207,0,0.0,0.61,,,,,,,,,,,,,,,,,,
2209,0,0.0,0.61,,,,,,,,,,,,,,,,,,
2211,0,0.0,0.61,,,,,,,,,,,,,,,,,,
2213,0,0.0,0.61,,-0.16,0.07,0.97,-0,-0,-1,0.17,,,,,,,,,,
2215,0,0.0,0.61,,,,,,,,,,,,,,,,,,
2217,0,0.0,0.61,,,,,,,,,,,,,,,,,,
2219,0,0.0,0.61,,,,,,,,,,,,,,,,,,
2221,0,0.0,0.61,,,,,,,,,,,,,,,,,,
2223,0,0.0,0.61,,-0.08,0.03,1.04,0,-0,-0,0.09,0,2040,0,0.0,0.0,0.0,0.0,0,0,0.0
2225,0,0.0,0.61,,,,,,,,,,,,,,,,,,
2227,0,0.0,0.61,,,,,,,,,,,,,,,,,,
2229,0,0.0,0.61,,,,,,,,,,,,,,,,,,
2231,0,0.0,0.61,,,,,,,,,,,,,,,,,,
2233,0,0.0,0.62,,0.01,0.09,0.94,-0,0,-0,0.1,,,,,,,,,,
2235,0,0.0,0.61,,,,,,,,,,,,,,,,,,
2237,0,0.0,0.61,,,,,,,,,,,,,,,,,,
2239,0,0.0,0.61,,,,,,,,,,,,,,,,,,
2241,0,0.0,0.61,,,,,,,,,,,,,,,,,,
2243,0,0.0,0.61,,-0.14,0.1,1.01,-0,-0,-1,0.18,0,2040,0,0.0,0.0,0.0,0.0,0,0,0.0
2245,0,0.0,0.61,,,,,,,,,,,,,,,,,,
2247,0,0.0,0.61,,,,,,,,,,,,,,,,,,
2249,0,0.0,0.61,,,,,,,,,,,,,,,,,,
2251,0,0.0,0.61,,,,,,,,,,,,,,,,,,
2253,0,0.0,0.61,,-0.07,0.02,0.93,0,-1,-0,0.08,,,,,,,,,,
2255,0,0.0,0.61,,,,,,,,,,,,,,,,,,
2257,0,0.0,0.61,,,,,,,,,,,,,,,,,,
2259,0,0.0,0.61,,,,,,,,,,,,,,,,,,
2261,0,0.0,0.62,,,,,,,,,,,,,,,,,,
2263,0,0.0,0.61,,0.04,0.13,0.97,-0,0,-0,0.14,0,2040,0,0.0,0.0,0.0,0.0,0,0,0.0
2265,0,0.0,0.61,,,,,,,,,,,,,,,,,,
2267,0,0.0,0.62,,,,,,,,,,,,,,,,,,
2269,0,0.0,0.61,,,,,,,,,,,,,,,,,,
2271,0,0.0,0.61,,,,,,,,,,,,,,,,,,
2273,0,0.0,0.61,,-0.21,0.09,1.01,-0,0,-1,0.23,,,,,,,,,,
2275,0,0.0,0.61,,,,,,,,,,,,,,,,,,
2277,0,0.0,0.61,,,,,,,,,,,,,,,,,,
2279,0,0.0,0.61,,,,,,,,,,,,,,,,,,
2281,0,0.01,0.62,,,,,,,,,,,,,,,,,,
2283,0,0.0,0.62,,-0.03,0.01,1.0,0,-1,-0,0.04,0,2040,0,0.0,0.0,0.0,0.0,0,0,0.0
2285,0,0.0,0.62,,,,,,,,,,,,,,,,,,
2287,0,0.0,0.62,,,,,,,,,,,,,,,,,,
2289,0,0.0,0.62,,,,,,,,,,,,,,,,,,
2291,0,0.0,0.63,,,,,,,,,,,,,,,,,,
2293,0,0.0,0.62,,-0.03,0.11,0.94,0,0,-0,0.11,,,,,,,,,,
2295,0,0.0,0.62,,,,,,,,,,,,,,,,,,
2297,0,0.0,0.62,,,,,,,,,,,,,,,,,,
2299,0,0.0,0.62,,,,,,,,,,,,,,,,,,
2301,0,0.0,0.62,,,,,,,,,,,,,,,,,,
2303,0,0.0,0.62,,-0.2,0.12,1.08,-0,-0,-1,0.23,0,2040,0,0.0,0.0,0.0,0.0,0,0,0.0
2305,0,0.0,0.62,,,,,,,,,,,,,,,,,,
2307,0,0.0,0.62,,,,,,,,,,,,,,,,,,
2309,0,0.0,0.62,,,,,,,,,,,,,,,,,,
2311,0,0.0,0.62,,,,,,,,,,,,,,,,,,
2313,0,0.0,0.62,,-0.04,0.02,0.91,0,-1,-0,0.04,,,,,,,,,,
2315,0,0.0,0.62,,,,,,,,,,,,,,,,,,
2317,0,0.0,0.62,,,,,,,,,,,,,,,,,,
2319,0,0.0,0.62,,,,,,,,,,,,,,,,,,
2321,0,0.0,0.62,,,,,,,,,,,,,,,,,,
2323,0,0.0,0.62,,0.01,0.13,0.96,0,0,-0,0.13,0,2040,0,0.0,0.0,0.0,0.0,0,0,0.0
2325,0,0.0,0.62,,,,,,,,,,,,,,,,,,
2327,0,0.0,0.62,,,,,,,,,,,,,,,,,,
2329,0,0.0,0.62,,,,,,,,,,,,,,,,,,
2331,0,0.0,0.62,,,,,,,,,,,,,,,,,,
2333,0,0.0,0.62,,-0.21,0.12,1.09,0,-0,-1,0.24,,,,,,,,,,
2335,0,0.0,0.62,,,,,,,,,,,,,,,,,,
2337,0,0.0,0.62,,,,,,,,,,,,,,,,,,
2339,0,0.0,0.62,,,,,,,,,,,,,,,,,,
2341,0,0.0,0.62,,,,,,,,,,,,,,,,,,
2343,0,0.0,0.63,,0.0,0.03,0.98,0,-1,-0,0.03,0,2040,0,0.0,0.0,0.0,0.0,0,0,0.0
2345,0,0.0,0.62,,,,,,,,,,,,,,,,,,
2347,0,0.0,0.63,,,,,,,,,,,,,,,,,,
2349,0,0.0,0.64,,,,,,,,,,,,,,,,,,
2351,0,0.0,0.63,,,,,,,,,,,,,,,,,,
2353,0,0.0,0.63,,-0.06,0.1,0.94,0,0,-0,0.12,,,,,,,,,,
2355,0,0.0,0.63,,,,,,,,,,,,,,,,,,
2357,0,0.0,0.63,,,,,,,,,,,,,,,,,,
2359,0,0.0,0.63,,,,,,,,,,,,,,,,,,
2361,0,0.0,0.63,,,,,,,,,,,,,,,,,,
2363,0,0.0,0.63,,-0.2,0.11,1.08,0,-0,-1,0.23,0,2040,0,0.0,0.0,0.0,0.0,0,0,0.0
2365,0,0.0,0.63,,,,,,,,,,,,,,,,,,
2367,0,0.0,0.63,,,,,,,,,,,,,,,,,,
2369,0,0.0,0.63,,,,,,,,,,,,,,,,,,
2371,0,0.0,0.63,,,,,,,,,,,,,,,,,,
2373,0,0.0,0.63,,-0.03,0.02,0.97,0,-1,-0,0.04,,,,,,,,,,
2375,0,0.0,0.63,,,,,,,,,,,,,,,,,,
2377,0,0.0,0.64,,,,,,,,,,,,,,,,,,
2379,0,0.0,0.63,,,,,,,,,,,,,,,,,,
2381,0,0.0,0.63,,,,,,,,,,,,,,,,,,
2383,0,0.0,0.63,,-0.03,0.09,0.94,0,-0,-0,0.1,0,2040,0,0.0,0.0,0.0,0.0,0,0,0.0
2385,0,0.0,0.63,,,,,,,,,,,,,,,,,,
2387,0,0.0,0.63,,,,,,,,,,,,,,,,,,
2389,0,0.0,0.63,,,,,,,,,,,,,,,,,,
2391,0,0.0,0.63,,,,,,,,,,,,,,,,,,
2393,0,0.0,0.63,,-0.15,0.09,1.07,0,0,-1,0.17,,,,,,,,,,
2395,0,0.0,0.63,,,,,,,,,,,,,,,,,,
2397,0,0.0,0.63,,,,,,,,,,,,,,,,,,
2399,0,0.0,0.63,,,,,,,,,,,,,,,,,,
2401,0,0.0,0.63,,,,,,,,,,,,,,,,,,
2403,0,0.0,0.63,,0.02,0.05,0.98,0,-1,-0,0.05,0,2040,0,0.0,0.0,0.0,0.0,0,0,0.0
2405,0,0.0,0.63,,,,,,,,,,,,,,,,,,
2407,0,0.0,0.65,,,,,,,,,,,,,,,,,,
2409,0,0.0,0.64,,,,,,,,,,,,,,,,,,
2411,0,0.0,0.64,,,,,,,,,,,,,,,,,,
2413,0,0.0,0.64,,-0.07,0.08,0.94,-0,0,-1,0.1,,,,,,,,,,
2415,0,0.0,0.64,,,,,,,,,,,,,,,,,,
2417,0,0.0,0.63,,,,,,,,,,,,,,,,,,
2419,0,0.0,0.64,,,,,,,,,,,,,,,,,,
2421,0,0.0,0.63,,,,,,,,,,,,,,,,,,
2423,0,0.0,0.63,,-0.17,0.08,1.07,0,0,-1,0.19,0,2040,0,0.0,0.0,0.0,0.0,0,0,0.0
2425,0,0.0,0.63,,,,,,,,,,,,,,,,,,
2427,0,0.0,0.63,,,,,,,,,,,,,,,,,,
2429,0,0.0,0.63,,,,,,,,,,,,,,,,,,
2431,0,0.0,0.63,,,,,,,,,,,,,,,,,,
2433,0,0.0,0.63,,-0.03,0.06,1.0,-0,-1,-0,0.06,,,,,,,,,,
2435,0,0.0,0.65,,,,,,,,,,,,,,,,,,
2437,0,0.0,0.64,,,,,,,,,,,,,,,,,,
2439,0,0.0,0.64,,,,,,,,,,,,,,,,,,
2441,0,0.0,0.64,,,,,,,,,,,,,,,,,,
2443,0,0.0,0.64,,-0.08,0.06,0.96,-0,-0,-1,0.1,0,2040,0,0.0,0.0,0.0,0.0,0,0,0.0
2445,0,0.0,0.64,,,,,,,,,,,,,,,,,,
2447,0,0.0,0.64,,,,,,,,,,,,,,,,,,
2449,0,0.0,0.64,,,,,,,,,,,,,,,,,,
2451,0,0.0,0.64,,,,,,,,,,,,,,,,,,
2453,0,0.0,0.64,,-0.12,0.05,1.06,0,0,-0,0.13,,,,,,,,,,
2455,0,0.0,0.64,,,,,,,,,,,,,,,,,,
2457,0,0.0,0.64,,,,,,,,,,,,,,,,,,
2459,0,0.0,0.64,,,,,,,,,,,,,,,,,,
2461,0,0.0,0.64,,,,,,,,,,,,,,,,,,
2463,0,0.0,0.64,,-0.0,0.07,1.01,-0,-0,-0,0.07,0,2040,0,0.0,0.0,0.0,0.0,0,0,0.0
2465,0,0.0,0.65,,,,,,,,,,,,,,,,,,
2467,0,0.0,0.65,,,,,,,,,,,,,,,,,,
2469,0,0.0,0.64,,,,,,,,,,,,,,,,,,
2471,0,0.0,0.64,,,,,,,,,,,,,,,,,,
2473,0,0.0,0.64,,-0.09,0.08,0.95,-0,-0,-1,0.12,,,,,,,,,,
2475,0,0.0,0.64,,,,,,,,,,,,,,,,,,
2477,0,0.0,0.64,,,,,,,,,,,,,,,,,,
2479,0,0.0,0.64,,,,,,,,,,,,,,,,,,
2481,0,0.0,0.64,,,,,,,,,,,,,,,,,,
2483,0,0.0,0.64,,-0.13,0.05,1.01,0,-0,-0,0.14,0,2040,0,0.0,0.0,0.0,0.0,0,0,0.0
2485,0,0.0,0.64,,,,,,,,,,,,,,,,,,
2487,0,0.0,0.64,,,,,,,,,,,,,,,,,,
2489,0,0.0,0.64,,,,,,,,,,,,,,,,,,
2491,0,0.0,0.64,,,,,,,,,,,,,,,,,,
2493,0,0.0,0.65,,0.01,0.11,1.0,-0,-0,-0,0.11,,,,,,,,,,
2495,0,0.0,0.64,,,,,,,,,,,,,,,,,,
2497,0,0.0,0.65,,,,,,,,,,,,,,,,,,
2499,0,0.0,0.64,,,,,,,,,,,,,,,,,,
2501,0,0.0,0.64,,,,,,,,,,,,,,,,,,
2503,0,0.0,0.64,,-0.17,0.08,0.96,-0,-0,-1,0.18,0,2040,0,0.0,0.0,0.0,0.0,0,0,0.0
2505,0,0.0,0.64,,,,,,,,,,,,,,,,,,
2507,0,0.0,0.65,,,,,,,,,,,,,,,,,,
2509,0,0.0,0.64,,,,,,,,,,,,,,,,,,
2511,0,0.0,0.65,,,,,,,,,,,,,,,,,,
2513,0,0.0,0.65,,-0.08,0.02,1.05,0,-1,-0,0.09,,,,,,,,,,
2515,0,0.0,0.65,,,,,,,,,,,,,,,,,,
2517,0,0.0,0.64,,,,,,,,,,,,,,,,,,
2519,0,0.0,0.64,,,,,,,,,,,,,,,,,,
2521,0,0.0,0.66,,,,,,,,,,,,,,,,,,
2523,0,0.0,0.65,,-0.01,0.09,0.95,0,-0,-0,0.09,0,2040,0,0.0,0.0,0.0,0.0,0,0,0.0
2525,0,0.0,0.65,,,,,,,,,,,,,,,,,,
2527,0,0.0,0.65,,,,,,,,,,,,,,,,,,
2529,0,0.0,0.65,,,,,,,,,,,,,,,,,,
2531,0,0.0,0.65,,,,,,,,,,,,,,,,,,
2533,0,0.0,0.65,,-0.16,0.11,1.01,-0,-0,-1,0.19,,,,,,,,,,
2535,0,0.0,0.65,,,,,,,,,,,,,,,,,,
2537,0,0.0,0.65,,,,,,,,,,,,,,,,,,
2539,0,0.0,0.65,,,,,,,,,,,,,,,,,,
2541,0,0.0,0.65,,,,,,,,,,,,,,,,,,
2543,0,0.0,0.65,,-0.07,0.03,0.92,0,-1,-0,0.07,0,2040,0,0.0,0.0,0.0,0.0,0,0,0.0
2545,0,0.0,0.65,,,,,,,,,,,,,,,,,,
2547,0,0.0,0.65,,,,,,,,,,,,,,,,,,
2549,0,0.0,0.65,,,,,,,,,,,,,,,,,,
2551,0,0.0,0.66,,,,,,,,,,,,,,,,,,
2553,0,0.0,0.65,,0.03,0.13,0.95,0,0,-0,0.13,,,,,,,,,,
2555,0,0.0,0.65,,,,,,,,,,,,,,,,,,
2557,0,0.0,0.65,,,,,,,,,,,,,,,,,,
2559,0,0.0,0.65,,,,,,,,,,,,,,,,,,
2561,0,0.0,0.65,,,,,,,,,,,,,,,,,,
2563,0,0.0,0.65,,-0.2,0.11,1.02,-0,-0,-1,0.23,0,2040,0,0.0,0.0,0.0,0.0,0,0,0.0
2565,0,0.0,0.65,,,,,,,,,,,,,,,,,,
2567,0,0.0,0.65,,,,,,,,,,,,,,,,,,
2569,0,0.0,0.65,,,,,,,,,,,,,,,,,,
2571,0,0.0,0.65,,,,,,,,,,,,,,,,,,
2573,0,0.0,0.65,,-0.03,0.01,0.99,0,-1,-0,0.03,,,,,,,,,,
2575,0,0.0,0.66,,,,,,,,,,,,,,,,,,
2577,0,0.0,0.65,,,,,,,,,,,,,,,,,,
2579,0,0.0,0.66,,,,,,,,,,,,,,,,,,
2581,0,0.0,0.66,,,,,,,,,,,,,,,,,,
2583,0,0.0,0.66,,-0.02,0.1,0.92,0,0,-0,0.1,0,2040,0,0.0,0.0,0.0,0.0,0,0,0.0
2585,0,0.0,0.66,,,,,,,,,,,,,,,,,,
2587,0,0.0,0.66,,,,,,,,,,,,,,,,,,
2589,0,0.0,0.66,,,,,,,,,,,,,,,,,,
2591,0,0.0,0.66,,,,,,,,,,,,,,,,,,
2593,0,0.0,0.65,,-0.19,0.12,1.08,0,-0,-1,0.22,,,,,,,,,,
2595,0,0.0,0.66,,,,,,,,,,,,,,,,,,
2597,0,0.0,0.65,,,,,,,,,,,,,,,,,,
2599,0,0.0,0.65,,,,,,,,,,,,,,,,,,
2601,0,0.0,0.66,,,,,,,,,,,,,,,,,,
2603,0,0.0,0.66,,-0.04,0.02,0.94,0,-1,-0,0.05,0,2040,0,0.0,0.0,0.0,0.0,0,0,0.0
2605,0,0.0,0.65,,,,,,,,,,,,,,,,,,
2607,0,0.0,0.66,,,,,,,,,,,,,,,,,,
2609,0,0.0,0.67,,,,,,,,,,,,,,,,,,
2611,0,0.0,0.66,,,,,,,,,,,,,,,,,,
2613,0,0.0,0.66,,0.01,0.11,0.94,0,0,-0,0.11,,,,,,,,,,
2615,0,0.0,0.66,,,,,,,,,,,,,,,,,,
2617,0,0.0,0.66,,,,,,,,,,,,,,,,,,
2619,0,0.0,0.66,,,,,,,,,,,,,,,,,,
2621,0,0.0,0.66,,,,,,,,,,,,,,,,,,
2623,0,0.0,0.66,,-0.17,0.11,1.08,0,0,-1,0.2,0,2040,0,0.0,0.0,0.0,0.0,0,0,0.0
2625,0,0.0,0.66,,,,,,,,,,,,,,,,,,
2627,0,0.0,0.66,,,,,,,,,,,,,,,,,,
2629,0,0.0,0.66,,,,,,,,,,,,,,,,,,
2631,0,0.0,0.66,,,,,,,,,,,,,,,,,,
2633,0,0.0,0.66,,0.0,0.04,0.98,0,-1,-0,0.04,,,,,,,,,,
2635,0,0.0,0.66,,,,,,,,,,,,,,,,,,
2637,0,0.0,0.67,,,,,,,,,,,,,,,,,,
2639,0,0.0,0.67,,,,,,,,,,,,,,,,,,
2641,0,0.0,0.66,,,,,,,,,,,,,,,,,,
2643,0,0.0,0.66,,-0.05,0.09,0.94,-0,0,-0,0.1,0,2040,0,0.0,0.0,0.0,0.0,0,0,0.0
2645,0,0.0,0.66,,,,,,,,,,,,,,,,,,
2647,0,0.0,0.66,,,,,,,,,,,,,,,,,,
2649,0,0.0,0.66,,,,,,,,,,,,,,,,,,
2651,0,0.0,0.66,,,,,,,,,,,,,,,,,,
2653,0,0.0,0.66,,-0.19,0.1,1.1,0,0,-1,0.21,,,,,,,,,,
2655,0,0.0,0.66,,,,,,,,,,,,,,,,,,
2657,0,0.0,0.66,,,,,,,,,,,,,,,,,,
2659,0,0.0,0.66,,,,,,,,,,,,,,,,,,
2661,0,0.0,0.66,,,,,,,,,,,,,,,,,,
2663,0,0.0,0.66,,-0.03,0.03,0.98,0,-1,-0,0.04,0,2040,0,0.0,0.0,0.0,0.0,0,0,0.0
2665,0,0.0,0.66,,,,,,,,,,,,,,,,,,
2667,0,0.0,0.68,,,,,,,,,,,,,,,,,,
2669,0,0.0,0.66,,,,,,,,,,,,,,,,,,
2671,0,0.0,0.67,,,,,,,,,,,,,,,,,,
2673,0,0.0,0.67,,-0.04,0.08,0.94,0,-0,-0,0.09,,,,,,,,,,
2675,0,0.0,0.66,,,,,,,,,,,,,,,,,,
2677,0,0.0,0.67,,,,,,,,,,,,,,,,,,
2679,0,0.0,0.66,,,,,,,,,,,,,,,,,,
2681,0,0.0,0.67,,,,,,,,,,,,,,,,,,
2683,0,0.0,0.67,,-0.13,0.08,1.06,0,0,-0,0.15,0,2040,0,0.0,0.0,0.0,0.0,0,0,0.0
2685,0,0.0,0.67,,,,,,,,,,,,,,,,,,
2687,0,0.0,0.66,,,,,,,,,,,,,,,,,,
2689,0,0.0,0.67,,,,,,,,,,,,,,,,,,
2691,0,0.0,0.67,,,,,,,,,,,,,,,,,,
2693,0,0.0,0.67,,0.01,0.07,1.0,0,-1,-0,0.07,,,,,,,,,,
2695,0,0.0,0.68,,,,,,,,,,,,,,,,,,
2697,0,0.0,0.67,,,,,,,,,,,,,,,,,,
2699,0,0.0,0.67,,,,,,,,,,,,,,,,,,
2701,0,0.0,0.67,,,,,,,,,,,,,,,,,,
2703,0,0.0,0.67,,-0.07,0.08,0.94,-0,0,-1,0.1,0,2040,0,0.0,0.0,0.0,0.0,0,0,0.0
2705,0,0.0,0.67,,,,,,,,,,,,,,,,,,
2707,0,0.0,0.67,,,,,,,,,,,,,,,,,,
2709,0,0.0,0.67,,,,,,,,,,,,,,,,,,
2711,0,0.0,0.67,,,,,,,,,,,,,,,,,,
2713,0,0.0,0.67,,-0.16,0.08,1.04,0,0,-0,0.18,,,,,,,,,,
2715,0,0.0,0.67,,,,,,,,,,,,,,,,,,
2717,0,0.0,0.67,,,,,,,,,,,,,,,,,,
2719,0,0.0,0.67,,,,,,,,,,,,,,,,,,
2721,0,0.0,0.67,,,,,,,,,,,,,,,,,,
2723,0,0.0,0.67,,-0.01,0.08,0.99,-0,-1,-0,0.08,0,2040,0,0.0,0.0,0.0,0.0,0,0,0.0
2725,0,0.0,0.68,,,,,,,,,,,,,,,,,,
2727,0,0.0,0.67,,,,,,,,,,,,,,,,,,
2729,0,0.0,0.68,,,,,,,,,,,,,,,,,,
2731,0,0.0,0.67,,,,,,,,,,,,,,,,,,
2733,0,0.0,0.67,,-0.09,0.07,0.95,-0,-0,-0,0.11,,,,,,,,,,
2735,0,0.0,0.67,,,,,,,,,,,,,,,,,,
2737,0,0.0,0.67,,,,,,,,,,,,,,,,,,
2739,0,0.0,0.67,,,,,,,,,,,,,,,,,,
2741,0,0.0,0.67,,,,,,,,,,,,,,,,,,
2743,0,0.0,0.67,,-0.1,0.05,1.05,0,0,-0,0.11,0,2040,0,0.0,0.0,0.0,0.0,0,0,0.0
2745,0,0.0,0.67,,,,,,,,,,,,,,,,,,
2747,0,0.0,0.67,,,,,,,,,,,,,,,,,,
2749,0,0.0,0.68,,,,,,,,,,,,,,,,,,
2751,0,0.0,0.67,,,,,,,,,,,,,,,,,,
2753,0,0.0,0.68,,0.01,0.07,0.99,-0,-0,-0,0.07,,,,,,,,,,
2755,0,0.0,0.68,,,,,,,,,,,,,,,,,,
2757,0,0.0,0.68,,,,,,,,,,,,,,,,,,
2759,0,0.0,0.68,,,,,,,,,,,,,,,,,,
2761,0,0.0,0.68,,,,,,,,,,,,,,,,,,
2763,0,0.0,0.68,,-0.1,0.08,0.93,-0,-0,-1,0.13,0,2040,0,0.0,0.0,0.0,0.0,0,0,0.0
2765,0,0.0,0.67,,,,,,,,,,,,,,,,,,
2767,0,0.0,0.68,,,,,,,,,,,,,,,,,,
2769,0,0.0,0.68,,,,,,,,,,,,,,,,,,
2771,0,0.0,0.68,,,,,,,,,,,,,,,,,,
2773,0,0.0,0.68,,-0.12,0.03,0.98,0,-0,-0,0.13,,,,,,,,,,
2775,0,0.0,0.67,,,,,,,,,,,,,,,,,,
2777,0,0.0,0.68,,,,,,,,,,,,,,,,,,
2779,0,0.0,0.68,,,,,,,,,,,,,,,,,,
2781,0,0.0,0.67,,,,,,,,,,,,,,,,,,
2783,0,0.0,0.69,,0.02,0.1,0.98,-0,-0,-0,0.1,0,2040,0,0.0,0.0,0.0,0.0,0,0,0.0
2785,0,0.0,0.68,,,,,,,,,,,,,,,,,,
2787,0,0.0,0.68,,,,,,,,,,,,,,,,,,
2789,0,0.0,0.68,,,,,,,,,,,,,,,,,,
2791,0,0.0,0.68,,,,,,,,,,,,,,,,,,
2793,0,0.0,0.68,,-0.16,0.07,0.95,-0,-0,-1,0.18,,,,,,,,,,
2795,0,0.0,0.68,,,,,,,,,,,,,,,,,,
2797,0,0.0,0.68,,,,,,,,,,,,,,,,,,
2799,0,0.0,0.68,,,,,,,,,,,,,,,,,,
2801,0,0.0,0.68,,,,,,,,,,,,,,,,,,
2803,0,0.0,0.68,,-0.09,0.01,1.04,0,-1,-0,0.09,0,2040,0,0.0,0.0,0.0,0.0,0,0,0.0
2805,0,0.0,0.68,,,,,,,,,,,,,,,,,,
2807,0,0.0,0.68,,,,,,,,,,,,,,,,,,
2809,0,0.0,0.68,,,,,,,,,,,,,,,,,,
2811,0,0.0,0.68,,,,,,,,,,,,,,,,,,
2813,0,0.0,0.7,,0.0,0.09,0.94,0,0,-0,0.09,,,,,,,,,,
2815,0,0.0,0.68,,,,,,,,,,,,,,,,,,
2817,0,0.0,0.68,,,,,,,,,,,,,,,,,,
2819,0,0.0,0.68,,,,,,,,,,,,,,,,,,
2821,0,0.0,0.69,,,,,,,,,,,,,,,,,,
2823,0,0.0,0.68,,-0.15,0.1,0.99,-0,-0,-1,0.18,0,2040,0,0.0,0.0,0.0,0.0,0,0,0.0
2825,0,0.0,0.68,,,,,,,,,,,,,,,,,,
2827,0,0.0,0.68,,,,,,,,,,,,,,,,,,
2829,0,0.0,0.68,,,,,,,,,,,,,,,,,,
2831,0,0.0,0.68,,,,,,,,,,,,,,,,,,
2833,0,0.0,0.68,,-0.08,0.02,0.93,0,-1,0,0.08,,,,,,,,,,
2835,0,0.0,0.68,,,,,,,,,,,,,,,,,,
2837,0,0.0,0.68,,,,,,,,,,,,,,,,,,
2839,0,0.0,0.68,,,,,,,,,,,,,,,,,,
2841,0,0.0,0.7,,,,,,,,,,,,,,,,,,
2843,0,0.0,0.69,,0.03,0.12,0.96,-0,0,-0,0.13,0,2040,0,0.0,0.0,0.0,0.0,0,0,0.0
2845,0,0.0,0.69,,,,,,,,,,,,,,,,,,
2847,0,0.0,0.69,,,,,,,,,,,,,,,,,,
2849,0,0.0,0.69,,,,,,,,,,,,,,,,,,
2851,0,0.0,0.69,,,,,,,,,,,,,,,,,,
2853,0,0.0,0.69,,-0.21,0.09,1.01,-0,-0,-1,0.23,,,,,,,,,,
2855,0,0.0,0.68,,,,,,,,,,,,,,,,,,
2857,0,0.0,0.69,,,,,,,,,,,,,,,,,,
2859,0,0.0,0.69,,,,,,,,,,,,,,,,,,
2861,0,0.0,0.69,,,,,,,,,,,,,,,,,,
2863,0,0.0,0.69,,-0.04,0.0,0.98,0,-1,-0,0.04,0,2040,0,0.0,0.0,0.0,0.0,0,0,0.0
2865,0,0.0,0.69,,,,,,,,,,,,,,,,,,
2867,0,0.0,0.69,,,,,,,,,,,,,,,,,,
2869,0,0.0,0.69,,,,,,,,,,,,,,,,,,
2871,0,0.0,0.7,,,,,,,,,,,,,,,,,,
2873,0,0.0,0.69,,-0.02,0.09,0.94,0,0,0,0.1,,,,,,,,,,
2875,0,0.0,0.69,,,,,,,,,,,,,,,,,,
2877,0,0.0,0.69,,,,,,,,,,,,,,,,,,
2879,0,0.0,0.69,,,,,,,,,,,,,,,,,,
2881,0,0.0,0.69,,,,,,,,,,,,,,,,,,
2883,0,0.0,0.69,,-0.19,0.11,1.07,0,-0,-1,0.22,0,2040,0,0.0,0.0,0.0,0.0,0,0,0.0
2885,0,0.0,0.69,,,,,,,,,,,,,,,,,,
2887,0,0.0,0.69,,,,,,,,,,,,,,,,,,
2889,0,0.0,0.69,,,,,,,,,,,,,,,,,,
2891,0,0.0,0.69,,,,,,,,,,,,,,,,,,
2893,0,0.0,0.69,,-0.05,0.01,0.91,0,-1,0,0.05,,,,,,,,,,
2895,0,0.0,0.69,,,,,,,,,,,,,,,,,,
2897,0,0.0,0.69,,,,,,,,,,,,,,,,,,
2899,0,0.0,0.7,,,,,,,,,,,,,,,,,,
2901,0,0.0,0.7,,,,,,,,,,,,,,,,,,
2903,0,0.0,0.69,,0.01,0.12,0.96,0,0,-0,0.12,0,2040,0,0.0,0.0,0.0,0.0,0,0,0.0
2905,0,0.0,0.69,,,,,,,,,,,,,,,,,,
2907,0,0.0,0.69,,,,,,,,,,,,,,,,,,
2909,0,0.0,0.69,,,,,,,,,,,,,,,,,,
2911,0,0.0,0.69,,,,,,,,,,,,,,,,,,
2913,0,0.0,0.69,,-0.2,0.11,1.09,0,-0,-1,0.23,,,,,,,,,,
2915,0,0.0,0.69,,,,,,,,,,,,,,,,,,
2917,0,0.0,0.69,,,,,,,,,,,,,,,,,,
2919,0,0.0,0.69,,,,,,,,,,,,,,,,,,
2921,0,0.0,0.69,,,,,,,,,,,,,,,,,,
2923,0,0.0,0.69,,-0.0,0.02,1.0,0,-1,-0,0.02,0,2040,0,0.0,0.0,0.0,0.0,0,0,0.0
2925,0,0.0,0.7,,,,,,,,,,,,,,,,,,
2927,0,0.0,0.7,,,,,,,,,,,,,,,,,,
2929,0,0.0,0.71,,,,,,,,,,,,,,,,,,
2931,0,0.0,0.7,,,,,,,,,,,,,,,,,,
2933,0,0.0,0.7,,-0.05,0.09,0.94,-0,0,-0,0.1,,,,,,,,,,
2935,0,0.0,0.7,,,,,,,,,,,,,,,,,,
2937,0,0.0,0.7,,,,,,,,,,,,,,,,,,
2939,0,0.0,0.7,,,,,,,,,,,,,,,,,,
2941,0,0.0,0.7,,,,,,,,,,,,,,,,,,
2943,0,0.0,0.7,,-0.2,0.11,1.1,0,-0,-1,0.23,0,2040,0,0.0,0.0,0.0,0.0,0,0,0.0
2945,0,0.0,0.7,,,,,,,,,,,,,,,,,,
2947,0,0.0,0.7,,,,,,,,,,,,,,,,,,
2949,0,0.01,0.7,,,,,,,,,,,,,,,,,,
2951,0,0.0,0.69,,,,,,,,,,,,,,,,,,
2953,0,0.0,0.7,,-0.04,0.02,0.97,0,-1,-0,0.04,,,,,,,,,,
2955,0,0.0,0.7,,,,,,,,,,,,,,,,,,
2957,0,0.0,0.71,,,,,,,,,,,,,,,,,,
2959,0,0.0,0.7,,,,,,,,,,,,,,,,,,
2961,0,0.0,0.7,,,,,,,,,,,,,,,,,,
2963,0,0.0,0.7,,-0.02,0.09,0.94,0,-0,-0,0.09,0,2040,0,0.0,0.0,0.0,0.0,0,0,0.0
2965,0,0.0,0.7,,,,,,,,,,,,,,,,,,
2967,0,0.0,0.7,,,,,,,,,,,,,,,,,,
2969,0,0.0,0.7,,,,,,,,,,,,,,,,,,
2971,0,0.0,0.7,,,,,,,,,,,,,,,,,,
2973,0,0.0,0.7,,-0.14,0.1,1.08,0,-0,-0,0.17,,,,,,,,,,
2975,0,0.0,0.7,,,,,,,,,,,,,,,,,,
2977,0,0.0,0.7,,,,,,,,,,,,,,,,,,
2979,0,0.0,0.7,,,,,,,,,,,,,,,,,,
2981,0,0.0,0.7,,,,,,,,,,,,,,,,,,
2983,0,0.0,0.7,,0.02,0.03,0.97,0,-1,-0,0.04,0,2040,0,0.0,0.0,0.0,0.0,0,0,0.0
2985,0,0.0,0.7,,,,,,,,,,,,,,,,,,
2987,0,0.0,0.72,,,,,,,,,,,,,,,,,,
2989,0,0.0,0.71,,,,,,,,,,,,,,,,,,
2991,0,0.0,0.7,,,,,,,,,,,,,,,,,,
2993,0,0.0,0.7,,-0.05,0.08,0.94,-0,0,-0,0.09,,,,,,,,,,
2995,0,0.0,0.7,,,,,,,,,,,,,,,,,,
2997,0,0.0,0.7,,,,,,,,,,,,,,,,,,
2999,0,0.0,0.7,,,,,,,,,,,,,,,,,,
3001,0,0.0,0.7,,,,,,,,,,,,,,,,,,
3003,0,0.0,0.7,,-0.17,0.1,1.08,0,0,-0,0.2,0,2040,0,0.0,0.0,0.0,0.0,0,0,0.0
3005,0,0.01,0.7,,,,,,,,,,,,,,,,,,
3007,0,0.0,0.7,,,,,,,,,,,,,,,,,,
3009,0,0.0,0.7,,,,,,,,,,,,,,,,,,
3011,0,0.0,0.7,,,,,,,,,,,,,,,,,,
3013,0,0.0,0.7,,-0.03,0.05,1.01,0,-1,-0,0.05,,,,,,,,,,
3015,0,0.0,0.71,,,,,,,,,,,,,,,,,,
3017,0,0.0,0.71,,,,,,,,,,,,,,,,,,
3019,0,0.0,0.71,,,,,,,,,,,,,,,,,,
3021,0,0.0,0.71,,,,,,,,,,,,,,,,,,
3023,0,0.0,0.71,,-0.07,0.06,0.97,-0,-0,-0,0.09,0,2040,0,0.0,0.0,0.0,0.0,0,0,0.0
3025,0,0.0,0.7,,,,,,,,,,,,,,,,,,
3027,0,0.0,0.7,,,,,,,,,,,,,,,,,,
3029,0,0.0,0.7,,,,,,,,,,,,,,,,,,
3031,0,0.0,0.71,,,,,,,,,,,,,,,,,,
3033,0,0.0,0.7,,-0.11,0.07,1.07,0,0,-0,0.13,,,,,,,,,,
3035,0,0.0,0.7,,,,,,,,,,,,,,,,,,
3037,0,0.0,0.71,,,,,,,,,,,,,,,,,,
3039,0,0.0,0.71,,,,,,,,,,,,,,,,,,
3041,0,0.0,0.71,,,,,,,,,,,,,,,,,,
3043,0,0.0,0.71,13.28,-0.01,0.07,1.0,0,-0,-0,0.07,0,2100,0,0.0,0.0,0.0,0.0,0,0,0.0
3045,0,0.0,0.71,,,,,,,,,,,,,,,,,,
3047,0,0.0,0.71,,,,,,,,,,,,,,,,,,
3049,0,0.0,0.71,,,,,,,,,,,,,,,,,,
3051,0,0.0,0.71,,,,,,,,,,,,,,,,,,
3053,0,0.0,0.71,,-0.07,0.08,0.93,-0,-0,-1,0.11,,,,,,,,,,
3055,0,0.0,0.71,,,,,,,,,,,,,,,,,,
3057,0,0.0,0.71,,,,,,,,,,,,,,,,,,
3059,0,0.0,0.71,,,,,,,,,,,,,,,,,,
3061,0,0.0,0.71,,,,,,,,,,,,,,,,,,
3063,0,0.0,0.71,,-0.12,0.05,1.01,0,-0,-0,0.13,0,2100,0,0.0,0.0,0.0,0.0,0,0,0.0
3065,0,0.0,0.71,,,,,,,,,,,,,,,,,,
3067,0,0.0,0.71,,,,,,,,,,,,,,,,,,
3069,0,0.0,0.71,,,,,,,,,,,,,,,,,,
3071,0,0.0,0.71,,,,,,,,,,,,,,,,,,
3073,0,0.0,0.72,,0.0,0.11,1.01,-0,-0,-0,0.11,,,,,,,,,,
3075,0,0.0,0.71,,,,,,,,,,,,,,,,,,
3077,0,0.0,0.71,,,,,,,,,,,,,,,,,,
3079,0,0.0,0.71,,,,,,,,,,,,,,,,,,
3081,0,0.0,0.71,,,,,,,,,,,,,,,,,,
3083,0,0.0,0.71,,-0.15,0.08,0.97,-0,-0,-1,0.17,0,2040,0,0.0,0.0,0.0,0.0,0,0,0.0
3085,0,0.0,0.71,,,,,,,,,,,,,,,,,,
3087,0,0.0,0.71,,,,,,,,,,,,,,,,,,
3089,0,0.0,0.71,,,,,,,,,,,,,,,,,,
3091,0,0.0,0.71,,,,,,,,,,,,,,,,,,
3093,0,0.0,0.71,,-0.09,0.03,1.03,0,-1,-0,0.1,,,,,,,,,,
3095,0,0.0,0.71,,,,,,,,,,,,,,,,,,
3097,0,0.0,0.71,,,,,,,,,,,,,,,,,,
3099,0,0.0,0.71,,,,,,,,,,,,,,,,,,
3101,0,0.0,0.72,,,,,,,,,,,,,,,,,,
3103,0,0.0,0.72,,-0.02,0.08,0.96,0,-0,-0,0.08,0,2040,0,0.0,0.0,0.0,0.0,0,0,0.0
3105,0,0.0,0.72,,,,,,,,,,,,,,,,,,
3107,0,0.0,0.72,,,,,,,,,,,,,,,,,,
3109,0,0.0,0.72,,,,,,,,,,,,,,,,,,
3111,0,0.0,0.71,,,,,,,,,,,,,,,,,,
3113,0,0.0,0.71,,-0.15,0.11,1.02,-0,-0,-1,0.18,,,,,,,,,,
3115,0,0.0,0.71,,,,,,,,,,,,,,,,,,
3117,0,0.0,0.71,,,,,,,,,,,,,,,,,,
3119,0,0.0,0.71,,,,,,,,,,,,,,,,,,
3121,0,0.0,0.71,,,,,,,,,,,,,,,,,,
3123,0,0.0,0.71,,-0.09,0.02,0.93,0,-1,0,0.09,0,2040,0,0.0,0.0,0.0,0.0,0,0,0.0
3125,0,0.0,0.72,,,,,,,,,,,,,,,,,,
3127,0,0.0,0.72,,,,,,,,,,,,,,,,,,
3129,0,0.0,0.72,,,,,,,,,,,,,,,,,,
