"Interval"|"ms"|0|0|1,"Utc"|"ms"|0|0|1,"Analog4"|"Volts"|0.0|5.0|500,"Analog5"|"Volts"|0.0|5.0|500,"Battery"|"Volts"|0.0|20.0|1,"AccelX"|"G"|-3.0|3.0|200,"AccelY"|"G"|-3.0|3.0|200,"AccelZ"|"G"|-3.0|3.0|200,"Yaw"|"Deg/Sec"|-120|120|200,"Pitch"|"Deg/Sec"|-120|120|200,"Roll"|"Deg/Sec"|-120|120|200,"Gsum"|"G"|0.0|3.0|200,"RPM2"|"rpm"|0|8000|50,"RPM3"|"rpm"|0|8000|50,"GPIO1"|""|0.0|1.0|50,"Latitude"|"Degrees"|-180.0|180.0|50,"Longitude"|"Degrees"|-180.0|180.0|50,"Speed"|"mph"|0.0|150.0|50,"Altitude"|"ft"|0.0|4000.0|50,"GPSSats"|""|0|20|50,"GPSQual"|""|0|5|50,"GPSDOP"|""|0.0|20.0|50
157,0,0.01,0.31,,,,,,,,,,,,,,,,,,
163,0,0.0,0.3,,-0.02,0.11,1.04,-0,0,-0,0.11,0,1980,0,0.0,0.0,0.0,0.0,0,0,0.0
165,0,0.0,0.32,,,,,,,,,,,,,,,,,,
167,0,0.0,0.31,,,,,,,,,,,,,,,,,,
169,0,0.0,0.31,,,,,,,,,,,,,,,,,,
171,0,0.0,0.31,,,,,,,,,,,,,,,,,,
173,0,0.0,0.31,,-0.16,0.07,0.92,0,-0,-1,0.18,,,,,,,,,,
175,0,0.0,0.31,,,,,,,,,,,,,,,,,,
177,0,0.0,0.31,,,,,,,,,,,,,,,,,,
179,0,0.0,0.31,,,,,,,,,,,,,,,,,,
181,0,0.0,0.31,,,,,,,,,,,,,,,,,,
183,0,0.0,0.31,,0.0,0.05,1.03,0,-0,-0,0.05,0,1920,0,0.0,0.0,0.0,0.0,0,0,0.0
187,0,0.0,0.31,,,,,,,,,,,,,,,,,,
189,0,0.0,0.31,,,,,,,,,,,,,,,,,,
191,0,0.0,0.31,,,,,,,,,,,,,,,,,,
193,0,0.0,0.31,,0.0,0.07,1.0,-0,0,-0,0.07,,,,,,,,,,
195,0,0.0,0.33,,,,,,,,,,,,,,,,,,
197,0,0.0,0.31,,,,,,,,,,,,,,,,,,
199,0,0.0,0.31,,,,,,,,,,,,,,,,,,
201,0,0.0,0.31,,,,,,,,,,,,,,,,,,
203,0,0.0,0.31,,-0.14,0.1,0.92,0,-0,-1,0.18,0,1980,0,0.0,0.0,0.0,0.0,0,0,0.0
205,0,0.0,0.31,,,,,,,,,,,,,,,,,,
207,0,0.0,0.31,,,,,,,,,,,,,,,,,,
209,0,0.0,0.32,,,,,,,,,,,,,,,,,,
211,0,0.0,0.31,,,,,,,,,,,,,,,,,,
213,0,0.0,0.31,,-0.08,0.07,0.98,0,-1,-0,0.11,,,,,,,,,,
215,0,0.0,0.31,,,,,,,,,,,,,,,,,,
217,0,0.0,0.32,,,,,,,,,,,,,,,,,,
219,0,0.01,0.32,,,,,,,,,,,,,,,,,,
221,0,0.0,0.32,,,,,,,,,,,,,,,,,,
223,0,0.0,0.32,,-0.03,0.09,1.03,-0,0,-0,0.09,0,1980,0,0.0,0.0,0.0,0.0,0,0,0.0
225,0,0.0,0.32,,,,,,,,,,,,,,,,,,
227,0,0.0,0.32,,,,,,,,,,,,,,,,,,
229,0,0.0,0.32,,,,,,,,,,,,,,,,,,
231,0,0.0,0.32,,,,,,,,,,,,,,,,,,
233,0,0.01,0.32,,-0.16,0.06,0.92,0,-1,-1,0.17,,,,,,,,,,
235,0,0.0,0.32,,,,,,,,,,,,,,,,,,
239,0,0.0,0.32,,,,,,,,,,,,,,,,,,
241,0,0.0,0.32,,,,,,,,,,,,,,,,,,
243,0,0.0,0.32,,-0.02,0.06,1.01,0,-0,-0,0.06,0,1920,0,0.0,0.0,0.0,0.0,0,0,0.0
245,0,0.0,0.32,,,,,,,,,,,,,,,,,,
247,0,0.0,0.32,,,,,,,,,,,,,,,,,,
249,0,0.0,0.32,,,,,,,,,,,,,,,,,,
251,0,0.0,0.32,,,,,,,,,,,,,,,,,,
253,0,0.0,0.32,,0.01,0.07,0.99,-0,-0,-0,0.07,,,,,,,,,,
255,0,0.0,0.33,,,,,,,,,,,,,,,,,,
257,0,0.01,0.32,,,,,,,,,,,,,,,,,,
259,0,0.0,0.32,,,,,,,,,,,,,,,,,,
261,0,0.01,0.32,,,,,,,,,,,,,,,,,,
263,0,0.0,0.32,,-0.12,0.12,0.91,0,-0,-1,0.17,0,1980,0,0.0,0.0,0.0,0.0,0,0,0.0
267,0,0.0,0.32,,,,,,,,,,,,,,,,,,
269,0,0.0,0.32,,,,,,,,,,,,,,,,,,
271,0,0.0,0.32,,,,,,,,,,,,,,,,,,
273,0,0.0,0.32,,-0.09,0.08,1.0,0,-1,-0,0.12,,,,,,,,,,
275,0,0.0,0.32,,,,,,,,,,,,,,,,,,
277,0,0.0,0.32,,,,,,,,,,,,,,,,,,
279,0,0.0,0.33,,,,,,,,,,,,,,,,,,
281,0,0.0,0.33,,,,,,,,,,,,,,,,,,
283,0,0.0,0.33,,-0.01,0.08,1.02,-0,-0,-0,0.08,0,1980,0,0.0,0.0,0.0,0.0,0,0,0.0
285,0,0.0,0.33,,,,,,,,,,,,,,,,,,
287,0,0.0,0.34,,,,,,,,,,,,,,,,,,
289,0,0.0,0.33,,,,,,,,,,,,,,,,,,
291,0,0.0,0.33,,,,,,,,,,,,,,,,,,
293,0,0.0,0.32,,-0.13,0.07,0.93,0,-1,-1,0.15,,,,,,,,,,
295,0,0.01,0.33,,,,,,,,,,,,,,,,,,
297,0,0.0,0.32,,,,,,,,,,,,,,,,,,
299,0,0.0,0.33,,,,,,,,,,,,,,,,,,
301,0,0.0,0.33,,,,,,,,,,,,,,,,,,
303,0,0.0,0.33,,-0.02,0.06,1.03,0,-0,-0,0.06,0,1920,0,0.0,0.0,0.0,0.0,0,0,0.0
305,0,0.0,0.33,,,,,,,,,,,,,,,,,,
307,0,0.0,0.33,,,,,,,,,,,,,,,,,,
309,0,0.0,0.33,,,,,,,,,,,,,,,,,,
311,0,0.0,0.33,,,,,,,,,,,,,,,,,,
313,0,0.0,0.33,,0.02,0.05,0.99,-0,-0,-0,0.06,,,,,,,,,,
315,0,0.0,0.33,,,,,,,,,,,,,,,,,,
319,0,0.0,0.33,,,,,,,,,,,,,,,,,,
321,0,0.0,0.33,,,,,,,,,,,,,,,,,,
323,0,0.01,0.33,,-0.14,0.12,0.93,0,-0,-1,0.18,0,1980,0,0.0,0.0,0.0,0.0,0,0,0.0
325,0,0.0,0.33,,,,,,,,,,,,,,,,,,
327,0,0.0,0.33,,,,,,,,,,,,,,,,,,
329,0,0.0,0.33,,,,,,,,,,,,,,,,,,
331,0,0.0,0.33,,,,,,,,,,,,,,,,,,
333,0,0.0,0.33,,-0.1,0.09,1.02,0,-0,-0,0.14,,,,,,,,,,
335,0,0.0,0.33,,,,,,,,,,,,,,,,,,
337,0,0.0,0.33,,,,,,,,,,,,,,,,,,
339,0,0.0,0.33,,,,,,,,,,,,,,,,,,
341,0,0.0,0.33,,,,,,,,,,,,,,,,,,
343,0,0.0,0.33,,-0.02,0.07,1.01,-0,-0,-0,0.07,0,1980,0,0.0,0.0,0.0,0.0,0,0,0.0
347,0,0.0,0.35,,,,,,,,,,,,,,,,,,
349,0,0.0,0.33,,,,,,,,,,,,,,,,,,
351,0,0.0,0.33,,,,,,,,,,,,,,,,,,
353,0,0.0,0.33,,-0.13,0.07,0.93,0,-1,-1,0.15,,,,,,,,,,
355,0,0.0,0.33,,,,,,,,,,,,,,,,,,
357,0,0.0,0.34,,,,,,,,,,,,,,,,,,
359,0,0.0,0.33,,,,,,,,,,,,,,,,,,
361,0,0.0,0.34,,,,,,,,,,,,,,,,,,
363,0,0.0,0.33,,-0.04,0.07,1.02,1,-0,-0,0.08,0,1920,0,0.0,0.0,0.0,0.0,0,0,0.0
365,0,0.0,0.34,,,,,,,,,,,,,,,,,,
367,0,0.0,0.34,,,,,,,,,,,,,,,,,,
369,0,0.0,0.33,,,,,,,,,,,,,,,,,,
371,0,0.01,0.34,,,,,,,,,,,,,,,,,,
373,0,0.0,0.34,,0.01,0.06,1.0,-0,-0,0,0.06,,,,,,,,,,
375,0,0.0,0.34,,,,,,,,,,,,,,,,,,
377,0,0.0,0.35,,,,,,,,,,,,,,,,,,
379,0,0.0,0.34,,,,,,,,,,,,,,,,,,
381,0,0.0,0.34,,,,,,,,,,,,,,,,,,
383,0,0.0,0.33,,-0.16,0.12,0.94,0,0,-1,0.2,0,1980,0,0.0,0.0,0.0,0.0,0,0,0.0
385,0,0.01,0.34,,,,,,,,,,,,,,,,,,
387,0,0.0,0.34,,,,,,,,,,,,,,,,,,
389,0,0.0,0.35,,,,,,,,,,,,,,,,,,
391,0,0.0,0.34,,,,,,,,,,,,,,,,,,
393,0,0.0,0.34,,-0.11,0.1,1.02,0,-0,-1,0.15,,,,,,,,,,
395,0,0.0,0.34,,,,,,,,,,,,,,,,,,
397,0,0.0,0.34,,,,,,,,,,,,,,,,,,
399,0,0.0,0.34,,,,,,,,,,,,,,,,,,
401,0,0.0,0.34,,,,,,,,,,,,,,,,,,
403,0,0.0,0.34,,-0.02,0.07,1.01,-0,-0,-0,0.07,0,1980,0,0.0,0.0,0.0,0.0,0,0,0.0
405,0,0.0,0.34,,,,,,,,,,,,,,,,,,
407,0,0.0,0.35,,,,,,,,,,,,,,,,,,
409,0,0.0,0.35,,,,,,,,,,,,,,,,,,
411,0,0.0,0.34,,,,,,,,,,,,,,,,,,
413,0,0.0,0.34,,-0.11,0.07,0.93,0,-1,-1,0.14,,,,,,,,,,
415,0,0.0,0.34,,,,,,,,,,,,,,,,,,
417,0,0.0,0.35,,,,,,,,,,,,,,,,,,
419,0,0.0,0.35,,,,,,,,,,,,,,,,,,
421,0,0.0,0.34,,,,,,,,,,,,,,,,,,
423,0,0.0,0.35,,-0.05,0.08,1.02,1,-0,-0,0.09,0,1920,0,0.0,0.0,0.0,0.0,0,0,0.0
427,0,0.0,0.34,,,,,,,,,,,,,,,,,,
429,0,0.0,0.35,,,,,,,,,,,,,,,,,,
431,0,0.0,0.35,,,,,,,,,,,,,,,,,,
433,0,0.0,0.35,,0.02,0.07,1.0,-0,-0,-0,0.07,,,,,,,,,,
435,0,0.0,0.35,,,,,,,,,,,,,,,,,,
437,0,0.0,0.36,,,,,,,,,,,,,,,,,,
439,0,0.0,0.35,,,,,,,,,,,,,,,,,,
441,0,0.0,0.35,,,,,,,,,,,,,,,,,,
443,0,0.0,0.35,,-0.17,0.11,0.94,0,0,-1,0.2,0,1980,0,0.0,0.0,0.0,0.0,0,0,0.0
445,0,0.0,0.35,,,,,,,,,,,,,,,,,,
447,0,0.01,0.35,,,,,,,,,,,,,,,,,,
449,0,0.0,0.35,,,,,,,,,,,,,,,,,,
451,0,0.0,0.35,,,,,,,,,,,,,,,,,,
453,0,0.0,0.35,,-0.14,0.1,1.04,0,-0,-1,0.18,,,,,,,,,,
455,0,0.0,0.35,,,,,,,,,,,,,,,,,,
457,0,0.0,0.35,,,,,,,,,,,,,,,,,,
459,0,0.0,0.35,,,,,,,,,,,,,,,,,,
461,0,0.01,0.35,,,,,,,,,,,,,,,,,,
463,0,0.0,0.35,,-0.02,0.05,0.99,-0,-1,-0,0.05,0,1980,0,0.0,0.0,0.0,0.0,0,0,0.0
465,0,0.0,0.35,,,,,,,,,,,,,,,,,,
467,0,0.0,0.36,,,,,,,,,,,,,,,,,,
469,0,0.0,0.36,,,,,,,,,,,,,,,,,,
471,0,0.0,0.36,,,,,,,,,,,,,,,,,,
473,0,0.0,0.35,,-0.11,0.07,0.93,0,-1,-1,0.12,,,,,,,,,,
475,0,0.0,0.35,,,,,,,,,,,,,,,,,,
479,0,0.0,0.36,,,,,,,,,,,,,,,,,,
481,0,0.0,0.36,,,,,,,,,,,,,,,,,,
483,0,0.0,0.36,,-0.08,0.07,1.02,1,-0,-0,0.11,0,1920,0,0.0,0.0,0.0,0.0,0,0,0.0
485,0,0.0,0.36,,,,,,,,,,,,,,,,,,
487,0,0.0,0.36,,,,,,,,,,,,,,,,,,
489,0,0.0,0.36,,,,,,,,,,,,,,,,,,
491,0,0.0,0.36,,,,,,,,,,,,,,,,,,
493,0,0.0,0.36,,0.04,0.07,1.02,-0,-0,-0,0.08,,,,,,,,,,
495,0,0.01,0.36,,,,,,,,,,,,,,,,,,
497,0,0.0,0.37,,,,,,,,,,,,,,,,,,
499,0,0.0,0.36,,,,,,,,,,,,,,,,,,
501,0,0.0,0.36,,,,,,,,,,,,,,,,,,
503,0,0.0,0.36,,-0.16,0.1,0.95,0,0,-1,0.19,0,1980,0,0.0,0.0,0.0,0.0,0,0,0.0
507,0,0.0,0.36,,,,,,,,,,,,,,,,,,
509,0,0.0,0.36,,,,,,,,,,,,,,,,,,
511,0,0.0,0.36,,,,,,,,,,,,,,,,,,
513,0,0.0,0.36,,-0.14,0.09,1.06,0,-0,-1,0.17,,,,,,,,,,
515,0,0.0,0.36,,,,,,,,,,,,,,,,,,
517,0,0.0,0.36,,,,,,,,,,,,,,,,,,
519,0,0.0,0.36,,,,,,,,,,,,,,,,,,
521,0,0.0,0.36,,,,,,,,,,,,,,,,,,
523,0,0.0,0.36,,-0.02,0.03,0.97,-0,-1,-0,0.04,0,1980,0,0.0,0.0,0.0,0.0,0,0,0.0
525,0,0.0,0.36,,,,,,,,,,,,,,,,,,
527,0,0.0,0.36,,,,,,,,,,,,,,,,,,
529,0,0.0,0.36,,,,,,,,,,,,,,,,,,
531,0,0.0,0.36,,,,,,,,,,,,,,,,,,
535,0,0.0,0.36,,,,,,,,,,,,,,,,,,
537,0,0.0,0.36,,,,,,,,,,,,,,,,,,
539,0,0.0,0.36,,,,,,,,,,,,,,,,,,
541,0,0.0,0.36,,,,,,,,,,,,,,,,,,
543,0,0.0,0.37,,-0.11,0.08,1.03,1,-0,-0,0.13,0,1920,0,0.0,0.0,0.0,0.0,0,0,0.0
545,0,0.0,0.37,,,,,,,,,,,,,,,,,,
547,0,0.0,0.37,,,,,,,,,,,,,,,,,,
549,0,0.0,0.36,,,,,,,,,,,,,,,,,,
551,0,0.0,0.37,,,,,,,,,,,,,,,,,,
553,0,0.0,0.37,,0.03,0.07,1.04,-0,-0,-0,0.08,,,,,,,,,,
555,0,0.0,0.37,,,,,,,,,,,,,,,,,,
557,0,0.01,0.37,,,,,,,,,,,,,,,,,,
559,0,0.0,0.38,,,,,,,,,,,,,,,,,,
561,0,0.0,0.37,,,,,,,,,,,,,,,,,,
563,0,0.0,0.37,,-0.15,0.09,0.99,0,0,-1,0.18,0,1980,0,0.0,0.0,0.0,0.0,0,0,0.0
565,0,0.0,0.37,,,,,,,,,,,,,,,,,,
567,0,0.0,0.37,,,,,,,,,,,,,,,,,,
569,0,0.0,0.37,,,,,,,,,,,,,,,,,,
571,0,0.01,0.37,,,,,,,,,,,,,,,,,,
573,0,0.0,0.37,,-0.15,0.09,1.06,0,-0,-0,0.18,,,,,,,,,,
575,0,0.0,0.37,,,,,,,,,,,,,,,,,,
577,0,0.0,0.37,,,,,,,,,,,,,,,,,,
579,0,0.0,0.37,,,,,,,,,,,,,,,,,,
581,0,0.0,0.37,,,,,,,,,,,,,,,,,,
583,0,0.0,0.37,,-0.01,0.05,0.98,-0,-0,-0,0.05,0,1980,0,0.0,0.0,0.0,0.0,0,0,0.0
585,0,0.0,0.38,,,,,,,,,,,,,,,,,,
587,0,0.0,0.37,,,,,,,,,,,,,,,,,,
589,0,0.0,0.39,,,,,,,,,,,,,,,,,,
591,0,0.0,0.38,,,,,,,,,,,,,,,,,,
593,0,0.0,0.37,,-0.08,0.09,0.97,0,-0,-0,0.12,,,,,,,,,,
595,0,0.0,0.37,,,,,,,,,,,,,,,,,,
597,0,0.0,0.37,,,,,,,,,,,,,,,,,,
599,0,0.0,0.37,,,,,,,,,,,,,,,,,,
601,0,0.0,0.37,,,,,,,,,,,,,,,,,,
603,0,0.0,0.37,,-0.11,0.09,1.02,1,-0,-0,0.14,0,1920,0,0.0,0.0,0.0,0.0,0,0,0.0
605,0,0.0,0.37,,,,,,,,,,,,,,,,,,
607,0,0.0,0.37,,,,,,,,,,,,,,,,,,
609,0,0.0,0.38,,,,,,,,,,,,,,,,,,
611,0,0.0,0.38,,,,,,,,,,,,,,,,,,
613,0,0.0,0.37,,0.04,0.08,1.02,-0,-0,-0,0.09,,,,,,,,,,
615,0,0.0,0.38,,,,,,,,,,,,,,,,,,
617,0,0.0,0.38,,,,,,,,,,,,,,,,,,
619,0,0.01,0.39,,,,,,,,,,,,,,,,,,
621,0,0.0,0.38,,,,,,,,,,,,,,,,,,
623,0,0.0,0.38,,-0.17,0.09,1.0,0,1,-1,0.19,0,1980,0,0.0,0.0,0.0,0.0,0,0,0.0
625,0,0.0,0.38,,,,,,,,,,,,,,,,,,
627,0,0.0,0.37,,,,,,,,,,,,,,,,,,
629,0,0.0,0.38,,,,,,,,,,,,,,,,,,
631,0,0.0,0.38,,,,,,,,,,,,,,,,,,
633,0,0.01,0.38,,-0.17,0.09,1.05,0,-0,-1,0.2,,,,,,,,,,
635,0,0.0,0.38,,,,,,,,,,,,,,,,,,
637,0,0.0,0.38,,,,,,,,,,,,,,,,,,
639,0,0.0,0.38,,,,,,,,,,,,,,,,,,
641,0,0.0,0.38,,,,,,,,,,,,,,,,,,
643,0,0.0,0.38,,-0.0,0.04,0.95,-0,-1,-0,0.04,0,1980,0,0.0,0.0,0.0,0.0,0,0,0.0
645,0,0.0,0.38,,,,,,,,,,,,,,,,,,
647,0,0.0,0.38,,,,,,,,,,,,,,,,,,
649,0,0.0,0.39,,,,,,,,,,,,,,,,,,
651,0,0.0,0.39,,,,,,,,,,,,,,,,,,
653,0,0.0,0.38,,-0.07,0.09,0.96,0,0,-1,0.12,,,,,,,,,,
655,0,0.0,0.38,,,,,,,,,,,,,,,,,,
657,0,0.0,0.38,,,,,,,,,,,,,,,,,,
659,0,0.0,0.38,,,,,,,,,,,,,,,,,,
661,0,0.0,0.38,,,,,,,,,,,,,,,,,,
663,0,0.0,0.38,,-0.17,0.1,1.04,1,-0,-1,0.2,0,1920,0,0.0,0.0,0.0,0.0,0,0,0.0
665,0,0.0,0.38,,,,,,,,,,,,,,,,,,
667,0,0.0,0.38,,,,,,,,,,,,,,,,,,
669,0,0.0,0.38,,,,,,,,,,,,,,,,,,
671,0,0.0,0.39,,,,,,,,,,,,,,,,,,
673,0,0.0,0.39,,0.04,0.05,1.02,-0,-1,-0,0.07,,,,,,,,,,
675,0,0.0,0.39,,,,,,,,,,,,,,,,,,
677,0,0.0,0.39,,,,,,,,,,,,,,,,,,
679,0,0.0,0.4,,,,,,,,,,,,,,,,,,
681,0,0.0,0.39,,,,,,,,,,,,,,,,,,
683,0,0.0,0.39,,-0.15,0.09,1.01,0,1,-1,0.18,0,1980,0,0.0,0.0,0.0,0.0,0,0,0.0
685,0,0.0,0.39,,,,,,,,,,,,,,,,,,
687,0,0.0,0.39,,,,,,,,,,,,,,,,,,
689,0,0.0,0.39,,,,,,,,,,,,,,,,,,
691,0,0.0,0.39,,,,,,,,,,,,,,,,,,
693,0,0.0,0.39,,-0.19,0.09,1.05,0,-1,-1,0.21,,,,,,,,,,
695,0,0.01,0.39,,,,,,,,,,,,,,,,,,
697,0,0.0,0.39,,,,,,,,,,,,,,,,,,
699,0,0.0,0.39,,,,,,,,,,,,,,,,,,
701,0,0.0,0.39,,,,,,,,,,,,,,,,,,
703,0,0.0,0.39,,0.01,0.04,0.91,-0,-1,0,0.04,0,1980,0,0.0,0.0,0.0,0.0,0,0,0.0
705,0,0.0,0.39,,,,,,,,,,,,,,,,,,
707,0,0.0,0.39,,,,,,,,,,,,,,,,,,
709,0,0.01,0.39,,,,,,,,,,,,,,,,,,
711,0,0.0,0.41,,,,,,,,,,,,,,,,,,
713,0,0.0,0.39,,-0.07,0.11,0.98,0,0,-1,0.13,,,,,,,,,,
715,0,0.0,0.39,,,,,,,,,,,,,,,,,,
717,0,0.0,0.39,,,,,,,,,,,,,,,,,,
719,0,0.0,0.39,,,,,,,,,,,,,,,,,,
721,0,0.0,0.39,,,,,,,,,,,,,,,,,,
723,0,0.0,0.39,,-0.2,0.11,1.03,0,-0,-1,0.23,0,1920,0,0.0,0.0,0.0,0.0,0,0,0.0
725,0,0.0,0.39,,,,,,,,,,,,,,,,,,
727,0,0.0,0.39,,,,,,,,,,,,,,,,,,
729,0,0.0,0.39,,,,,,,,,,,,,,,,,,
731,0,0.0,0.4,,,,,,,,,,,,,,,,,,
733,0,0.0,0.4,,0.05,0.04,1.03,-0,-1,0,0.06,,,,,,,,,,
735,0,0.0,0.4,,,,,,,,,,,,,,,,,,
737,0,0.0,0.4,,,,,,,,,,,,,,,,,,
739,0,0.0,0.4,,,,,,,,,,,,,,,,,,
741,0,0.0,0.41,,,,,,,,,,,,,,,,,,
743,0,0.0,0.4,,-0.11,0.08,0.97,-0,1,-1,0.14,0,1980,0,0.0,0.0,0.0,0.0,0,0,0.0
745,0,0.0,0.4,,,,,,,,,,,,,,,,,,
747,0,0.0,0.4,,,,,,,,,,,,,,,,,,
749,0,0.0,0.4,,,,,,,,,,,,,,,,,,
751,0,0.0,0.4,,,,,,,,,,,,,,,,,,
753,0,0.0,0.4,,-0.19,0.08,1.02,0,-1,-1,0.2,,,,,,,,,,
755,0,0.0,0.4,,,,,,,,,,,,,,,,,,
757,0,0.01,0.4,,,,,,,,,,,,,,,,,,
759,0,0.0,0.4,,,,,,,,,,,,,,,,,,
761,0,0.0,0.4,,,,,,,,,,,,,,,,,,
763,0,0.0,0.4,,0.01,0.02,0.92,-0,-1,0,0.02,0,1980,0,0.0,0.0,0.0,0.0,0,0,0.0
765,0,0.0,0.4,,,,,,,,,,,,,,,,,,
767,0,0.0,0.4,,,,,,,,,,,,,,,,,,
769,0,0.0,0.4,,,,,,,,,,,,,,,,,,
771,0,0.01,0.42,,,,,,,,,,,,,,,,,,
773,0,0.0,0.4,,-0.04,0.11,0.99,0,0,-1,0.11,,,,,,,,,,
775,0,0.0,0.4,,,,,,,,,,,,,,,,,,
777,0,0.0,0.4,,,,,,,,,,,,,,,,,,
779,0,0.0,0.4,,,,,,,,,,,,,,,,,,
781,0,0.0,0.4,,,,,,,,,,,,,,,,,,
783,0,0.0,0.4,,-0.22,0.1,1.01,0,-1,-1,0.24,0,1920,0,0.0,0.0,0.0,0.0,0,0,0.0
785,0,0.0,0.4,,,,,,,,,,,,,,,,,,
787,0,0.0,0.4,,,,,,,,,,,,,,,,,,
789,0,0.0,0.41,,,,,,,,,,,,,,,,,,
791,0,0.0,0.41,,,,,,,,,,,,,,,,,,
793,0,0.0,0.4,,0.04,0.03,1.05,-0,-1,-0,0.05,,,,,,,,,,
795,0,0.0,0.41,,,,,,,,,,,,,,,,,,
797,0,0.0,0.41,,,,,,,,,,,,,,,,,,
799,0,0.0,0.41,,,,,,,,,,,,,,,,,,
801,0,0.0,0.42,,,,,,,,,,,,,,,,,,
803,0,0.0,0.41,,-0.08,0.09,0.99,-0,1,-1,0.12,0,1980,0,0.0,0.0,0.0,0.0,0,0,0.0
805,0,0.0,0.41,,,,,,,,,,,,,,,,,,
807,0,0.0,0.41,,,,,,,,,,,,,,,,,,
809,0,0.0,0.41,,,,,,,,,,,,,,,,,,
811,0,0.0,0.41,,,,,,,,,,,,,,,,,,
813,0,0.0,0.41,,-0.16,0.08,0.99,0,-1,-1,0.18,,,,,,,,,,
815,0,0.0,0.41,,,,,,,,,,,,,,,,,,
817,0,0.0,0.41,,,,,,,,,,,,,,,,,,
819,0,0.01,0.41,,,,,,,,,,,,,,,,,,
821,0,0.0,0.41,,,,,,,,,,,,,,,,,,
823,0,0.0,0.41,,0.01,0.02,0.93,0,-1,-0,0.02,0,1980,0,0.0,0.0,0.0,0.0,0,0,0.0
825,0,0.0,0.41,,,,,,,,,,,,,,,,,,
827,0,0.0,0.41,,,,,,,,,,,,,,,,,,
829,0,0.0,0.41,,,,,,,,,,,,,,,,,,
831,0,0.0,0.42,,,,,,,,,,,,,,,,,,
833,0,0.0,0.41,,-0.04,0.12,1.01,-0,0,-0,0.13,,,,,,,,,,
835,0,0.0,0.41,,,,,,,,,,,,,,,,,,
837,0,0.0,0.41,,,,,,,,,,,,,,,,,,
839,0,0.0,0.41,,,,,,,,,,,,,,,,,,
841,0,0.0,0.41,,,,,,,,,,,,,,,,,,
843,0,0.0,0.41,,-0.23,0.1,0.99,0,-0,-1,0.25,0,1920,0,0.0,0.0,0.0,0.0,0,0,0.0
845,0,0.0,0.41,,,,,,,,,,,,,,,,,,
847,0,0.0,0.41,,,,,,,,,,,,,,,,,,
849,0,0.0,0.41,,,,,,,,,,,,,,,,,,
851,0,0.0,0.42,,,,,,,,,,,,,,,,,,
853,0,0.0,0.42,,0.03,0.04,1.06,-0,-1,-0,0.05,,,,,,,,,,
855,0,0.0,0.42,,,,,,,,,,,,,,,,,,
857,0,0.0,0.42,,,,,,,,,,,,,,,,,,
859,0,0.0,0.42,,,,,,,,,,,,,,,,,,
861,0,0.0,0.43,,,,,,,,,,,,,,,,,,
863,0,0.0,0.42,,-0.08,0.1,0.98,-0,1,-1,0.13,0,1980,0,0.0,0.0,0.0,0.0,0,0,0.0
865,0,0.0,0.42,,,,,,,,,,,,,,,,,,
867,0,0.01,0.42,,,,,,,,,,,,,,,,,,
869,0,0.0,0.42,,,,,,,,,,,,,,,,,,
871,0,0.0,0.42,,,,,,,,,,,,,,,,,,
873,0,0.0,0.41,,-0.16,0.09,1.02,0,-1,-1,0.18,,,,,,,,,,
875,0,0.0,0.42,,,,,,,,,,,,,,,,,,
877,0,0.0,0.42,,,,,,,,,,,,,,,,,,
879,0,0.0,0.42,,,,,,,,,,,,,,,,,,
881,0,0.0,0.42,,,,,,,,,,,,,,,,,,
883,0,0.0,0.42,,0.01,0.04,0.92,0,-1,0,0.04,0,1980,0,0.0,0.0,0.0,0.0,0,0,0.0
885,0,0.0,0.42,,,,,,,,,,,,,,,,,,
887,0,0.0,0.42,,,,,,,,,,,,,,,,,,
889,0,0.0,0.42,,,,,,,,,,,,,,,,,,
891,0,0.0,0.42,,,,,,,,,,,,,,,,,,
893,0,0.0,0.43,,-0.04,0.13,1.04,-0,1,-0,0.13,,,,,,,,,,
895,0,0.0,0.42,,,,,,,,,,,,,,,,,,
897,0,0.0,0.42,,,,,,,,,,,,,,,,,,
899,0,0.0,0.42,,,,,,,,,,,,,,,,,,
901,0,0.0,0.42,,,,,,,,,,,,,,,,,,
903,0,0.0,0.42,,-0.23,0.08,0.97,0,-0,-1,0.25,0,1920,0,0.0,0.0,0.0,0.0,0,0,0.0
905,0,0.0,0.42,,,,,,,,,,,,,,,,,,
907,0,0.0,0.42,,,,,,,,,,,,,,,,,,
909,0,0.0,0.42,,,,,,,,,,,,,,,,,,
911,0,0.0,0.42,,,,,,,,,,,,,,,,,,
913,0,0.0,0.43,,0.01,0.04,1.06,0,-1,-0,0.04,,,,,,,,,,
915,0,0.0,0.43,,,,,,,,,,,,,,,,,,
917,0,0.0,0.43,,,,,,,,,,,,,,,,,,
919,0,0.0,0.43,,,,,,,,,,,,,,,,,,
921,0,0.0,0.43,,,,,,,,,,,,,,,,,,
923,0,0.01,0.43,,-0.07,0.09,0.99,-0,1,-0,0.11,0,1980,0,0.0,0.0,0.0,0.0,0,0,0.0
925,0,0.0,0.43,,,,,,,,,,,,,,,,,,
927,0,0.0,0.43,,,,,,,,,,,,,,,,,,
929,0,0.0,0.43,,,,,,,,,,,,,,,,,,
931,0,0.0,0.42,,,,,,,,,,,,,,,,,,
933,0,0.0,0.43,,-0.15,0.09,0.98,0,-1,-1,0.18,,,,,,,,,,
935,0,0.0,0.42,,,,,,,,,,,,,,,,,,
937,0,0.0,0.43,,,,,,,,,,,,,,,,,,
939,0,0.0,0.43,,,,,,,,,,,,,,,,,,
941,0,0.0,0.43,,,,,,,,,,,,,,,,,,
943,0,0.01,0.43,,-0.03,0.04,0.93,0,-1,-0,0.05,0,1980,0,0.0,0.0,0.0,0.0,0,0,0.0
945,0,0.0,0.43,,,,,,,,,,,,,,,,,,
947,0,0.0,0.43,,,,,,,,,,,,,,,,,,
949,0,0.0,0.43,,,,,,,,,,,,,,,,,,
951,0,0.0,0.43,,,,,,,,,,,,,,,,,,
953,0,0.0,0.44,,-0.04,0.12,1.03,-0,0,-1,0.12,,,,,,,,,,
955,0,0.0,0.43,,,,,,,,,,,,,,,,,,
957,0,0.0,0.43,,,,,,,,,,,,,,,,,,
959,0,0.0,0.43,,,,,,,,,,,,,,,,,,
961,0,0.0,0.43,,,,,,,,,,,,,,,,,,
963,0,0.0,0.43,,-0.24,0.08,0.95,0,-0,-1,0.25,0,1920,0,0.0,0.0,0.0,0.0,0,0,0.0
965,0,0.0,0.43,,,,,,,,,,,,,,,,,,
967,0,0.0,0.43,,,,,,,,,,,,,,,,,,
969,0,0.0,0.43,,,,,,,,,,,,,,,,,,
971,0,0.0,0.43,,,,,,,,,,,,,,,,,,
973,0,0.0,0.44,,-0.01,0.04,1.06,-0,-1,-0,0.05,,,,,,,,,,
975,0,0.0,0.44,,,,,,,,,,,,,,,,,,
977,0,0.0,0.43,,,,,,,,,,,,,,,,,,
979,0,0.0,0.43,,,,,,,,,,,,,,,,,,
981,0,0.0,0.44,,,,,,,,,,,,,,,,,,
983,0,0.0,0.45,,-0.05,0.09,0.97,-0,1,-0,0.11,0,1980,0,0.0,0.0,0.0,0.0,0,0,0.0
985,0,0.01,0.44,,,,,,,,,,,,,,,,,,
987,0,0.0,0.44,,,,,,,,,,,,,,,,,,
989,0,0.0,0.44,,,,,,,,,,,,,,,,,,
991,0,0.0,0.43,,,,,,,,,,,,,,,,,,
993,0,0.0,0.44,,-0.15,0.09,0.99,0,-1,-1,0.18,,,,,,,,,,
995,0,0.01,0.44,,,,,,,,,,,,,,,,,,
997,0,0.0,0.44,,,,,,,,,,,,,,,,,,
999,0,0.0,0.44,,,,,,,,,,,,,,,,,,
1001,0,0.0,0.44,,,,,,,,,,,,,,,,,,
1003,0,0.0,0.44,,-0.03,0.04,0.92,0,-1,-0,0.05,0,1980,0,0.0,0.0,0.0,0.0,0,0,0.0
1005,0,0.01,0.44,,,,,,,,,,,,,,,,,,
1007,0,0.0,0.44,,,,,,,,,,,,,,,,,,
1009,0,0.0,0.44,,,,,,,,,,,,,,,,,,
1011,0,0.0,0.44,,,,,,,,,,,,,,,,,,
1013,0,0.0,0.45,,-0.03,0.14,1.03,-0,0,-1,0.15,,,,,,,,,,
1015,0,0.0,0.44,,,,,,,,,,,,,,,,,,
1017,0,0.0,0.44,,,,,,,,,,,,,,,,,,
1019,0,0.0,0.44,,,,,,,,,,,,,,,,,,
1021,0,0.0,0.44,,,,,,,,,,,,,,,,,,
1023,0,0.0,0.44,,-0.24,0.09,0.96,0,-0,-1,0.26,0,1920,0,0.0,0.0,0.0,0.0,0,0,0.0
1025,0,0.0,0.44,,,,,,,,,,,,,,,,,,
1027,0,0.0,0.44,,,,,,,,,,,,,,,,,,
1029,0,0.0,0.44,,,,,,,,,,,,,,,,,,
1031,0,0.0,0.44,,,,,,,,,,,,,,,,,,
1033,0,0.01,0.44,,-0.02,0.05,1.07,0,-1,-0,0.05,,,,,,,,,,
1035,0,0.0,0.44,,,,,,,,,,,,,,,,,,
1037,0,0.0,0.45,,,,,,,,,,,,,,,,,,
1039,0,0.0,0.44,,,,,,,,,,,,,,,,,,
1041,0,0.0,0.44,,,,,,,,,,,,,,,,,,
1043,0,0.0,0.46,13.44,-0.03,0.08,0.97,-0,0,-0,0.08,0,1980,0,0.0,0.0,0.0,0.0,0,0,0.0
1045,0,0.0,0.44,,,,,,,,,,,,,,,,,,
1047,0,0.01,0.45,,,,,,,,,,,,,,,,,,
1049,0,0.0,0.44,,,,,,,,,,,,,,,,,,
1051,0,0.0,0.45,,,,,,,,,,,,,,,,,,
1053,0,0.0,0.44,,-0.12,0.1,0.95,0,-1,-1,0.16,,,,,,,,,,
1055,0,0.0,0.44,,,,,,,,,,,,,,,,,,
1057,0,0.0,0.44,,,,,,,,,,,,,,,,,,
1059,0,0.0,0.45,,,,,,,,,,,,,,,,,,
1061,0,0.0,0.45,,,,,,,,,,,,,,,,,,
1063,0,0.0,0.45,,0.0,0.05,0.95,0,-1,-0,0.05,0,1980,0,0.0,0.0,0.0,0.0,0,0,0.0
1065,0,0.0,0.45,,,,,,,,,,,,,,,,,,
1067,0,0.0,0.45,,,,,,,,,,,,,,,,,,
1069,0,0.0,0.45,,,,,,,,,,,,,,,,,,
1071,0,0.0,0.45,,,,,,,,,,,,,,,,,,
1073,0,0.0,0.46,,0.0,0.14,1.08,-0,0,-1,0.14,,,,,,,,,,
1075,0,0.0,0.45,,,,,,,,,,,,,,,,,,
1077,0,0.0,0.45,,,,,,,,,,,,,,,,,,
1079,0,0.0,0.45,,,,,,,,,,,,,,,,,,
1081,0,0.0,0.45,,,,,,,,,,,,,,,,,,
1083,0,0.0,0.45,,-0.22,0.08,0.99,0,-0,-1,0.23,0,1920,0,0.0,0.0,0.0,0.0,0,0,0.0
1085,0,0.0,0.45,,,,,,,,,,,,,,,,,,
1087,0,0.0,0.45,,,,,,,,,,,,,,,,,,
1089,0,0.0,0.45,,,,,,,,,,,,,,,,,,
1091,0,0.0,0.45,,,,,,,,,,,,,,,,,,
1093,0,0.0,0.45,,0.0,0.05,1.08,0,-1,-0,0.05,,,,,,,,,,
1095,0,0.0,0.45,,,,,,,,,,,,,,,,,,
1097,0,0.0,0.46,,,,,,,,,,,,,,,,,,
1099,0,0.0,0.46,,,,,,,,,,,,,,,,,,
1101,0,0.0,0.46,,,,,,,,,,,,,,,,,,
1103,0,0.0,0.47,,-0.04,0.09,1.01,-0,0,-0,0.1,0,1980,0,0.0,0.0,0.0,0.0,0,0,0.0
1105,0,0.0,0.45,,,,,,,,,,,,,,,,,,
1107,0,0.0,0.45,,,,,,,,,,,,,,,,,,
1109,0,0.0,0.45,,,,,,,,,,,,,,,,,,
1111,0,0.0,0.46,,,,,,,,,,,,,,,,,,
1113,0,0.0,0.46,,-0.15,0.09,0.98,0,-1,-1,0.17,,,,,,,,,,
1115,0,0.0,0.45,,,,,,,,,,,,,,,,,,
1117,0,0.0,0.45,,,,,,,,,,,,,,,,,,
1119,0,0.0,0.46,,,,,,,,,,,,,,,,,,
1121,0,0.0,0.46,,,,,,,,,,,,,,,,,,
1123,0,0.01,0.46,,-0.02,0.05,0.93,0,-1,-0,0.05,0,1980,0,0.0,0.0,0.0,0.0,0,0,0.0
1125,0,0.0,0.46,,,,,,,,,,,,,,,,,,
1127,0,0.0,0.46,,,,,,,,,,,,,,,,,,
1129,0,0.0,0.46,,,,,,,,,,,,,,,,,,
1131,0,0.0,0.46,,,,,,,,,,,,,,,,,,
1133,0,0.0,0.47,,-0.05,0.14,1.06,-0,0,-1,0.15,,,,,,,,,,
1135,0,0.0,0.46,,,,,,,,,,,,,,,,,,
1137,0,0.0,0.46,,,,,,,,,,,,,,,,,,
1139,0,0.0,0.45,,,,,,,,,,,,,,,,,,
1141,0,0.0,0.46,,,,,,,,,,,,,,,,,,
1143,0,0.01,0.46,,-0.23,0.08,0.95,0,-0,-1,0.25,0,1920,0,0.0,0.0,0.0,0.0,0,0,0.0
1145,0,0.0,0.46,,,,,,,,,,,,,,,,,,
1147,0,0.0,0.47,,,,,,,,,,,,,,,,,,
1149,0,0.0,0.46,,,,,,,,,,,,,,,,,,
1151,0,0.0,0.46,,,,,,,,,,,,,,,,,,
1153,0,0.0,0.46,,-0.02,0.04,1.04,0,-1,-0,0.04,,,,,,,,,,
1155,0,0.0,0.46,,,,,,,,,,,,,,,,,,
1157,0,0.0,0.46,,,,,,,,,,,,,,,,,,
1159,0,0.0,0.46,,,,,,,,,,,,,,,,,,
1161,0,0.0,0.47,,,,,,,,,,,,,,,,,,
1163,0,0.0,0.47,,-0.07,0.09,0.97,-0,0,-0,0.12,0,1980,0,0.0,0.0,0.0,0.0,0,0,0.0
1165,0,0.0,0.47,,,,,,,,,,,,,,,,,,
1167,0,0.0,0.46,,,,,,,,,,,,,,,,,,
1169,0,0.0,0.46,,,,,,,,,,,,,,,,,,
1171,0,0.0,0.47,,,,,,,,,,,,,,,,,,
1173,0,0.0,0.47,,-0.17,0.1,0.97,0,-0,-1,0.2,,,,,,,,,,
1175,0,0.0,0.47,,,,,,,,,,,,,,,,,,
1177,0,0.0,0.46,,,,,,,,,,,,,,,,,,
1179,0,0.0,0.46,,,,,,,,,,,,,,,,,,
1181,0,0.0,0.47,,,,,,,,,,,,,,,,,,
1183,0,0.0,0.47,,-0.07,0.06,0.95,0,-1,-0,0.09,0,1980,0,0.0,0.0,0.0,0.0,0,0,0.0
1185,0,0.01,0.47,,,,,,,,,,,,,,,,,,
1187,0,0.0,0.47,,,,,,,,,,,,,,,,,,
1189,0,0.0,0.47,,,,,,,,,,,,,,,,,,
1191,0,0.0,0.47,,,,,,,,,,,,,,,,,,
1193,0,0.0,0.47,,-0.09,0.13,1.06,-0,0,-1,0.15,,,,,,,,,,
1195,0,0.0,0.48,,,,,,,,,,,,,,,,,,
1197,0,0.0,0.47,,,,,,,,,,,,,,,,,,
1199,0,0.01,0.47,,,,,,,,,,,,,,,,,,
1201,0,0.0,0.47,,,,,,,,,,,,,,,,,,
1203,0,0.0,0.47,,-0.27,0.07,0.95,0,-0,-1,0.28,0,1920,0,0.0,0.0,0.0,0.0,0,0,0.0
1205,0,0.0,0.47,,,,,,,,,,,,,,,,,,
1207,0,0.0,0.47,,,,,,,,,,,,,,,,,,
1209,0,0.0,0.47,,,,,,,,,,,,,,,,,,
1211,0,0.0,0.47,,,,,,,,,,,,,,,,,,
1213,0,0.0,0.47,,-0.05,0.05,1.05,-0,-1,-0,0.07,,,,,,,,,,
1215,0,0.0,0.47,,,,,,,,,,,,,,,,,,
1217,0,0.0,0.47,,,,,,,,,,,,,,,,,,
1219,0,0.0,0.47,,,,,,,,,,,,,,,,,,
1221,0,0.0,0.47,,,,,,,,,,,,,,,,,,
1223,0,0.0,0.48,,-0.08,0.08,0.97,-1,1,-0,0.11,0,1920,0,0.0,0.0,0.0,0.0,0,0,0.0
1225,0,0.0,0.49,,,,,,,,,,,,,,,,,,
1227,0,0.0,0.47,,,,,,,,,,,,,,,,,,
1229,0,0.0,0.47,,,,,,,,,,,,,,,,,,
1231,0,0.0,0.47,,,,,,,,,,,,,,,,,,
1233,0,0.0,0.47,,-0.19,0.1,0.93,0,-0,-1,0.22,,,,,,,,,,
1235,0,0.0,0.47,,,,,,,,,,,,,,,,,,
1237,0,0.0,0.48,,,,,,,,,,,,,,,,,,
1239,0,0.0,0.47,,,,,,,,,,,,,,,,,,
1241,0,0.0,0.47,,,,,,,,,,,,,,,,,,
1243,0,0.0,0.47,,-0.11,0.05,0.95,0,0,-0,0.12,0,1980,0,0.0,0.0,0.0,0.0,0,0,0.0
1245,0,0.0,0.48,,,,,,,,,,,,,,,,,,
1247,0,0.0,0.48,,,,,,,,,,,,,,,,,,
1249,0,0.0,0.48,,,,,,,,,,,,,,,,,,
1251,0,0.0,0.48,,,,,,,,,,,,,,,,,,
1253,0,0.0,0.47,,-0.12,0.11,1.07,-0,1,-1,0.17,,,,,,,,,,
1255,0,0.0,0.48,,,,,,,,,,,,,,,,,,
1257,0,0.0,0.48,,,,,,,,,,,,,,,,,,
1259,0,0.0,0.48,,,,,,,,,,,,,,,,,,
1261,0,0.01,0.48,,,,,,,,,,,,,,,,,,
1263,0,0.0,0.48,,-0.29,0.07,0.93,0,0,-1,0.3,0,1920,0,0.0,0.0,0.0,0.0,0,0,0.0
1265,0,0.0,0.48,,,,,,,,,,,,,,,,,,
1267,0,0.0,0.48,,,,,,,,,,,,,,,,,,
1269,0,0.0,0.48,,,,,,,,,,,,,,,,,,
1271,0,0.0,0.48,,,,,,,,,,,,,,,,,,
1273,0,0.0,0.48,,-0.1,0.03,1.04,0,0,-0,0.11,,,,,,,,,,
1275,0,0.0,0.48,,,,,,,,,,,,,,,,,,
1277,0,0.0,0.48,,,,,,,,,,,,,,,,,,
1279,0,0.0,0.48,,,,,,,,,,,,,,,,,,
1281,0,0.01,0.48,,,,,,,,,,,,,,,,,,
1283,0,0.0,0.48,,-0.1,0.07,0.95,-0,1,-0,0.12,0,1920,0,0.0,0.0,0.0,0.0,0,0,0.0
1285,0,0.0,0.49,,,,,,,,,,,,,,,,,,
1287,0,0.0,0.48,,,,,,,,,,,,,,,,,,
1289,0,0.0,0.48,,,,,,,,,,,,,,,,,,
1291,0,0.0,0.48,,,,,,,,,,,,,,,,,,
1293,0,0.0,0.48,,-0.26,0.09,0.91,0,1,-1,0.28,,,,,,,,,,
1295,0,0.0,0.48,,,,,,,,,,,,,,,,,,
1297,0,0.0,0.48,,,,,,,,,,,,,,,,,,
1299,0,0.0,0.49,,,,,,,,,,,,,,,,,,
1301,0,0.0,0.48,,,,,,,,,,,,,,,,,,
1303,0,0.0,0.48,,-0.17,0.04,0.97,1,0,-1,0.18,0,1980,0,0.0,0.0,0.0,0.0,0,0,0.0
1305,0,0.0,0.48,,,,,,,,,,,,,,,,,,
1307,0,0.0,0.48,,,,,,,,,,,,,,,,,,
1309,0,0.01,0.49,,,,,,,,,,,,,,,,,,
1311,0,0.0,0.49,,,,,,,,,,,,,,,,,,
1313,0,0.0,0.49,,-0.15,0.08,1.04,0,1,-1,0.17,,,,,,,,,,
1315,0,0.0,0.49,,,,,,,,,,,,,,,,,,
1317,0,0.0,0.49,,,,,,,,,,,,,,,,,,
1319,0,0.0,0.49,,,,,,,,,,,,,,,,,,
1321,0,0.0,0.48,,,,,,,,,,,,,,,,,,
1323,0,0.0,0.49,,-0.33,0.08,0.92,0,1,-1,0.34,0,1920,0,0.0,0.0,0.0,0.0,0,0,0.0
1325,0,0.0,0.49,,,,,,,,,,,,,,,,,,
1327,0,0.0,0.49,,,,,,,,,,,,,,,,,,
1329,0,0.0,0.48,,,,,,,,,,,,,,,,,,
1331,0,0.0,0.49,,,,,,,,,,,,,,,,,,
1333,0,0.0,0.49,,-0.18,0.05,1.06,1,1,-1,0.19,,,,,,,,,,
1335,0,0.0,0.49,,,,,,,,,,,,,,,,,,
1337,0,0.0,0.49,,,,,,,,,,,,,,,,,,
1339,0,0.0,0.49,,,,,,,,,,,,,,,,,,
1341,0,0.0,0.49,,,,,,,,,,,,,,,,,,
1343,0,0.0,0.49,,-0.12,0.07,0.97,0,1,-1,0.14,0,1920,0,0.0,0.0,0.0,0.0,0,0,0.0
1345,0,0.0,0.49,,,,,,,,,,,,,,,,,,
1347,0,0.0,0.5,,,,,,,,,,,,,,,,,,
1349,0,0.0,0.49,,,,,,,,,,,,,,,,,,
1351,0,0.0,0.49,,,,,,,,,,,,,,,,,,
1353,0,0.0,0.49,,-0.31,0.11,0.94,0,1,-1,0.33,,,,,,,,,,
1355,0,0.0,0.49,,,,,,,,,,,,,,,,,,
1357,0,0.01,0.49,,,,,,,,,,,,,,,,,,
1359,0,0.0,0.49,,,,,,,,,,,,,,,,,,
1361,0,0.0,0.49,,,,,,,,,,,,,,,,,,
1363,0,0.0,0.49,,-0.24,0.07,1.0,1,1,-1,0.25,0,1980,0,0.0,0.0,0.0,0.0,0,0,0.0
1365,0,0.0,0.49,,,,,,,,,,,,,,,,,,
1367,0,0.0,0.49,,,,,,,,,,,,,,,,,,
1369,0,0.0,0.5,,,,,,,,,,,,,,,,,,
1371,0,0.01,0.5,,,,,,,,,,,,,,,,,,
1373,0,0.0,0.5,,-0.17,0.08,1.02,-0,1,-1,0.19,,,,,,,,,,
1375,0,0.0,0.5,,,,,,,,,,,,,,,,,,
1377,0,0.0,0.5,,,,,,,,,,,,,,,,,,
1379,0,0.0,0.49,,,,,,,,,,,,,,,,,,
1381,0,0.0,0.49,,,,,,,,,,,,,,,,,,
1383,0,0.0,0.49,,-0.31,0.1,0.91,0,1,-1,0.32,0,1920,0,0.0,0.0,0.0,0.0,0,0,0.0
1385,0,0.0,0.49,,,,,,,,,,,,,,,,,,
1387,0,0.0,0.5,,,,,,,,,,,,,,,,,,
1389,0,0.0,0.5,,,,,,,,,,,,,,,,,,
1391,0,0.0,0.5,,,,,,,,,,,,,,,,,,
1393,0,0.0,0.49,,-0.19,0.07,1.0,0,0,-1,0.2,,,,,,,,,,
1395,0,0.0,0.49,,,,,,,,,,,,,,,,,,
1397,0,0.0,0.5,,,,,,,,,,,,,,,,,,
1399,0,0.0,0.5,,,,,,,,,,,,,,,,,,
1401,0,0.0,0.5,,,,,,,,,,,,,,,,,,
1403,0,0.0,0.5,,-0.09,0.06,0.93,-0,-0,-1,0.11,0,1920,0,0.0,0.0,0.0,0.0,0,0,0.0
1405,0,0.0,0.5,,,,,,,,,,,,,,,,,,
1407,0,0.0,0.51,,,,,,,,,,,,,,,,,,
1409,0,0.0,0.51,,,,,,,,,,,,,,,,,,
1411,0,0.0,0.5,,,,,,,,,,,,,,,,,,
1413,0,0.0,0.5,,-0.26,0.11,0.89,-0,0,-1,0.28,,,,,,,,,,
1415,0,0.0,0.5,,,,,,,,,,,,,,,,,,
1417,0,0.0,0.5,,,,,,,,,,,,,,,,,,
1419,0,0.0,0.5,,,,,,,,,,,,,,,,,,
1421,0,0.0,0.5,,,,,,,,,,,,,,,,,,
1423,0,0.0,0.5,,-0.23,0.07,1.01,0,-1,-1,0.24,0,1980,0,0.0,0.0,0.0,0.0,0,0,0.0
1425,0,0.0,0.5,,,,,,,,,,,,,,,,,,
1427,0,0.0,0.5,,,,,,,,,,,,,,,,,,
1429,0,0.0,0.5,,,,,,,,,,,,,,,,,,
1431,0,0.0,0.5,,,,,,,,,,,,,,,,,,
1433,0,0.01,0.5,,-0.13,0.03,0.99,-0,-1,-1,0.13,,,,,,,,,,
1435,0,0.0,0.49,,,,,,,,,,,,,,,,,,
1437,0,0.0,0.5,,,,,,,,,,,,,,,,,,
1439,0,0.0,0.49,,,,,,,,,,,,,,,,,,
1441,0,0.0,0.49,,,,,,,,,,,,,,,,,,
1443,0,0.0,0.49,,-0.19,0.07,0.92,-0,-1,-1,0.21,0,1920,0,0.0,0.0,0.0,0.0,0,0,0.0
1445,0,0.0,0.49,,,,,,,,,,,,,,,,,,
1447,0,0.01,0.49,,,,,,,,,,,,,,,,,,
1449,0,0.0,0.49,,,,,,,,,,,,,,,,,,
1451,0,0.0,0.49,,,,,,,,,,,,,,,,,,
1453,0,0.0,0.49,,-0.16,0.06,1.07,1,-1,-1,0.17,,,,,,,,,,
1455,0,0.0,0.49,,,,,,,,,,,,,,,,,,
1457,0,0.0,0.49,,,,,,,,,,,,,,,,,,
1459,0,0.0,0.49,,,,,,,,,,,,,,,,,,
1461,0,0.0,0.49,,,,,,,,,,,,,,,,,,
1463,0,0.0,0.49,,-0.04,0.03,0.99,-0,-1,-1,0.05,0,1920,0,0.0,0.0,0.0,0.0,0,0,0.0
1465,0,0.0,0.49,,,,,,,,,,,,,,,,,,
1467,0,0.0,0.49,,,,,,,,,,,,,,,,,,
1469,0,0.0,0.49,,,,,,,,,,,,,,,,,,
1471,0,0.0,0.49,,,,,,,,,,,,,,,,,,
1473,0,0.0,0.48,,-0.18,0.09,0.93,0,-0,-1,0.2,,,,,,,,,,
1475,0,0.0,0.48,,,,,,,,,,,,,,,,,,
1477,0,0.0,0.48,,,,,,,,,,,,,,,,,,
1479,0,0.0,0.48,,,,,,,,,,,,,,,,,,
1481,0,0.0,0.48,,,,,,,,,,,,,,,,,,
1483,0,0.0,0.48,,-0.22,0.07,1.08,1,-1,-1,0.23,0,1980,0,0.0,0.0,0.0,0.0,0,0,0.0
1485,0,0.0,0.48,,,,,,,,,,,,,,,,,,
1487,0,0.0,0.48,,,,,,,,,,,,,,,,,,
1489,0,0.0,0.48,,,,,,,,,,,,,,,,,,
1491,0,0.0,0.48,,,,,,,,,,,,,,,,,,
1493,0,0.0,0.48,,-0.07,0.02,0.98,0,-1,-1,0.08,,,,,,,,,,
1495,0,0.0,0.48,,,,,,,,,,,,,,,,,,
1497,0,0.0,0.48,,,,,,,,,,,,,,,,,,
1499,0,0.0,0.5,,,,,,,,,,,,,,,,,,
1501,0,0.0,0.48,,,,,,,,,,,,,,,,,,
1503,0,0.0,0.48,,-0.13,0.08,0.93,1,-0,-1,0.15,0,1920,0,0.0,0.0,0.0,0.0,0,0,0.0
1505,0,0.0,0.48,,,,,,,,,,,,,,,,,,
1507,0,0.0,0.48,,,,,,,,,,,,,,,,,,
1509,0,0.0,0.48,,,,,,,,,,,,,,,,,,
1511,0,0.0,0.48,,,,,,,,,,,,,,,,,,
1513,0,0.0,0.48,,-0.18,0.08,1.05,1,-1,-1,0.19,,,,,,,,,,
1515,0,0.0,0.48,,,,,,,,,,,,,,,,,,
1517,0,0.0,0.48,,,,,,,,,,,,,,,,,,
1519,0,0.0,0.48,,,,,,,,,,,,,,,,,,
1521,0,0.0,0.49,,,,,,,,,,,,,,,,,,
1523,0,0.01,0.49,,-0.04,0.05,1.0,1,-0,-0,0.06,0,1920,0,0.0,0.0,0.0,0.0,0,0,0.0
1525,0,0.0,0.49,,,,,,,,,,,,,,,,,,
1527,0,0.0,0.49,,,,,,,,,,,,,,,,,,
1529,0,0.0,0.5,,,,,,,,,,,,,,,,,,
1531,0,0.01,0.49,,,,,,,,,,,,,,,,,,
1533,0,0.0,0.49,,-0.22,0.1,0.95,1,1,-1,0.24,,,,,,,,,,
1535,0,0.01,0.49,,,,,,,,,,,,,,,,,,
1537,0,0.0,0.49,,,,,,,,,,,,,,,,,,
1539,0,0.0,0.49,,,,,,,,,,,,,,,,,,
1541,0,0.0,0.49,,,,,,,,,,,,,,,,,,
1543,0,0.0,0.49,,-0.26,0.1,1.07,1,-0,-1,0.28,0,1980,0,0.0,0.0,0.0,0.0,0,0,0.0
1545,0,0.0,0.49,,,,,,,,,,,,,,,,,,
1547,0,0.0,0.5,,,,,,,,,,,,,,,,,,
1549,0,0.0,0.49,,,,,,,,,,,,,,,,,,
1551,0,0.0,0.5,,,,,,,,,,,,,,,,,,
1553,0,0.0,0.5,,-0.07,0.04,0.9,1,-1,-0,0.08,,,,,,,,,,
1555,0,0.0,0.49,,,,,,,,,,,,,,,,,,
1557,0,0.0,0.5,,,,,,,,,,,,,,,,,,
1559,0,0.0,0.51,,,,,,,,,,,,,,,,,,
1561,0,0.0,0.5,,,,,,,,,,,,,,,,,,
1563,0,0.0,0.5,,-0.12,0.1,0.9,1,-0,-1,0.16,0,1920,0,0.0,0.0,0.0,0.0,0,0,0.0
1565,0,0.0,0.5,,,,,,,,,,,,,,,,,,
1567,0,0.0,0.5,,,,,,,,,,,,,,,,,,
1569,0,0.0,0.5,,,,,,,,,,,,,,,,,,
1571,0,0.0,0.5,,,,,,,,,,,,,,,,,,
1573,0,0.0,0.5,,-0.13,0.1,0.99,1,-1,-1,0.17,,,,,,,,,,
1575,0,0.0,0.5,,,,,,,,,,,,,,,,,,
1577,0,0.0,0.5,,,,,,,,,,,,,,,,,,
1579,0,0.0,0.5,,,,,,,,,,,,,,,,,,
1581,0,0.0,0.5,,,,,,,,,,,,,,,,,,
1583,0,0.0,0.5,,0.06,0.04,0.92,0,-2,-1,0.07,0,1920,0,0.0,0.0,0.0,0.0,0,0,0.0
1585,0,0.01,0.5,,,,,,,,,,,,,,,,,,
1587,0,0.0,0.5,,,,,,,,,,,,,,,,,,
1589,0,0.0,0.52,,,,,,,,,,,,,,,,,,
1591,0,0.0,0.5,,,,,,,,,,,,,,,,,,
1593,0,0.0,0.5,,-0.12,0.08,0.98,0,-1,-1,0.15,,,,,,,,,,
1595,0,0.0,0.5,,,,,,,,,,,,,,,,,,
1597,0,0.0,0.5,,,,,,,,,,,,,,,,,,
1599,0,0.0,0.5,,,,,,,,,,,,,,,,,,
1601,0,0.0,0.5,,,,,,,,,,,,,,,,,,
1603,0,0.0,0.5,,-0.15,0.08,1.12,0,-2,-1,0.17,0,1980,0,0.0,0.0,0.0,0.0,0,0,0.0
1605,0,0.01,0.5,,,,,,,,,,,,,,,,,,
1607,0,0.0,0.5,,,,,,,,,,,,,,,,,,
1609,0,0.0,0.51,,,,,,,,,,,,,,,,,,
1611,0,0.0,0.5,,,,,,,,,,,,,,,,,,
1613,0,0.0,0.5,,0.05,0.01,0.98,0,-2,0,0.05,,,,,,,,,,
1615,0,0.0,0.5,,,,,,,,,,,,,,,,,,
1617,0,0.0,0.5,,,,,,,,,,,,,,,,,,
1619,0,0.01,0.51,,,,,,,,,,,,,,,,,,
1621,0,0.0,0.51,,,,,,,,,,,,,,,,,,
1623,0,0.0,0.51,,-0.07,0.09,1.06,0,-1,0,0.11,0,1920,0,0.0,0.0,0.0,0.0,0,0,0.0
1625,0,0.0,0.51,,,,,,,,,,,,,,,,,,
1627,0,0.0,0.51,,,,,,,,,,,,,,,,,,
1629,0,0.0,0.5,,,,,,,,,,,,,,,,,,
1631,0,0.0,0.5,,,,,,,,,,,,,,,,,,
1633,0,0.0,0.5,,-0.17,0.07,1.14,1,-2,-0,0.18,,,,,,,,,,
1635,0,0.0,0.5,,,,,,,,,,,,,,,,,,
1637,0,0.0,0.5,,,,,,,,,,,,,,,,,,
1639,0,0.0,0.5,,,,,,,,,,,,,,,,,,
1641,0,0.0,0.5,,,,,,,,,,,,,,,,,,
1643,0,0.0,0.5,,0.1,0.03,1.04,0,-1,0,0.1,2,1920,0,0.0,0.0,0.0,0.0,0,0,0.0
1645,0,0.0,0.5,,,,,,,,,,,,,,,,,,
1647,0,0.0,0.5,,,,,,,,,,,,,,,,,,
1649,0,0.0,0.5,,,,,,,,,,,,,,,,,,
1651,0,0.0,0.5,,,,,,,,,,,,,,,,,,
1653,0,0.0,0.5,,-0.12,0.07,1.03,0,1,-0,0.14,,,,,,,,,,
1655,0,0.0,0.5,,,,,,,,,,,,,,,,,,
1657,0,0.0,0.49,,,,,,,,,,,,,,,,,,
1659,0,0.0,0.49,,,,,,,,,,,,,,,,,,
1661,0,0.0,0.49,,,,,,,,,,,,,,,,,,
1663,0,0.0,0.49,,-0.15,0.1,1.07,1,-0,-0,0.18,2,1980,0,0.0,0.0,0.0,0.0,0,0,0.0
1665,0,0.0,0.49,,,,,,,,,,,,,,,,,,
1667,0,0.0,0.49,,,,,,,,,,,,,,,,,,
1669,0,0.0,0.49,,,,,,,,,,,,,,,,,,
1671,0,0.0,0.5,,,,,,,,,,,,,,,,,,
1673,0,0.0,0.49,,0.1,0.06,0.88,0,-0,-0,0.11,,,,,,,,,,
1675,0,0.0,0.49,,,,,,,,,,,,,,,,,,
1677,0,0.0,0.49,,,,,,,,,,,,,,,,,,
1679,0,0.0,0.49,,,,,,,,,,,,,,,,,,
1681,0,0.0,0.5,,,,,,,,,,,,,,,,,,
1683,0,0.0,0.49,,-0.06,0.14,0.99,0,2,-1,0.15,2,1920,0,0.0,0.0,0.0,0.0,0,0,0.0
1685,0,0.0,0.49,,,,,,,,,,,,,,,,,,
1687,0,0.0,0.49,,,,,,,,,,,,,,,,,,
1689,0,0.0,0.49,,,,,,,,,,,,,,,,,,
1691,0,0.0,0.49,,,,,,,,,,,,,,,,,,
1693,0,0.0,0.5,,-0.23,0.13,1.07,1,1,-2,0.26,,,,,,,,,,
1695,0,0.0,0.5,,,,,,,,,,,,,,,,,,
1697,0,0.0,0.5,,,,,,,,,,,,,,,,,,
1699,0,0.0,0.5,,,,,,,,,,,,,,,,,,
1701,0,0.0,0.5,,,,,,,,,,,,,,,,,,
1703,0,0.0,0.5,,0.04,0.05,1.0,0,1,-1,0.06,2,1920,0,0.0,0.0,0.0,0.0,0,0,0.0
1705,0,0.0,0.5,,,,,,,,,,,,,,,,,,
1707,0,0.0,0.5,,,,,,,,,,,,,,,,,,
1709,0,0.0,0.5,,,,,,,,,,,,,,,,,,
1711,0,0.0,0.52,,,,,,,,,,,,,,,,,,
1713,0,0.0,0.51,,-0.19,0.1,0.98,0,2,-1,0.21,,,,,,,,,,
1715,0,0.0,0.5,,,,,,,,,,,,,,,,,,
1717,0,0.0,0.5,,,,,,,,,,,,,,,,,,
1719,0,0.0,0.5,,,,,,,,,,,,,,,,,,
1721,0,0.0,0.5,,,,,,,,,,,,,,,,,,
1723,0,0.0,0.5,,-0.2,0.12,1.01,1,0,-1,0.23,2,1980,0,0.0,0.0,0.0,0.0,0,0,0.0
1725,0,0.0,0.51,,,,,,,,,,,,,,,,,,
1727,0,0.0,0.51,,,,,,,,,,,,,,,,,,
1729,0,0.0,0.5,,,,,,,,,,,,,,,,,,
1731,0,0.0,0.5,,,,,,,,,,,,,,,,,,
1733,0,0.0,0.51,,0.03,0.01,0.83,1,0,-0,0.03,,,,,,,,,,
1735,0,0.0,0.51,,,,,,,,,,,,,,,,,,
1737,0,0.0,0.51,,,,,,,,,,,,,,,,,,
1739,0,0.0,0.51,,,,,,,,,,,,,,,,,,
1741,0,0.0,0.52,,,,,,,,,,,,,,,,,,
1743,0,0.0,0.51,,-0.06,0.11,0.89,0,1,-0,0.12,2,1920,0,0.0,0.0,0.0,0.0,0,0,0.0
1745,0,0.0,0.51,,,,,,,,,,,,,,,,,,
1747,0,0.0,0.51,,,,,,,,,,,,,,,,,,
1749,0,0.0,0.51,,,,,,,,,,,,,,,,,,
1751,0,0.0,0.51,,,,,,,,,,,,,,,,,,
1753,0,0.0,0.51,,-0.19,0.12,0.98,1,-1,-1,0.22,,,,,,,,,,
1755,0,0.0,0.51,,,,,,,,,,,,,,,,,,
1757,0,0.0,0.51,,,,,,,,,,,,,,,,,,
1759,0,0.0,0.51,,,,,,,,,,,,,,,,,,
1761,0,0.0,0.51,,,,,,,,,,,,,,,,,,
1763,0,0.0,0.51,,0.08,0.03,0.95,1,-2,-0,0.09,2,1920,0,0.0,0.0,0.0,0.0,0,0,0.0
1765,0,0.0,0.51,,,,,,,,,,,,,,,,,,
1767,0,0.0,0.51,,,,,,,,,,,,,,,,,,
1769,0,0.0,0.51,,,,,,,,,,,,,,,,,,
1771,0,0.0,0.53,,,,,,,,,,,,,,,,,,
1773,0,0.0,0.51,,-0.1,0.09,1.03,0,-1,-1,0.13,,,,,,,,,,
1775,0,0.0,0.51,,,,,,,,,,,,,,,,,,
1777,0,0.0,0.51,,,,,,,,,,,,,,,,,,
1779,0,0.0,0.51,,,,,,,,,,,,,,,,,,
1781,0,0.0,0.51,,,,,,,,,,,,,,,,,,
1783,0,0.0,0.51,,-0.14,0.09,1.1,1,-2,-1,0.17,2,1980,0,0.0,0.0,0.0,0.0,0,0,0.0
1785,0,0.01,0.51,,,,,,,,,,,,,,,,,,
1787,0,0.0,0.51,,,,,,,,,,,,,,,,,,
1789,0,0.0,0.52,,,,,,,,,,,,,,,,,,
1791,0,0.0,0.52,,,,,,,,,,,,,,,,,,
1793,0,0.0,0.52,,0.04,0.01,0.99,1,-2,-0,0.04,,,,,,,,,,
1795,0,0.0,0.52,,,,,,,,,,,,,,,,,,
1797,0,0.0,0.52,,,,,,,,,,,,,,,,,,
1799,0,0.0,0.51,,,,,,,,,,,,,,,,,,
1801,0,0.0,0.52,,,,,,,,,,,,,,,,,,
1803,0,0.0,0.52,,-0.05,0.07,1.09,0,-1,-0,0.09,2,1920,0,0.0,0.0,0.0,0.0,0,0,0.0
1805,0,0.0,0.52,,,,,,,,,,,,,,,,,,
1807,0,0.0,0.52,,,,,,,,,,,,,,,,,,
1809,0,0.0,0.52,,,,,,,,,,,,,,,,,,
1811,0,0.0,0.52,,,,,,,,,,,,,,,,,,
1813,0,0.0,0.52,,-0.2,0.07,1.06,1,-1,-0,0.21,,,,,,,,,,
1815,0,0.0,0.52,,,,,,,,,,,,,,,,,,
1817,0,0.0,0.52,,,,,,,,,,,,,,,,,,
1819,0,0.0,0.52,,,,,,,,,,,,,,,,,,
1821,0,0.0,0.52,,,,,,,,,,,,,,,,,,
1823,0,0.0,0.52,,0.08,0.03,1.05,1,-1,0,0.09,2,1920,0,0.0,0.0,0.0,0.0,0,0,0.0
1825,0,0.0,0.52,,,,,,,,,,,,,,,,,,
1827,0,0.0,0.52,,,,,,,,,,,,,,,,,,
1829,0,0.0,0.51,,,,,,,,,,,,,,,,,,
1831,0,0.0,0.51,,,,,,,,,,,,,,,,,,
1833,0,0.0,0.52,,-0.04,0.09,1.03,0,0,-0,0.1,,,,,,,,,,
1835,0,0.0,0.51,,,,,,,,,,,,,,,,,,
1837,0,0.0,0.51,,,,,,,,,,,,,,,,,,
1839,0,0.0,0.51,,,,,,,,,,,,,,,,,,
1841,0,0.0,0.51,,,,,,,,,,,,,,,,,,
1843,0,0.0,0.51,,-0.1,0.11,1.01,1,-1,-0,0.15,12,1980,0,0.0,0.0,0.0,0.0,0,0,0.0
1845,0,0.0,0.51,,,,,,,,,,,,,,,,,,
1847,0,0.01,0.51,,,,,,,,,,,,,,,,,,
1849,0,0.0,0.51,,,,,,,,,,,,,,,,,,
1851,0,0.0,0.51,,,,,,,,,,,,,,,,,,
1853,0,0.0,0.51,,0.05,0.04,0.93,1,-0,-0,0.06,,,,,,,,,,
1855,0,0.0,0.51,,,,,,,,,,,,,,,,,,
1857,0,0.0,0.51,,,,,,,,,,,,,,,,,,
1859,0,0.0,0.5,,,,,,,,,,,,,,,,,,
1861,0,0.0,0.51,,,,,,,,,,,,,,,,,,
1863,0,0.0,0.52,,-0.04,0.15,1.06,0,1,-1,0.15,12,1920,0,0.0,0.0,0.0,0.0,0,0,0.0
1865,0,0.0,0.51,,,,,,,,,,,,,,,,,,
1867,0,0.0,0.51,,,,,,,,,,,,,,,,,,
1869,0,0.0,0.5,,,,,,,,,,,,,,,,,,
1871,0,0.0,0.51,,,,,,,,,,,,,,,,,,
1873,0,0.0,0.5,,-0.28,0.09,1.02,0,1,-1,0.3,,,,,,,,,,
1875,0,0.0,0.5,,,,,,,,,,,,,,,,,,
1877,0,0.0,0.5,,,,,,,,,,,,,,,,,,
1879,0,0.0,0.5,,,,,,,,,,,,,,,,,,
1881,0,0.0,0.5,,,,,,,,,,,,,,,,,,
1883,0,0.0,0.5,,-0.03,0.06,1.07,0,1,-1,0.06,12,1920,0,0.0,0.0,0.0,0.0,0,0,0.0
1885,0,0.0,0.5,,,,,,,,,,,,,,,,,,
1887,0,0.0,0.5,,,,,,,,,,,,,,,,,,
1889,0,0.0,0.5,,,,,,,,,,,,,,,,,,
1891,0,0.0,0.5,,,,,,,,,,,,,,,,,,
1893,0,0.0,0.51,,-0.13,0.11,0.99,0,2,-1,0.17,,,,,,,,,,
1895,0,0.0,0.5,,,,,,,,,,,,,,,,,,
1897,0,0.0,0.51,,,,,,,,,,,,,,,,,,
1899,0,0.0,0.51,,,,,,,,,,,,,,,,,,
1901,0,0.0,0.51,,,,,,,,,,,,,,,,,,
1903,0,0.0,0.51,,-0.18,0.1,0.93,1,0,-1,0.2,12,1980,0,0.0,0.0,0.0,0.0,0,0,0.0
1905,0,0.0,0.51,,,,,,,,,,,,,,,,,,
1907,0,0.0,0.51,,,,,,,,,,,,,,,,,,
1909,0,0.01,0.51,,,,,,,,,,,,,,,,,,
1911,0,0.0,0.51,,,,,,,,,,,,,,,,,,
1913,0,0.0,0.51,,-0.02,0.02,0.84,1,0,-1,0.03,,,,,,,,,,
1915,0,0.0,0.51,,,,,,,,,,,,,,,,,,
1917,0,0.0,0.52,,,,,,,,,,,,,,,,,,
1919,0,0.0,0.51,,,,,,,,,,,,,,,,,,
1921,0,0.0,0.52,,,,,,,,,,,,,,,,,,
1923,0,0.0,0.53,,-0.04,0.12,0.97,0,0,-1,0.13,12,1920,0,0.0,0.0,0.0,0.0,0,0,0.0
1925,0,0.0,0.52,,,,,,,,,,,,,,,,,,
1927,0,0.0,0.52,,,,,,,,,,,,,,,,,,
1929,0,0.0,0.51,,,,,,,,,,,,,,,,,,
1931,0,0.0,0.52,,,,,,,,,,,,,,,,,,
1933,0,0.0,0.52,,-0.22,0.1,0.88,0,-1,-1,0.24,,,,,,,,,,
1935,0,0.0,0.52,,,,,,,,,,,,,,,,,,
1937,0,0.0,0.52,,,,,,,,,,,,,,,,,,
1939,0,0.0,0.52,,,,,,,,,,,,,,,,,,
1941,0,0.0,0.52,,,,,,,,,,,,,,,,,,
1943,0,0.0,0.52,,0.01,0.04,1.0,1,-2,-0,0.04,12,1920,0,0.0,0.0,0.0,0.0,0,0,0.0
1945,0,0.0,0.52,,,,,,,,,,,,,,,,,,
1947,0,0.0,0.52,,,,,,,,,,,,,,,,,,
1949,0,0.0,0.52,,,,,,,,,,,,,,,,,,
1951,0,0.0,0.52,,,,,,,,,,,,,,,,,,
1953,0,0.0,0.53,,-0.01,0.06,0.97,0,-2,-0,0.07,,,,,,,,,,
1955,0,0.0,0.52,,,,,,,,,,,,,,,,,,
1957,0,0.0,0.52,,,,,,,,,,,,,,,,,,
1959,0,0.0,0.52,,,,,,,,,,,,,,,,,,
1961,0,0.0,0.53,,,,,,,,,,,,,,,,,,
1963,0,0.0,0.52,,-0.08,0.1,0.97,0,-3,-0,0.12,12,1980,0,0.0,0.0,0.0,0.0,0,0,0.0
1965,0,0.0,0.52,,,,,,,,,,,,,,,,,,
1967,0,0.0,0.52,,,,,,,,,,,,,,,,,,
1969,0,0.0,0.52,,,,,,,,,,,,,,,,,,
1971,0,0.0,0.52,,,,,,,,,,,,,,,,,,
1973,0,0.0,0.52,,0.02,0.03,0.98,1,-3,0,0.04,,,,,,,,,,
1975,0,0.0,0.53,,,,,,,,,,,,,,,,,,
1977,0,0.0,0.53,,,,,,,,,,,,,,,,,,
1979,0,0.0,0.52,,,,,,,,,,,,,,,,,,
1981,0,0.0,0.52,,,,,,,,,,,,,,,,,,
1983,0,0.0,0.52,,0.05,0.09,1.08,0,-2,0,0.11,12,1980,0,0.0,0.0,0.0,0.0,0,0,0.0
1985,0,0.0,0.53,,,,,,,,,,,,,,,,,,
1987,0,0.0,0.53,,,,,,,,,,,,,,,,,,
1989,0,0.0,0.53,,,,,,,,,,,,,,,,,,
1991,0,0.0,0.53,,,,,,,,,,,,,,,,,,
1993,0,0.0,0.53,,-0.08,0.05,0.98,1,-2,0,0.1,,,,,,,,,,
1995,0,0.0,0.53,,,,,,,,,,,,,,,,,,
1997,0,0.0,0.53,,,,,,,,,,,,,,,,,,
1999,0,0.0,0.53,,,,,,,,,,,,,,,,,,
2001,0,0.0,0.53,,,,,,,,,,,,,,,,,,
2003,0,0.0,0.53,,0.06,0.04,1.09,1,-2,1,0.07,12,1920,0,0.0,0.0,0.0,0.0,0,0,0.0
2005,0,0.0,0.53,,,,,,,,,,,,,,,,,,
2007,0,0.0,0.53,,,,,,,,,,,,,,,,,,
2009,0,0.0,0.53,,,,,,,,,,,,,,,,,,
2011,0,0.0,0.53,,,,,,,,,,,,,,,,,,
2013,0,0.0,0.53,,0.09,0.07,1.02,1,-2,0,0.12,,,,,,,,,,
2015,0,0.0,0.53,,,,,,,,,,,,,,,,,,
2017,0,0.0,0.53,,,,,,,,,,,,,,,,,,
2019,0,0.0,0.53,,,,,,,,,,,,,,,,,,
2021,0,0.0,0.53,,,,,,,,,,,,,,,,,,
2023,0,0.0,0.53,,-0.01,0.11,0.97,1,-2,0,0.11,12,1980,0,0.0,0.0,0.0,0.0,0,0,0.0
2025,0,0.0,0.53,,,,,,,,,,,,,,,,,,
2027,0,0.0,0.53,,,,,,,,,,,,,,,,,,
2029,0,0.0,0.53,,,,,,,,,,,,,,,,,,
2031,0,0.0,0.53,,,,,,,,,,,,,,,,,,
2033,0,0.0,0.54,,0.02,0.06,0.99,1,-1,0,0.06,,,,,,,,,,
2035,0,0.0,0.54,,,,,,,,,,,,,,,,,,
2037,0,0.0,0.54,,,,,,,,,,,,,,,,,,
2039,0,0.0,0.53,,,,,,,,,,,,,,,,,,
2041,0,0.0,0.53,,,,,,,,,,,,,,,,,,
2043,0,0.0,0.53,13.43,0.07,0.1,1.08,0,-0,0,0.13,12,1980,0,0.0,0.0,0.0,0.0,0,0,0.0
2045,0,0.0,0.54,,,,,,,,,,,,,,,,,,
2047,0,0.0,0.53,,,,,,,,,,,,,,,,,,
2049,0,0.0,0.53,,,,,,,,,,,,,,,,,,
2051,0,0.0,0.53,,,,,,,,,,,,,,,,,,
2053,0,0.0,0.52,,-0.09,0.09,0.95,0,0,-0,0.13,,,,,,,,,,
2055,0,0.0,0.52,,,,,,,,,,,,,,,,,,
2057,0,0.0,0.52,,,,,,,,,,,,,,,,,,
2059,0,0.0,0.52,,,,,,,,,,,,,,,,,,
2061,0,0.0,0.52,,,,,,,,,,,,,,,,,,
2063,0,0.0,0.52,,0.04,0.07,1.04,1,0,-0,0.08,10,1920,0,0.0,0.0,0.0,0.0,0,0,0.0
2065,0,0.0,0.53,,,,,,,,,,,,,,,,,,
2067,0,0.0,0.52,,,,,,,,,,,,,,,,,,
2069,0,0.0,0.52,,,,,,,,,,,,,,,,,,
2071,0,0.0,0.52,,,,,,,,,,,,,,,,,,
2073,0,0.0,0.52,,0.06,0.09,0.98,0,1,-0,0.11,,,,,,,,,,
2075,0,0.0,0.53,,,,,,,,,,,,,,,,,,
2077,0,0.0,0.52,,,,,,,,,,,,,,,,,,
2079,0,0.0,0.52,,,,,,,,,,,,,,,,,,
2081,0,0.01,0.52,,,,,,,,,,,,,,,,,,
2083,0,0.0,0.52,,-0.08,0.14,0.91,0,1,-1,0.16,10,1980,0,0.0,0.0,0.0,0.0,0,0,0.0
2085,0,0.0,0.52,,,,,,,,,,,,,,,,,,
2087,0,0.0,0.52,,,,,,,,,,,,,,,,,,
2089,0,0.0,0.52,,,,,,,,,,,,,,,,,,
2091,0,0.0,0.52,,,,,,,,,,,,,,,,,,
2093,0,0.0,0.52,,-0.03,0.06,0.94,1,1,-1,0.07,,,,,,,,,,
2095,0,0.0,0.52,,,,,,,,,,,,,,,,,,
2097,0,0.0,0.52,,,,,,,,,,,,,,,,,,
2099,0,0.0,0.52,,,,,,,,,,,,,,,,,,
2101,0,0.0,0.52,,,,,,,,,,,,,,,,,,
2103,0,0.0,0.52,,-0.0,0.15,1.03,0,2,-1,0.15,10,1980,0,0.0,0.0,0.0,0.0,0,0,0.0
2105,0,0.0,0.53,,,,,,,,,,,,,,,,,,
2107,0,0.0,0.52,,,,,,,,,,,,,,,,,,
2109,0,0.0,0.52,,,,,,,,,,,,,,,,,,
2111,0,0.0,0.51,,,,,,,,,,,,,,,,,,
2113,0,0.0,0.52,,-0.19,0.1,0.91,0,1,-1,0.22,,,,,,,,,,
2115,0,0.0,0.51,,,,,,,,,,,,,,,,,,
2117,0,0.0,0.51,,,,,,,,,,,,,,,,,,
2119,0,0.0,0.51,,,,,,,,,,,,,,,,,,
2121,0,0.0,0.51,,,,,,,,,,,,,,,,,,
2123,0,0.0,0.51,,-0.01,0.05,1.01,1,1,-1,0.05,10,1920,0,0.0,0.0,0.0,0.0,0,0,0.0
2125,0,0.0,0.51,,,,,,,,,,,,,,,,,,
2127,0,0.0,0.52,,,,,,,,,,,,,,,,,,
2129,0,0.0,0.51,,,,,,,,,,,,,,,,,,
2131,0,0.0,0.52,,,,,,,,,,,,,,,,,,
2133,0,0.0,0.51,,0.0,0.11,0.93,0,1,-1,0.11,,,,,,,,,,
2135,0,0.01,0.53,,,,,,,,,,,,,,,,,,
2137,0,0.0,0.51,,,,,,,,,,,,,,,,,,
2139,0,0.0,0.52,,,,,,,,,,,,,,,,,,
2141,0,0.0,0.51,,,,,,,,,,,,,,,,,,
2143,0,0.01,0.51,,-0.14,0.14,0.89,0,1,-1,0.2,10,1980,0,0.0,0.0,0.0,0.0,0,0,0.0
2145,0,0.0,0.51,,,,,,,,,,,,,,,,,,
2147,0,0.0,0.51,,,,,,,,,,,,,,,,,,
2149,0,0.0,0.51,,,,,,,,,,,,,,,,,,
2151,0,0.0,0.52,,,,,,,,,,,,,,,,,,
2153,0,0.0,0.52,,-0.02,0.05,0.9,1,0,-1,0.05,,,,,,,,,,
2155,0,0.0,0.52,,,,,,,,,,,,,,,,,,
2157,0,0.01,0.52,,,,,,,,,,,,,,,,,,
2159,0,0.0,0.52,,,,,,,,,,,,,,,,,,
2161,0,0.0,0.52,,,,,,,,,,,,,,,,,,
2163,0,0.0,0.52,,-0.0,0.1,1.02,0,0,-1,0.1,10,1980,0,0.0,0.0,0.0,0.0,0,0,0.0
2165,0,0.0,0.53,,,,,,,,,,,,,,,,,,
2167,0,0.0,0.52,,,,,,,,,,,,,,,,,,
2169,0,0.0,0.52,,,,,,,,,,,,,,,,,,
2171,0,0.01,0.52,,,,,,,,,,,,,,,,,,
2173,0,0.0,0.52,,-0.21,0.08,0.93,0,-0,-1,0.22,,,,,,,,,,
2175,0,0.0,0.53,,,,,,,,,,,,,,,,,,
2177,0,0.0,0.52,,,,,,,,,,,,,,,,,,
2179,0,0.0,0.53,,,,,,,,,,,,,,,,,,
2181,0,0.0,0.53,,,,,,,,,,,,,,,,,,
2183,0,0.0,0.53,,-0.02,0.05,1.05,1,-1,-0,0.06,10,1920,0,0.0,0.0,0.0,0.0,0,0,0.0
2185,0,0.0,0.53,,,,,,,,,,,,,,,,,,
2187,0,0.0,0.53,,,,,,,,,,,,,,,,,,
2189,0,0.0,0.53,,,,,,,,,,,,,,,,,,
2191,0,0.0,0.53,,,,,,,,,,,,,,,,,,
2193,0,0.0,0.53,,-0.01,0.05,1.02,0,-0,-0,0.05,,,,,,,,,,
2195,0,0.0,0.54,,,,,,,,,,,,,,,,,,
2197,0,0.0,0.53,,,,,,,,,,,,,,,,,,
2199,0,0.0,0.53,,,,,,,,,,,,,,,,,,
2201,0,0.0,0.53,,,,,,,,,,,,,,,,,,
2203,0,0.0,0.53,,-0.18,0.11,0.95,0,-1,-1,0.21,10,1980,0,0.0,0.0,0.0,0.0,0,0,0.0
2205,0,0.0,0.53,,,,,,,,,,,,,,,,,,
2207,0,0.0,0.53,,,,,,,,,,,,,,,,,,
2209,0,0.01,0.53,,,,,,,,,,,,,,,,,,
2211,0,0.0,0.53,,,,,,,,,,,,,,,,,,
2213,0,0.0,0.53,,-0.05,0.06,0.96,1,-1,-0,0.08,,,,,,,,,,
2215,0,0.0,0.53,,,,,,,,,,,,,,,,,,
2217,0,0.0,0.53,,,,,,,,,,,,,,,,,,
2219,0,0.01,0.54,,,,,,,,,,,,,,,,,,
2221,0,0.0,0.54,,,,,,,,,,,,,,,,,,
2223,0,0.0,0.54,,0.02,0.09,1.02,0,-1,-1,0.09,10,1980,0,0.0,0.0,0.0,0.0,0,0,0.0
2225,0,0.0,0.55,,,,,,,,,,,,,,,,,,
2227,0,0.0,0.54,,,,,,,,,,,,,,,,,,
2229,0,0.0,0.54,,,,,,,,,,,,,,,,,,
2231,0,0.0,0.54,,,,,,,,,,,,,,,,,,
2233,0,0.0,0.54,,-0.17,0.07,0.91,0,-1,-1,0.19,,,,,,,,,,
2235,0,0.0,0.54,,,,,,,,,,,,,,,,,,
2237,0,0.0,0.54,,,,,,,,,,,,,,,,,,
2239,0,0.0,0.53,,,,,,,,,,,,,,,,,,
2241,0,0.0,0.54,,,,,,,,,,,,,,,,,,
2243,0,0.0,0.54,,0.0,0.04,1.02,1,-1,-1,0.04,10,1920,0,0.0,0.0,0.0,0.0,0,0,0.0
2245,0,0.0,0.54,,,,,,,,,,,,,,,,,,
2247,0,0.01,0.54,,,,,,,,,,,,,,,,,,
2249,0,0.0,0.54,,,,,,,,,,,,,,,,,,
2251,0,0.0,0.54,,,,,,,,,,,,,,,,,,
2253,0,0.0,0.54,,0.05,0.06,0.99,-0,-1,-1,0.07,,,,,,,,,,
2255,0,0.0,0.55,,,,,,,,,,,,,,,,,,
2257,0,0.0,0.54,,,,,,,,,,,,,,,,,,
2259,0,0.0,0.54,,,,,,,,,,,,,,,,,,
2261,0,0.0,0.54,,,,,,,,,,,,,,,,,,
2263,0,0.0,0.54,,-0.15,0.11,0.96,0,-1,-1,0.19,10,1980,0,0.0,0.0,0.0,0.0,0,0,0.0
2265,0,0.0,0.54,,,,,,,,,,,,,,,,,,
2267,0,0.0,0.54,,,,,,,,,,,,,,,,,,
2269,0,0.0,0.54,,,,,,,,,,,,,,,,,,
2271,0,0.0,0.54,,,,,,,,,,,,,,,,,,
2273,0,0.0,0.54,,-0.07,0.04,1.01,1,-1,-0,0.08,,,,,,,,,,
2275,0,0.0,0.54,,,,,,,,,,,,,,,,,,
2277,0,0.0,0.54,,,,,,,,,,,,,,,,,,
2279,0,0.0,0.55,,,,,,,,,,,,,,,,,,
2281,0,0.0,0.55,,,,,,,,,,,,,,,,,,
2283,0,0.0,0.55,,-0.0,0.08,1.06,-0,-0,-0,0.08,10,1980,0,0.0,0.0,0.0,0.0,0,0,0.0
2285,0,0.0,0.56,,,,,,,,,,,,,,,,,,
2287,0,0.0,0.55,,,,,,,,,,,,,,,,,,
2289,0,0.0,0.54,,,,,,,,,,,,,,,,,,
2291,0,0.0,0.54,,,,,,,,,,,,,,,,,,
2293,0,0.0,0.55,,-0.21,0.09,0.95,-0,0,-1,0.23,,,,,,,,,,
2295,0,0.01,0.55,,,,,,,,,,,,,,,,,,
2297,0,0.0,0.55,,,,,,,,,,,,,,,,,,
2299,0,0.0,0.55,,,,,,,,,,,,,,,,,,
2301,0,0.0,0.55,,,,,,,,,,,,,,,,,,
2303,0,0.0,0.55,,-0.05,0.05,1.0,0,0,-0,0.07,10,1980,0,0.0,0.0,0.0,0.0,0,0,0.0
2305,0,0.0,0.55,,,,,,,,,,,,,,,,,,
2307,0,0.0,0.55,,,,,,,,,,,,,,,,,,
2309,0,0.0,0.55,,,,,,,,,,,,,,,,,,
2311,0,0.0,0.55,,,,,,,,,,,,,,,,,,
2313,0,0.0,0.55,,0.0,0.08,0.96,-0,1,-1,0.08,,,,,,,,,,
2315,0,0.0,0.56,,,,,,,,,,,,,,,,,,
2317,0,0.0,0.55,,,,,,,,,,,,,,,,,,
2319,0,0.0,0.55,,,,,,,,,,,,,,,,,,
2321,0,0.0,0.55,,,,,,,,,,,,,,,,,,
2323,0,0.0,0.55,,-0.18,0.13,0.9,-0,1,-1,0.22,10,1980,0,0.0,0.0,0.0,0.0,0,0,0.0
2325,0,0.0,0.55,,,,,,,,,,,,,,,,,,
2327,0,0.0,0.55,,,,,,,,,,,,,,,,,,
2329,0,0.0,0.55,,,,,,,,,,,,,,,,,,
2331,0,0.0,0.54,,,,,,,,,,,,,,,,,,
2333,0,0.0,0.54,,-0.1,0.04,0.94,0,1,-1,0.1,,,,,,,,,,
2335,0,0.0,0.54,,,,,,,,,,,,,,,,,,
2337,0,0.0,0.54,,,,,,,,,,,,,,,,,,
2339,0,0.0,0.54,,,,,,,,,,,,,,,,,,
2341,0,0.0,0.54,,,,,,,,,,,,,,,,,,
2343,0,0.01,0.54,,-0.04,0.09,1.0,-0,1,-1,0.1,8,1980,0,0.0,0.0,0.0,0.0,0,0,0.0
2345,0,0.0,0.55,,,,,,,,,,,,,,,,,,
2347,0,0.0,0.54,,,,,,,,,,,,,,,,,,
2349,0,0.0,0.54,,,,,,,,,,,,,,,,,,
2351,0,0.0,0.54,,,,,,,,,,,,,,,,,,
2353,0,0.0,0.54,,-0.24,0.09,0.93,-0,1,-1,0.26,,,,,,,,,,
2355,0,0.0,0.54,,,,,,,,,,,,,,,,,,
2357,0,0.0,0.54,,,,,,,,,,,,,,,,,,
2359,0,0.0,0.54,,,,,,,,,,,,,,,,,,
2361,0,0.0,0.54,,,,,,,,,,,,,,,,,,
2363,0,0.0,0.54,,-0.09,0.04,1.02,1,1,-1,0.1,8,1920,0,0.0,0.0,0.0,0.0,0,0,0.0
2365,0,0.0,0.54,,,,,,,,,,,,,,,,,,
2367,0,0.0,0.54,,,,,,,,,,,,,,,,,,
2369,0,0.0,0.54,,,,,,,,,,,,,,,,,,
2371,0,0.0,0.54,,,,,,,,,,,,,,,,,,
2373,0,0.0,0.54,,-0.04,0.05,0.99,-0,1,-1,0.07,,,,,,,,,,
2375,0,0.0,0.55,,,,,,,,,,,,,,,,,,
2377,0,0.0,0.53,,,,,,,,,,,,,,,,,,
2379,0,0.0,0.53,,,,,,,,,,,,,,,,,,
2381,0,0.0,0.54,,,,,,,,,,,,,,,,,,
2383,0,0.0,0.53,,-0.22,0.12,0.94,0,1,-1,0.25,8,1980,0,0.0,0.0,0.0,0.0,0,0,0.0
2385,0,0.0,0.53,,,,,,,,,,,,,,,,,,
2387,0,0.0,0.53,,,,,,,,,,,,,,,,,,
2389,0,0.0,0.54,,,,,,,,,,,,,,,,,,
2391,0,0.0,0.53,,,,,,,,,,,,,,,,,,
2393,0,0.0,0.53,,-0.15,0.05,0.98,1,0,-1,0.16,,,,,,,,,,
2395,0,0.0,0.53,,,,,,,,,,,,,,,,,,
2397,0,0.0,0.54,,,,,,,,,,,,,,,,,,
2399,0,0.01,0.54,,,,,,,,,,,,,,,,,,
2401,0,0.0,0.54,,,,,,,,,,,,,,,,,,
2403,0,0.0,0.53,,-0.06,0.08,1.0,0,0,-1,0.1,8,1980,0,0.0,0.0,0.0,0.0,0,0,0.0
2405,0,0.0,0.54,,,,,,,,,,,,,,,,,,
2407,0,0.0,0.54,,,,,,,,,,,,,,,,,,
2409,0,0.0,0.53,,,,,,,,,,,,,,,,,,
2411,0,0.0,0.53,,,,,,,,,,,,,,,,,,
2413,0,0.0,0.53,,-0.21,0.09,0.9,1,0,-1,0.23,,,,,,,,,,
2415,0,0.0,0.53,,,,,,,,,,,,,,,,,,
2417,0,0.0,0.53,,,,,,,,,,,,,,,,,,
2419,0,0.0,0.53,,,,,,,,,,,,,,,,,,
2421,0,0.0,0.53,,,,,,,,,,,,,,,,,,
2423,0,0.0,0.53,,-0.09,0.04,1.01,1,0,-1,0.1,8,1920,0,0.0,0.0,0.0,0.0,0,0,0.0
2425,0,0.0,0.53,,,,,,,,,,,,,,,,,,
2427,0,0.0,0.53,,,,,,,,,,,,,,,,,,
2429,0,0.0,0.53,,,,,,,,,,,,,,,,,,
2431,0,0.0,0.53,,,,,,,,,,,,,,,,,,
2433,0,0.0,0.54,,-0.03,0.05,0.96,0,-0,-0,0.06,,,,,,,,,,
2435,0,0.0,0.55,,,,,,,,,,,,,,,,,,
2437,0,0.0,0.54,,,,,,,,,,,,,,,,,,
2439,0,0.0,0.54,,,,,,,,,,,,,,,,,,
2441,0,0.0,0.54,,,,,,,,,,,,,,,,,,
2443,0,0.0,0.54,,-0.21,0.13,0.91,1,0,-1,0.25,8,1980,0,0.0,0.0,0.0,0.0,0,0,0.0
2445,0,0.0,0.54,,,,,,,,,,,,,,,,,,
2447,0,0.0,0.54,,,,,,,,,,,,,,,,,,
2449,0,0.0,0.54,,,,,,,,,,,,,,,,,,
2451,0,0.0,0.54,,,,,,,,,,,,,,,,,,
2453,0,0.0,0.54,,-0.16,0.06,0.98,1,-1,-0,0.17,,,,,,,,,,
2455,0,0.0,0.54,,,,,,,,,,,,,,,,,,
2457,0,0.0,0.54,,,,,,,,,,,,,,,,,,
2459,0,0.0,0.54,,,,,,,,,,,,,,,,,,
2461,0,0.0,0.55,,,,,,,,,,,,,,,,,,
2463,0,0.0,0.55,,-0.05,0.06,1.0,0,-1,-0,0.08,8,1980,0,0.0,0.0,0.0,0.0,0,0,0.0
2465,0,0.0,0.56,,,,,,,,,,,,,,,,,,
2467,0,0.0,0.55,,,,,,,,,,,,,,,,,,
2469,0,0.0,0.55,,,,,,,,,,,,,,,,,,
2471,0,0.0,0.55,,,,,,,,,,,,,,,,,,
2473,0,0.0,0.54,,-0.19,0.1,0.89,0,-1,-1,0.22,,,,,,,,,,
2475,0,0.0,0.54,,,,,,,,,,,,,,,,,,
2477,0,0.0,0.55,,,,,,,,,,,,,,,,,,
2479,0,0.0,0.55,,,,,,,,,,,,,,,,,,
2481,0,0.01,0.55,,,,,,,,,,,,,,,,,,
2483,0,0.0,0.55,,-0.05,0.07,1.01,1,-1,-1,0.09,8,1980,0,0.0,0.0,0.0,0.0,0,0,0.0
2485,0,0.0,0.55,,,,,,,,,,,,,,,,,,
2487,0,0.0,0.55,,,,,,,,,,,,,,,,,,
2489,0,0.0,0.55,,,,,,,,,,,,,,,,,,
2491,0,0.0,0.55,,,,,,,,,,,,,,,,,,
2493,0,0.0,0.55,,0.02,0.04,0.96,0,-1,-0,0.05,,,,,,,,,,
2495,0,0.01,0.56,,,,,,,,,,,,,,,,,,
2497,0,0.0,0.55,,,,,,,,,,,,,,,,,,
2499,0,0.0,0.55,,,,,,,,,,,,,,,,,,
2501,0,0.0,0.55,,,,,,,,,,,,,,,,,,
2503,0,0.0,0.55,,-0.18,0.12,0.92,0,-1,-1,0.21,8,1980,0,0.0,0.0,0.0,0.0,0,0,0.0
2505,0,0.0,0.55,,,,,,,,,,,,,,,,,,
2507,0,0.0,0.55,,,,,,,,,,,,,,,,,,
2509,0,0.01,0.55,,,,,,,,,,,,,,,,,,
2511,0,0.0,0.55,,,,,,,,,,,,,,,,,,
2513,0,0.0,0.56,,-0.12,0.06,1.0,1,-1,-1,0.13,,,,,,,,,,
2515,0,0.0,0.55,,,,,,,,,,,,,,,,,,
2517,0,0.0,0.55,,,,,,,,,,,,,,,,,,
2519,0,0.0,0.55,,,,,,,,,,,,,,,,,,
2521,0,0.0,0.55,,,,,,,,,,,,,,,,,,
2523,0,0.01,0.56,,-0.06,0.05,1.04,-0,-1,-0,0.08,8,1980,0,0.0,0.0,0.0,0.0,0,0,0.0
2525,0,0.0,0.57,,,,,,,,,,,,,,,,,,
2527,0,0.0,0.56,,,,,,,,,,,,,,,,,,
2529,0,0.0,0.56,,,,,,,,,,,,,,,,,,
2531,0,0.0,0.55,,,,,,,,,,,,,,,,,,
2533,0,0.0,0.56,,-0.26,0.09,0.95,-0,-0,-1,0.27,,,,,,,,,,
2535,0,0.0,0.56,,,,,,,,,,,,,,,,,,
2537,0,0.01,0.55,,,,,,,,,,,,,,,,,,
2539,0,0.0,0.55,,,,,,,,,,,,,,,,,,
2541,0,0.0,0.56,,,,,,,,,,,,,,,,,,
2543,0,0.0,0.56,,-0.09,0.04,1.0,0,0,-0,0.09,8,1980,0,0.0,0.0,0.0,0.0,0,0,0.0
2545,0,0.0,0.56,,,,,,,,,,,,,,,,,,
2547,0,0.0,0.56,,,,,,,,,,,,,,,,,,
2549,0,0.0,0.56,,,,,,,,,,,,,,,,,,
2551,0,0.0,0.56,,,,,,,,,,,,,,,,,,
2553,0,0.0,0.56,,-0.04,0.05,0.96,-0,0,-0,0.06,,,,,,,,,,
2555,0,0.0,0.57,,,,,,,,,,,,,,,,,,
2557,0,0.0,0.56,,,,,,,,,,,,,,,,,,
2559,0,0.0,0.56,,,,,,,,,,,,,,,,,,
2561,0,0.0,0.56,,,,,,,,,,,,,,,,,,
2563,0,0.0,0.56,,-0.22,0.11,0.87,-0,0,-0,0.24,8,1980,0,0.0,0.0,0.0,0.0,0,0,0.0
2565,0,0.0,0.56,,,,,,,,,,,,,,,,,,
2567,0,0.0,0.56,,,,,,,,,,,,,,,,,,
2569,0,0.0,0.56,,,,,,,,,,,,,,,,,,
2571,0,0.01,0.56,,,,,,,,,,,,,,,,,,
2573,0,0.0,0.56,,-0.1,0.06,0.93,0,0,-0,0.12,,,,,,,,,,
2575,0,0.0,0.56,,,,,,,,,,,,,,,,,,
2577,0,0.0,0.55,,,,,,,,,,,,,,,,,,
2579,0,0.0,0.55,,,,,,,,,,,,,,,,,,
2581,0,0.0,0.55,,,,,,,,,,,,,,,,,,
2583,0,0.0,0.55,,-0.04,0.08,0.95,-0,0,-0,0.09,8,1980,0,0.0,0.0,0.0,0.0,0,0,0.0
2585,0,0.0,0.57,,,,,,,,,,,,,,,,,,
2587,0,0.0,0.55,,,,,,,,,,,,,,,,,,
2589,0,0.0,0.55,,,,,,,,,,,,,,,,,,
2591,0,0.0,0.55,,,,,,,,,,,,,,,,,,
2593,0,0.0,0.55,,-0.24,0.11,0.91,-0,0,-1,0.26,,,,,,,,,,
2595,0,0.0,0.55,,,,,,,,,,,,,,,,,,
2597,0,0.0,0.55,,,,,,,,,,,,,,,,,,
2599,0,0.01,0.55,,,,,,,,,,,,,,,,,,
2601,0,0.0,0.55,,,,,,,,,,,,,,,,,,
2603,0,0.0,0.55,,-0.06,0.05,1.02,0,0,-1,0.08,8,1980,0,0.0,0.0,0.0,0.0,0,0,0.0
2605,0,0.0,0.55,,,,,,,,,,,,,,,,,,
2607,0,0.0,0.55,,,,,,,,,,,,,,,,,,
2609,0,0.0,0.55,,,,,,,,,,,,,,,,,,
2611,0,0.0,0.55,,,,,,,,,,,,,,,,,,
2613,0,0.0,0.55,,-0.05,0.05,1.01,-0,1,-0,0.07,,,,,,,,,,
2615,0,0.0,0.56,,,,,,,,,,,,,,,,,,
2617,0,0.0,0.55,,,,,,,,,,,,,,,,,,
2619,0,0.0,0.55,,,,,,,,,,,,,,,,,,
2621,0,0.0,0.54,,,,,,,,,,,,,,,,,,
2623,0,0.0,0.55,,-0.24,0.13,0.96,0,1,-1,0.28,8,1980,0,0.0,0.0,0.0,0.0,0,0,0.0
2625,0,0.0,0.54,,,,,,,,,,,,,,,,,,
2627,0,0.0,0.54,,,,,,,,,,,,,,,,,,
2629,0,0.0,0.54,,,,,,,,,,,,,,,,,,
2631,0,0.0,0.54,,,,,,,,,,,,,,,,,,
2633,0,0.01,0.55,,-0.14,0.03,0.98,1,1,-1,0.15,,,,,,,,,,
2635,0,0.0,0.55,,,,,,,,,,,,,,,,,,
2637,0,0.0,0.55,,,,,,,,,,,,,,,,,,
2639,0,0.0,0.55,,,,,,,,,,,,,,,,,,
2641,0,0.0,0.55,,,,,,,,,,,,,,,,,,
2643,0,0.0,0.55,,-0.09,0.09,1.02,0,1,-1,0.13,8,1980,0,0.0,0.0,0.0,0.0,0,0,0.0
2645,0,0.0,0.57,,,,,,,,,,,,,,,,,,
2647,0,0.0,0.56,,,,,,,,,,,,,,,,,,
2649,0,0.0,0.56,,,,,,,,,,,,,,,,,,
2651,0,0.0,0.56,,,,,,,,,,,,,,,,,,
2653,0,0.0,0.55,,-0.29,0.1,0.9,1,1,-1,0.31,,,,,,,,,,
2655,0,0.0,0.56,,,,,,,,,,,,,,,,,,
2657,0,0.0,0.56,,,,,,,,,,,,,,,,,,
2659,0,0.0,0.56,,,,,,,,,,,,,,,,,,
2661,0,0.01,0.56,,,,,,,,,,,,,,,,,,
2663,0,0.0,0.56,,-0.13,0.04,0.99,1,1,-1,0.14,8,1920,0,0.0,0.0,0.0,0.0,0,0,0.0
2665,0,0.0,0.56,,,,,,,,,,,,,,,,,,
2667,0,0.0,0.56,,,,,,,,,,,,,,,,,,
2669,0,0.0,0.56,,,,,,,,,,,,,,,,,,
2671,0,0.0,0.56,,,,,,,,,,,,,,,,,,
2673,0,0.0,0.56,,-0.08,0.05,0.92,1,1,-1,0.09,,,,,,,,,,
2675,0,0.01,0.57,,,,,,,,,,,,,,,,,,
2677,0,0.0,0.56,,,,,,,,,,,,,,,,,,
2679,0,0.0,0.56,,,,,,,,,,,,,,,,,,
2681,0,0.0,0.56,,,,,,,,,,,,,,,,,,
2683,0,0.0,0.56,,-0.24,0.15,0.86,1,0,-1,0.29,8,1980,0,0.0,0.0,0.0,0.0,0,0,0.0
2685,0,0.0,0.56,,,,,,,,,,,,,,,,,,
2687,0,0.0,0.56,,,,,,,,,,,,,,,,,,
2689,0,0.0,0.56,,,,,,,,,,,,,,,,,,
2691,0,0.0,0.56,,,,,,,,,,,,,,,,,,
2693,0,0.0,0.57,,-0.16,0.09,0.93,1,-0,-1,0.19,,,,,,,,,,
2695,0,0.0,0.57,,,,,,,,,,,,,,,,,,
2697,0,0.0,0.57,,,,,,,,,,,,,,,,,,
2699,0,0.0,0.57,,,,,,,,,,,,,,,,,,
2701,0,0.0,0.56,,,,,,,,,,,,,,,,,,
2703,0,0.0,0.56,,-0.09,0.06,0.98,0,-1,-1,0.11,8,1980,0,0.0,0.0,0.0,0.0,0,0,0.0
2705,0,0.0,0.57,,,,,,,,,,,,,,,,,,
2707,0,0.0,0.57,,,,,,,,,,,,,,,,,,
2709,0,0.0,0.57,,,,,,,,,,,,,,,,,,
2711,0,0.0,0.57,,,,,,,,,,,,,,,,,,
2713,0,0.0,0.57,,-0.24,0.1,0.9,0,-1,-1,0.26,,,,,,,,,,
2715,0,0.0,0.57,,,,,,,,,,,,,,,,,,
2717,0,0.0,0.57,,,,,,,,,,,,,,,,,,
2719,0,0.0,0.57,,,,,,,,,,,,,,,,,,
2721,0,0.0,0.57,,,,,,,,,,,,,,,,,,
2723,0,0.0,0.57,,-0.07,0.07,1.02,1,-1,-1,0.1,8,1920,0,0.0,0.0,0.0,0.0,0,0,0.0
2725,0,0.0,0.57,,,,,,,,,,,,,,,,,,
2727,0,0.0,0.57,,,,,,,,,,,,,,,,,,
2729,0,0.0,0.57,,,,,,,,,,,,,,,,,,
2731,0,0.0,0.57,,,,,,,,,,,,,,,,,,
2733,0,0.0,0.57,,-0.01,0.04,0.98,-0,-1,-1,0.04,,,,,,,,,,
2735,0,0.0,0.58,,,,,,,,,,,,,,,,,,
2737,0,0.0,0.57,,,,,,,,,,,,,,,,,,
2739,0,0.0,0.57,,,,,,,,,,,,,,,,,,
2741,0,0.0,0.56,,,,,,,,,,,,,,,,,,
2743,0,0.0,0.56,,-0.17,0.11,0.94,0,-1,-1,0.2,12,1980,0,0.0,0.0,0.0,0.0,0,0,0.0
2745,0,0.0,0.56,,,,,,,,,,,,,,,,,,
2747,0,0.0,0.56,,,,,,,,,,,,,,,,,,
2749,0,0.0,0.56,,,,,,,,,,,,,,,,,,
2751,0,0.0,0.56,,,,,,,,,,,,,,,,,,
2753,0,0.0,0.56,,-0.12,0.05,1.03,0,-1,-0,0.13,,,,,,,,,,
2755,0,0.0,0.56,,,,,,,,,,,,,,,,,,
2757,0,0.0,0.56,,,,,,,,,,,,,,,,,,
2759,0,0.0,0.56,,,,,,,,,,,,,,,,,,
2761,0,0.0,0.56,,,,,,,,,,,,,,,,,,
2763,0,0.0,0.56,,-0.08,0.05,1.08,-0,-1,-0,0.09,12,1980,0,0.0,0.0,0.0,0.0,0,0,0.0
2765,0,0.0,0.56,,,,,,,,,,,,,,,,,,
2767,0,0.0,0.56,,,,,,,,,,,,,,,,,,
2769,0,0.0,0.56,,,,,,,,,,,,,,,,,,
2771,0,0.0,0.55,,,,,,,,,,,,,,,,,,
2773,0,0.0,0.56,,-0.21,0.09,0.96,-0,-0,-1,0.23,,,,,,,,,,
2775,0,0.0,0.56,,,,,,,,,,,,,,,,,,
2777,0,0.0,0.55,,,,,,,,,,,,,,,,,,
2779,0,0.0,0.55,,,,,,,,,,,,,,,,,,
2781,0,0.0,0.55,,,,,,,,,,,,,,,,,,
2783,0,0.0,0.55,,-0.07,0.04,1.04,1,0,-1,0.08,12,1920,0,0.0,0.0,0.0,0.0,0,0,0.0
2785,0,0.0,0.55,,,,,,,,,,,,,,,,,,
2787,0,0.0,0.55,,,,,,,,,,,,,,,,,,
2789,0,0.0,0.56,,,,,,,,,,,,,,,,,,
2791,0,0.0,0.55,,,,,,,,,,,,,,,,,,
2793,0,0.0,0.55,,-0.02,0.05,0.95,-0,0,-0,0.05,,,,,,,,,,
2795,0,0.0,0.56,,,,,,,,,,,,,,,,,,
2797,0,0.0,0.56,,,,,,,,,,,,,,,,,,
2799,0,0.0,0.56,,,,,,,,,,,,,,,,,,
2801,0,0.0,0.56,,,,,,,,,,,,,,,,,,
2803,0,0.0,0.56,,-0.19,0.11,0.87,0,1,-1,0.21,12,1980,0,0.0,0.0,0.0,0.0,0,0,0.0
2805,0,0.0,0.56,,,,,,,,,,,,,,,,,,
2807,0,0.0,0.56,,,,,,,,,,,,,,,,,,
2809,0,0.0,0.56,,,,,,,,,,,,,,,,,,
2811,0,0.0,0.56,,,,,,,,,,,,,,,,,,
2813,0,0.0,0.56,,-0.13,0.02,0.94,1,-0,-0,0.13,,,,,,,,,,
2815,0,0.0,0.57,,,,,,,,,,,,,,,,,,
2817,0,0.0,0.57,,,,,,,,,,,,,,,,,,
2819,0,0.0,0.57,,,,,,,,,,,,,,,,,,
2821,0,0.0,0.57,,,,,,,,,,,,,,,,,,
2823,0,0.0,0.57,,-0.03,0.02,0.95,0,-1,-0,0.03,12,1980,0,0.0,0.0,0.0,0.0,0,0,0.0
2825,0,0.0,0.57,,,,,,,,,,,,,,,,,,
2827,0,0.0,0.57,,,,,,,,,,,,,,,,,,
2829,0,0.0,0.57,,,,,,,,,,,,,,,,,,
2831,0,0.0,0.57,,,,,,,,,,,,,,,,,,
2833,0,0.0,0.57,,-0.17,0.06,0.88,1,-1,-0,0.18,,,,,,,,,,
2835,0,0.0,0.57,,,,,,,,,,,,,,,,,,
2837,0,0.0,0.57,,,,,,,,,,,,,,,,,,
2839,0,0.0,0.57,,,,,,,,,,,,,,,,,,
2841,0,0.0,0.57,,,,,,,,,,,,,,,,,,
2843,0,0.0,0.57,,-0.07,0.06,1.03,1,-1,0,0.09,12,1920,0,0.0,0.0,0.0,0.0,0,0,0.0
2845,0,0.0,0.57,,,,,,,,,,,,,,,,,,
2847,0,0.0,0.57,,,,,,,,,,,,,,,,,,
2849,0,0.0,0.57,,,,,,,,,,,,,,,,,,
2851,0,0.0,0.57,,,,,,,,,,,,,,,,,,
2853,0,0.0,0.57,,-0.02,0.03,0.98,1,-1,0,0.04,,,,,,,,,,
2855,0,0.0,0.58,,,,,,,,,,,,,,,,,,
2857,0,0.0,0.57,,,,,,,,,,,,,,,,,,
2859,0,0.0,0.57,,,,,,,,,,,,,,,,,,
2861,0,0.01,0.57,,,,,,,,,,,,,,,,,,
2863,0,0.0,0.57,,-0.18,0.12,0.93,1,-1,-0,0.22,12,1980,0,0.0,0.0,0.0,0.0,0,0,0.0
2865,0,0.0,0.58,,,,,,,,,,,,,,,,,,
2867,0,0.0,0.57,,,,,,,,,,,,,,,,,,
2869,0,0.0,0.57,,,,,,,,,,,,,,,,,,
2871,0,0.0,0.57,,,,,,,,,,,,,,,,,,
2873,0,0.0,0.57,,-0.09,0.08,1.0,1,-2,-0,0.12,,,,,,,,,,
2875,0,0.0,0.58,,,,,,,,,,,,,,,,,,
2877,0,0.0,0.58,,,,,,,,,,,,,,,,,,
2879,0,0.0,0.58,,,,,,,,,,,,,,,,,,
2881,0,0.0,0.58,,,,,,,,,,,,,,,,,,
2883,0,0.0,0.58,,0.04,0.05,0.97,1,-2,-0,0.06,12,1980,0,0.0,0.0,0.0,0.0,0,0,0.0
2885,0,0.0,0.58,,,,,,,,,,,,,,,,,,
2887,0,0.0,0.59,,,,,,,,,,,,,,,,,,
2889,0,0.01,0.57,,,,,,,,,,,,,,,,,,
2891,0,0.0,0.57,,,,,,,,,,,,,,,,,,
2893,0,0.0,0.57,,-0.07,0.08,0.9,1,-2,-0,0.1,,,,,,,,,,
2895,0,0.0,0.57,,,,,,,,,,,,,,,,,,
2897,0,0.0,0.57,,,,,,,,,,,,,,,,,,
2899,0,0.0,0.57,,,,,,,,,,,,,,,,,,
2901,0,0.0,0.57,,,,,,,,,,,,,,,,,,
2903,0,0.0,0.57,,0.04,0.07,1.04,1,-2,0,0.08,15,1980,0,0.0,0.0,0.0,0.0,0,0,0.0
2905,0,0.0,0.57,,,,,,,,,,,,,,,,,,
2907,0,0.0,0.57,,,,,,,,,,,,,,,,,,
2909,0,0.01,0.57,,,,,,,,,,,,,,,,,,
2911,0,0.0,0.57,,,,,,,,,,,,,,,,,,
2913,0,0.0,0.57,,0.12,0.05,1.0,1,-1,0,0.13,,,,,,,,,,
2915,0,0.0,0.58,,,,,,,,,,,,,,,,,,
2917,0,0.0,0.57,,,,,,,,,,,,,,,,,,
2919,0,0.0,0.56,,,,,,,,,,,,,,,,,,
2921,0,0.0,0.56,,,,,,,,,,,,,,,,,,
2923,0,0.0,0.57,,-0.08,0.15,0.99,1,-1,0,0.17,15,1980,0,0.0,0.0,0.0,0.0,0,0,0.0
2925,0,0.0,0.56,,,,,,,,,,,,,,,,,,
2927,0,0.0,0.57,,,,,,,,,,,,,,,,,,
2929,0,0.0,0.56,,,,,,,,,,,,,,,,,,
2931,0,0.0,0.56,,,,,,,,,,,,,,,,,,
2933,0,0.0,0.57,,-0.08,0.08,1.09,1,-0,0,0.11,,,,,,,,,,
2935,0,0.0,0.57,,,,,,,,,,,,,,,,,,
2937,0,0.01,0.57,,,,,,,,,,,,,,,,,,
2939,0,0.0,0.57,,,,,,,,,,,,,,,,,,
2941,0,0.0,0.58,,,,,,,,,,,,,,,,,,
2943,0,0.0,0.57,,-0.01,0.06,1.08,0,-0,0,0.06,15,1980,0,0.0,0.0,0.0,0.0,0,0,0.0
2945,0,0.0,0.57,,,,,,,,,,,,,,,,,,
2947,0,0.0,0.58,,,,,,,,,,,,,,,,,,
2949,0,0.0,0.57,,,,,,,,,,,,,,,,,,
2951,0,0.0,0.57,,,,,,,,,,,,,,,,,,
2953,0,0.0,0.57,,-0.16,0.1,0.97,0,0,-0,0.18,,,,,,,,,,
2955,0,0.0,0.57,,,,,,,,,,,,,,,,,,
2957,0,0.0,0.58,,,,,,,,,,,,,,,,,,
2959,0,0.0,0.58,,,,,,,,,,,,,,,,,,
2961,0,0.0,0.58,,,,,,,,,,,,,,,,,,
2963,0,0.0,0.58,,-0.03,0.09,1.02,1,1,-0,0.09,15,1980,0,0.0,0.0,0.0,0.0,0,0,0.0
2965,0,0.0,0.58,,,,,,,,,,,,,,,,,,
2967,0,0.0,0.58,,,,,,,,,,,,,,,,,,
2969,0,0.0,0.58,,,,,,,,,,,,,,,,,,
2971,0,0.0,0.58,,,,,,,,,,,,,,,,,,
2973,0,0.0,0.58,,0.05,0.05,0.91,0,1,-0,0.07,,,,,,,,,,
2975,0,0.0,0.59,,,,,,,,,,,,,,,,,,
2977,0,0.0,0.58,,,,,,,,,,,,,,,,,,
2979,0,0.0,0.58,,,,,,,,,,,,,,,,,,
2981,0,0.0,0.58,,,,,,,,,,,,,,,,,,
2983,0,0.0,0.58,,-0.15,0.12,0.87,0,0,-1,0.19,15,1980,0,0.0,0.0,0.0,0.0,0,0,0.0
2985,0,0.0,0.58,,,,,,,,,,,,,,,,,,
2987,0,0.0,0.58,,,,,,,,,,,,,,,,,,
2989,0,0.0,0.58,,,,,,,,,,,,,,,,,,
2991,0,0.0,0.58,,,,,,,,,,,,,,,,,,
2993,0,0.0,0.58,,-0.06,0.07,0.92,1,-0,-0,0.09,,,,,,,,,,
2995,0,0.0,0.58,,,,,,,,,,,,,,,,,,
2997,0,0.0,0.58,,,,,,,,,,,,,,,,,,
2999,0,0.0,0.58,,,,,,,,,,,,,,,,,,
3001,0,0.0,0.58,,,,,,,,,,,,,,,,,,
3003,0,0.0,0.58,,0.04,0.04,0.97,-0,-1,-0,0.06,15,1980,0,0.0,0.0,0.0,0.0,0,0,0.0
3005,0,0.0,0.59,,,,,,,,,,,,,,,,,,
3007,0,0.0,0.59,,,,,,,,,,,,,,,,,,
3009,0,0.0,0.59,,,,,,,,,,,,,,,,,,
3011,0,0.0,0.58,,,,,,,,,,,,,,,,,,
3013,0,0.0,0.58,,-0.15,0.09,0.92,-0,-1,-1,0.18,,,,,,,,,,
3015,0,0.0,0.59,,,,,,,,,,,,,,,,,,
3017,0,0.0,0.59,,,,,,,,,,,,,,,,,,
3019,0,0.0,0.59,,,,,,,,,,,,,,,,,,
3021,0,0.0,0.59,,,,,,,,,,,,,,,,,,
3023,0,0.0,0.59,,-0.0,0.08,1.05,1,-1,-0,0.08,15,1980,0,0.0,0.0,0.0,0.0,0,0,0.0
3025,0,0.0,0.59,,,,,,,,,,,,,,,,,,
3027,0,0.0,0.59,,,,,,,,,,,,,,,,,,
3029,0,0.0,0.58,,,,,,,,,,,,,,,,,,
3031,0,0.0,0.58,,,,,,,,,,,,,,,,,,
3033,0,0.0,0.58,,0.08,0.04,1.0,-0,-1,-0,0.09,,,,,,,,,,
3035,0,0.0,0.59,,,,,,,,,,,,,,,,,,
3037,0,0.0,0.58,,,,,,,,,,,,,,,,,,
3039,0,0.0,0.58,,,,,,,,,,,,,,,,,,
3041,0,0.0,0.58,,,,,,,,,,,,,,,,,,
3043,0,0.0,0.58,13.42,-0.16,0.12,0.99,0,-0,-0,0.2,18,1980,0,0.0,0.0,0.0,0.0,0,0,0.0
3045,0,0.0,0.58,,,,,,,,,,,,,,,,,,
3047,0,0.0,0.58,,,,,,,,,,,,,,,,,,
3049,0,0.0,0.58,,,,,,,,,,,,,,,,,,
3051,0,0.0,0.58,,,,,,,,,,,,,,,,,,
3053,0,0.0,0.57,,-0.06,0.04,1.02,1,-0,0,0.07,,,,,,,,,,
3055,0,0.0,0.57,,,,,,,,,,,,,,,,,,
3057,0,0.0,0.57,,,,,,,,,,,,,,,,,,
3059,0,0.0,0.58,,,,,,,,,,,,,,,,,,
3061,0,0.0,0.58,,,,,,,,,,,,,,,,,,
3063,0,0.0,0.58,,0.02,0.06,1.03,-0,0,0,0.06,18,1980,0,0.0,0.0,0.0,0.0,0,0,0.0
3065,0,0.0,0.59,,,,,,,,,,,,,,,,,,
3067,0,0.0,0.57,,,,,,,,,,,,,,,,,,
3069,0,0.0,0.57,,,,,,,,,,,,,,,,,,
3071,0,0.0,0.57,,,,,,,,,,,,,,,,,,
3073,0,0.0,0.57,,-0.22,0.09,0.95,0,1,-0,0.23,,,,,,,,,,
3075,0,0.0,0.57,,,,,,,,,,,,,,,,,,
3077,0,0.0,0.57,,,,,,,,,,,,,,,,,,
3079,0,0.0,0.57,,,,,,,,,,,,,,,,,,
3081,0,0.0,0.57,,,,,,,,,,,,,,,,,,
3083,0,0.0,0.57,,-0.05,0.04,1.01,1,1,-0,0.06,18,1980,0,0.0,0.0,0.0,0.0,0,0,0.0
3085,0,0.0,0.57,,,,,,,,,,,,,,,,,,
3087,0,0.0,0.58,,,,,,,,,,,,,,,,,,
3089,0,0.01,0.58,,,,,,,,,,,,,,,,,,
3091,0,0.0,0.58,,,,,,,,,,,,,,,,,,
3093,0,0.0,0.58,,0.02,0.06,0.93,0,1,-0,0.07,,,,,,,,,,
3095,0,0.0,0.59,,,,,,,,,,,,,,,,,,
3097,0,0.0,0.58,,,,,,,,,,,,,,,,,,
3099,0,0.0,0.58,,,,,,,,,,,,,,,,,,
3101,0,0.0,0.58,,,,,,,,,,,,,,,,,,
3103,0,0.0,0.58,,-0.21,0.14,0.88,0,1,-1,0.25,18,1980,0,0.0,0.0,0.0,0.0,0,0,0.0
3105,0,0.0,0.58,,,,,,,,,,,,,,,,,,
3107,0,0.0,0.58,,,,,,,,,,,,,,,,,,
3109,0,0.0,0.59,,,,,,,,,,,,,,,,,,
3111,0,0.0,0.58,,,,,,,,,,,,,,,,,,
3113,0,0.0,0.59,,-0.1,0.04,0.91,1,0,-1,0.11,,,,,,,,,,
3115,0,0.0,0.58,,,,,,,,,,,,,,,,,,
3117,0,0.0,0.58,,,,,,,,,,,,,,,,,,
3119,0,0.0,0.59,,,,,,,,,,,,,,,,,,
3121,0,0.0,0.59,,,,,,,,,,,,,,,,,,
3123,0,0.0,0.59,,0.01,0.02,0.94,0,-0,-0,0.02,18,1980,0,0.0,0.0,0.0,0.0,0,0,0.0
3125,0,0.0,0.6,,,,,,,,,,,,,,,,,,
