"Interval"|"ms"|0|0|1,"Utc"|"ms"|0|0|1,"Analog4"|"Volts"|0.0|5.0|500,"Analog5"|"Volts"|0.0|5.0|500,"Battery"|"Volts"|0.0|20.0|1,"AccelX"|"G"|-3.0|3.0|200,"AccelY"|"G"|-3.0|3.0|200,"AccelZ"|"G"|-3.0|3.0|200,"Yaw"|"Deg/Sec"|-120|120|200,"Pitch"|"Deg/Sec"|-120|120|200,"Roll"|"Deg/Sec"|-120|120|200,"Gsum"|"G"|0.0|3.0|200,"RPM2"|"rpm"|0|8000|50,"RPM3"|"rpm"|0|8000|50,"GPIO1"|""|0.0|1.0|50,"Latitude"|"Degrees"|-180.0|180.0|50,"Longitude"|"Degrees"|-180.0|180.0|50,"Speed"|"mph"|0.0|150.0|50,"Altitude"|"ft"|0.0|4000.0|50,"GPSSats"|""|0|20|50,"GPSQual"|""|0|5|50,"GPSDOP"|""|0.0|20.0|50
149,0,0.0,0.3,,,,,,,,,,,,,,,,,,
151,0,0.0,0.3,,,,,,,,,,,,,,,,,,
153,0,0.0,0.3,,-0.06,0.05,1.08,0,-1,-0,0.08,,,,,,,,,,
155,0,0.0,0.3,,,,,,,,,,,,,,,,,,
157,0,0.0,0.3,,,,,,,,,,,,,,,,,,
159,0,0.0,0.3,,,,,,,,,,,,,,,,,,
161,0,0.0,0.3,,,,,,,,,,,,,,,,,,
163,0,0.0,0.3,,-0.01,0.08,0.98,-0,-0,-0,0.08,0,1920,0,0.0,0.0,0.0,0.0,0,0,0.0
165,0,0.0,0.31,,,,,,,,,,,,,,,,,,
167,0,0.0,0.3,,,,,,,,,,,,,,,,,,
169,0,0.0,0.3,,,,,,,,,,,,,,,,,,
171,0,0.0,0.3,,,,,,,,,,,,,,,,,,
173,0,0.0,0.3,,-0.13,0.1,0.94,0,-0,-1,0.16,,,,,,,,,,
175,0,0.0,0.3,,,,,,,,,,,,,,,,,,
177,0,0.0,0.3,,,,,,,,,,,,,,,,,,
179,0,0.0,0.3,,,,,,,,,,,,,,,,,,
181,0,0.0,0.31,,,,,,,,,,,,,,,,,,
183,0,0.0,0.31,,-0.1,0.08,1.02,0,-0,-0,0.13,0,1980,0,0.0,0.0,0.0,0.0,0,0,0.0
185,0,0.0,0.3,,,,,,,,,,,,,,,,,,
187,0,0.0,0.3,,,,,,,,,,,,,,,,,,
189,0,0.0,0.3,,,,,,,,,,,,,,,,,,
191,0,0.0,0.31,,,,,,,,,,,,,,,,,,
193,0,0.0,0.3,,-0.02,0.1,1.03,-0,0,-0,0.1,,,,,,,,,,
195,0,0.0,0.31,,,,,,,,,,,,,,,,,,
197,0,0.0,0.31,,,,,,,,,,,,,,,,,,
199,0,0.0,0.31,,,,,,,,,,,,,,,,,,
201,0,0.0,0.31,,,,,,,,,,,,,,,,,,
203,0,0.0,0.31,,-0.12,0.07,0.93,0,-1,-1,0.14,0,1920,0,0.0,0.0,0.0,0.0,0,0,0.0
205,0,0.0,0.31,,,,,,,,,,,,,,,,,,
207,0,0.0,0.31,,,,,,,,,,,,,,,,,,
209,0,0.0,0.31,,,,,,,,,,,,,,,,,,
211,0,0.01,0.31,,,,,,,,,,,,,,,,,,
213,0,0.0,0.31,,-0.06,0.06,1.05,0,-0,-0,0.09,,,,,,,,,,
215,0,0.0,0.31,,,,,,,,,,,,,,,,,,
217,0,0.0,0.31,,,,,,,,,,,,,,,,,,
219,0,0.0,0.31,,,,,,,,,,,,,,,,,,
221,0,0.0,0.31,,,,,,,,,,,,,,,,,,
223,0,0.0,0.31,,0.01,0.08,0.96,-0,-0,-0,0.08,0,1920,0,0.0,0.0,0.0,0.0,0,0,0.0
225,0,0.0,0.31,,,,,,,,,,,,,,,,,,
227,0,0.0,0.33,,,,,,,,,,,,,,,,,,
229,0,0.0,0.32,,,,,,,,,,,,,,,,,,
231,0,0.0,0.31,,,,,,,,,,,,,,,,,,
233,0,0.0,0.31,,-0.12,0.11,0.93,0,-0,-1,0.17,,,,,,,,,,
235,0,0.0,0.31,,,,,,,,,,,,,,,,,,
237,0,0.0,0.31,,,,,,,,,,,,,,,,,,
239,0,0.01,0.31,,,,,,,,,,,,,,,,,,
241,0,0.0,0.32,,,,,,,,,,,,,,,,,,
243,0,0.0,0.31,,-0.12,0.1,1.03,0,-0,-0,0.15,0,1980,0,0.0,0.0,0.0,0.0,0,0,0.0
245,0,0.0,0.31,,,,,,,,,,,,,,,,,,
247,0,0.0,0.32,,,,,,,,,,,,,,,,,,
249,0,0.0,0.31,,,,,,,,,,,,,,,,,,
251,0,0.0,0.32,,,,,,,,,,,,,,,,,,
253,0,0.0,0.32,,-0.01,0.07,0.99,-0,0,-0,0.07,,,,,,,,,,
255,0,0.0,0.32,,,,,,,,,,,,,,,,,,
257,0,0.0,0.33,,,,,,,,,,,,,,,,,,
259,0,0.0,0.32,,,,,,,,,,,,,,,,,,
261,0,0.0,0.32,,,,,,,,,,,,,,,,,,
263,0,0.0,0.32,,-0.1,0.08,0.93,0,-1,-1,0.13,0,1920,0,0.0,0.0,0.0,0.0,0,0,0.0
265,0,0.0,0.31,,,,,,,,,,,,,,,,,,
267,0,0.0,0.32,,,,,,,,,,,,,,,,,,
269,0,0.0,0.32,,,,,,,,,,,,,,,,,,
271,0,0.0,0.32,,,,,,,,,,,,,,,,,,
273,0,0.0,0.32,,-0.06,0.08,1.02,0,-0,-0,0.1,,,,,,,,,,
275,0,0.0,0.32,,,,,,,,,,,,,,,,,,
277,0,0.0,0.32,,,,,,,,,,,,,,,,,,
279,0,0.0,0.32,,,,,,,,,,,,,,,,,,
281,0,0.0,0.32,,,,,,,,,,,,,,,,,,
283,0,0.0,0.32,,0.03,0.07,0.98,-0,-0,-0,0.08,0,1920,0,0.0,0.0,0.0,0.0,0,0,0.0
285,0,0.0,0.32,,,,,,,,,,,,,,,,,,
287,0,0.0,0.33,,,,,,,,,,,,,,,,,,
289,0,0.0,0.32,,,,,,,,,,,,,,,,,,
291,0,0.0,0.32,,,,,,,,,,,,,,,,,,
293,0,0.0,0.32,,-0.12,0.1,0.95,0,0,-1,0.16,,,,,,,,,,
295,0,0.0,0.32,,,,,,,,,,,,,,,,,,
297,0,0.0,0.32,,,,,,,,,,,,,,,,,,
299,0,0.0,0.32,,,,,,,,,,,,,,,,,,
301,0,0.0,0.32,,,,,,,,,,,,,,,,,,
303,0,0.0,0.32,,-0.14,0.1,1.04,0,-0,-0,0.17,0,1980,0,0.0,0.0,0.0,0.0,0,0,0.0
305,0,0.0,0.32,,,,,,,,,,,,,,,,,,
307,0,0.0,0.32,,,,,,,,,,,,,,,,,,
309,0,0.0,0.32,,,,,,,,,,,,,,,,,,
311,0,0.0,0.32,,,,,,,,,,,,,,,,,,
313,0,0.0,0.33,,-0.0,0.06,0.97,-0,-0,-0,0.06,,,,,,,,,,
315,0,0.0,0.33,,,,,,,,,,,,,,,,,,
317,0,0.0,0.32,,,,,,,,,,,,,,,,,,
319,0,0.0,0.33,,,,,,,,,,,,,,,,,,
321,0,0.0,0.33,,,,,,,,,,,,,,,,,,
323,0,0.0,0.33,,-0.08,0.08,0.97,0,-1,-1,0.12,0,1920,0,0.0,0.0,0.0,0.0,0,0,0.0
325,0,0.0,0.33,,,,,,,,,,,,,,,,,,
327,0,0.0,0.33,,,,,,,,,,,,,,,,,,
329,0,0.0,0.33,,,,,,,,,,,,,,,,,,
331,0,0.0,0.33,,,,,,,,,,,,,,,,,,
333,0,0.0,0.33,,-0.06,0.09,1.01,0,0,-0,0.11,,,,,,,,,,
335,0,0.0,0.33,,,,,,,,,,,,,,,,,,
337,0,0.0,0.33,,,,,,,,,,,,,,,,,,
339,0,0.0,0.33,,,,,,,,,,,,,,,,,,
341,0,0.0,0.33,,,,,,,,,,,,,,,,,,
343,0,0.0,0.33,,0.04,0.07,0.99,-0,-0,-0,0.08,0,1920,0,0.0,0.0,0.0,0.0,0,0,0.0
345,0,0.0,0.33,,,,,,,,,,,,,,,,,,
347,0,0.0,0.33,,,,,,,,,,,,,,,,,,
349,0,0.0,0.34,,,,,,,,,,,,,,,,,,
351,0,0.0,0.33,,,,,,,,,,,,,,,,,,
353,0,0.0,0.33,,-0.12,0.1,0.95,0,0,-1,0.16,,,,,,,,,,
355,0,0.0,0.33,,,,,,,,,,,,,,,,,,
357,0,0.0,0.33,,,,,,,,,,,,,,,,,,
359,0,0.0,0.33,,,,,,,,,,,,,,,,,,
361,0,0.0,0.33,,,,,,,,,,,,,,,,,,
363,0,0.0,0.33,,-0.15,0.1,1.03,0,-0,-1,0.18,0,1980,0,0.0,0.0,0.0,0.0,0,0,0.0
365,0,0.0,0.33,,,,,,,,,,,,,,,,,,
367,0,0.0,0.33,,,,,,,,,,,,,,,,,,
369,0,0.0,0.33,,,,,,,,,,,,,,,,,,
371,0,0.0,0.33,,,,,,,,,,,,,,,,,,
373,0,0.0,0.33,,-0.0,0.05,0.94,-0,-1,-0,0.05,,,,,,,,,,
375,0,0.0,0.34,,,,,,,,,,,,,,,,,,
377,0,0.0,0.34,,,,,,,,,,,,,,,,,,
379,0,0.0,0.35,,,,,,,,,,,,,,,,,,
381,0,0.0,0.34,,,,,,,,,,,,,,,,,,
383,0,0.0,0.33,,-0.06,0.09,0.97,0,-1,-1,0.11,0,1920,0,0.0,0.0,0.0,0.0,0,0,0.0
385,0,0.0,0.33,,,,,,,,,,,,,,,,,,
387,0,0.0,0.33,,,,,,,,,,,,,,,,,,
389,0,0.0,0.34,,,,,,,,,,,,,,,,,,
391,0,0.0,0.34,,,,,,,,,,,,,,,,,,
393,0,0.0,0.34,,-0.08,0.1,0.97,0,0,-0,0.12,,,,,,,,,,
395,0,0.0,0.34,,,,,,,,,,,,,,,,,,
397,0,0.0,0.34,,,,,,,,,,,,,,,,,,
399,0,0.0,0.34,,,,,,,,,,,,,,,,,,
401,0,0.0,0.34,,,,,,,,,,,,,,,,,,
403,0,0.0,0.34,,0.05,0.07,0.98,0,-1,-0,0.08,0,1920,0,0.0,0.0,0.0,0.0,0,0,0.0
405,0,0.0,0.34,,,,,,,,,,,,,,,,,,
407,0,0.0,0.34,,,,,,,,,,,,,,,,,,
409,0,0.0,0.35,,,,,,,,,,,,,,,,,,
411,0,0.0,0.34,,,,,,,,,,,,,,,,,,
413,0,0.0,0.34,,-0.11,0.08,0.96,0,0,-1,0.14,,,,,,,,,,
415,0,0.0,0.34,,,,,,,,,,,,,,,,,,
417,0,0.0,0.34,,,,,,,,,,,,,,,,,,
419,0,0.0,0.34,,,,,,,,,,,,,,,,,,
421,0,0.0,0.34,,,,,,,,,,,,,,,,,,
423,0,0.0,0.34,,-0.16,0.09,1.04,0,-0,-0,0.19,0,1980,0,0.0,0.0,0.0,0.0,0,0,0.0
425,0,0.0,0.34,,,,,,,,,,,,,,,,,,
427,0,0.0,0.34,,,,,,,,,,,,,,,,,,
429,0,0.0,0.34,,,,,,,,,,,,,,,,,,
431,0,0.0,0.34,,,,,,,,,,,,,,,,,,
433,0,0.0,0.34,,-0.01,0.03,0.93,-0,-1,-0,0.04,,,,,,,,,,
435,0,0.0,0.34,,,,,,,,,,,,,,,,,,
437,0,0.0,0.34,,,,,,,,,,,,,,,,,,
439,0,0.0,0.35,,,,,,,,,,,,,,,,,,
441,0,0.0,0.35,,,,,,,,,,,,,,,,,,
443,0,0.0,0.34,,-0.05,0.11,0.99,0,-1,-0,0.12,0,1920,0,0.0,0.0,0.0,0.0,0,0,0.0
445,0,0.0,0.35,,,,,,,,,,,,,,,,,,
447,0,0.0,0.34,,,,,,,,,,,,,,,,,,
449,0,0.0,0.34,,,,,,,,,,,,,,,,,,
451,0,0.0,0.34,,,,,,,,,,,,,,,,,,
453,0,0.0,0.35,,-0.14,0.12,0.98,0,-0,-0,0.18,,,,,,,,,,
455,0,0.0,0.35,,,,,,,,,,,,,,,,,,
457,0,0.0,0.35,,,,,,,,,,,,,,,,,,
459,0,0.0,0.35,,,,,,,,,,,,,,,,,,
461,0,0.0,0.35,,,,,,,,,,,,,,,,,,
463,0,0.0,0.35,,0.03,0.07,1.02,-0,-1,-0,0.07,0,1920,0,0.0,0.0,0.0,0.0,0,0,0.0
465,0,0.0,0.35,,,,,,,,,,,,,,,,,,
467,0,0.0,0.35,,,,,,,,,,,,,,,,,,
469,0,0.0,0.35,,,,,,,,,,,,,,,,,,
471,0,0.0,0.35,,,,,,,,,,,,,,,,,,
473,0,0.0,0.35,,-0.09,0.1,0.96,-0,1,-1,0.14,,,,,,,,,,
475,0,0.0,0.35,,,,,,,,,,,,,,,,,,
477,0,0.0,0.35,,,,,,,,,,,,,,,,,,
479,0,0.0,0.35,,,,,,,,,,,,,,,,,,
481,0,0.0,0.35,,,,,,,,,,,,,,,,,,
483,0,0.0,0.35,,-0.16,0.09,1.04,0,-0,-1,0.18,0,1980,0,0.0,0.0,0.0,0.0,0,0,0.0
485,0,0.0,0.35,,,,,,,,,,,,,,,,,,
487,0,0.0,0.35,,,,,,,,,,,,,,,,,,
489,0,0.0,0.35,,,,,,,,,,,,,,,,,,
491,0,0.0,0.35,,,,,,,,,,,,,,,,,,
493,0,0.0,0.35,,-0.02,0.03,0.94,-0,-1,-0,0.04,,,,,,,,,,
495,0,0.0,0.35,,,,,,,,,,,,,,,,,,
497,0,0.0,0.35,,,,,,,,,,,,,,,,,,
499,0,0.0,0.35,,,,,,,,,,,,,,,,,,
501,0,0.0,0.36,,,,,,,,,,,,,,,,,,
503,0,0.0,0.36,,-0.04,0.11,0.99,0,0,-0,0.11,0,1920,0,0.0,0.0,0.0,0.0,0,0,0.0
505,0,0.0,0.36,,,,,,,,,,,,,,,,,,
507,0,0.0,0.35,,,,,,,,,,,,,,,,,,
509,0,0.0,0.35,,,,,,,,,,,,,,,,,,
511,0,0.0,0.35,,,,,,,,,,,,,,,,,,
513,0,0.0,0.36,,-0.18,0.1,0.98,0,-0,-1,0.21,,,,,,,,,,
515,0,0.0,0.35,,,,,,,,,,,,,,,,,,
517,0,0.0,0.35,,,,,,,,,,,,,,,,,,
519,0,0.0,0.36,,,,,,,,,,,,,,,,,,
521,0,0.0,0.35,,,,,,,,,,,,,,,,,,
523,0,0.0,0.36,,0.01,0.05,1.05,0,-1,-0,0.05,0,1920,0,0.0,0.0,0.0,0.0,0,0,0.0
525,0,0.0,0.36,,,,,,,,,,,,,,,,,,
527,0,0.0,0.36,,,,,,,,,,,,,,,,,,
529,0,0.0,0.36,,,,,,,,,,,,,,,,,,
531,0,0.0,0.37,,,,,,,,,,,,,,,,,,
533,0,0.0,0.36,,-0.08,0.08,0.99,0,1,-0,0.11,,,,,,,,,,
535,0,0.0,0.36,,,,,,,,,,,,,,,,,,
537,0,0.0,0.36,,,,,,,,,,,,,,,,,,
539,0,0.0,0.36,,,,,,,,,,,,,,,,,,
541,0,0.0,0.36,,,,,,,,,,,,,,,,,,
543,0,0.0,0.36,,-0.16,0.08,1.01,0,-1,-0,0.18,0,1980,0,0.0,0.0,0.0,0.0,0,0,0.0
545,0,0.0,0.36,,,,,,,,,,,,,,,,,,
547,0,0.0,0.36,,,,,,,,,,,,,,,,,,
549,0,0.0,0.36,,,,,,,,,,,,,,,,,,
551,0,0.0,0.36,,,,,,,,,,,,,,,,,,
553,0,0.0,0.36,,-0.02,0.03,0.94,0,-1,-0,0.04,,,,,,,,,,
555,0,0.0,0.37,,,,,,,,,,,,,,,,,,
557,0,0.0,0.36,,,,,,,,,,,,,,,,,,
559,0,0.0,0.36,,,,,,,,,,,,,,,,,,
561,0,0.0,0.36,,,,,,,,,,,,,,,,,,
563,0,0.0,0.37,,-0.03,0.12,1.02,0,0,-0,0.13,0,1920,0,0.0,0.0,0.0,0.0,0,0,0.0
565,0,0.0,0.36,,,,,,,,,,,,,,,,,,
567,0,0.0,0.36,,,,,,,,,,,,,,,,,,
569,0,0.0,0.36,,,,,,,,,,,,,,,,,,
571,0,0.0,0.37,,,,,,,,,,,,,,,,,,
573,0,0.0,0.36,,-0.23,0.1,0.97,0,-0,-1,0.25,,,,,,,,,,
575,0,0.0,0.36,,,,,,,,,,,,,,,,,,
577,0,0.0,0.37,,,,,,,,,,,,,,,,,,
579,0,0.0,0.37,,,,,,,,,,,,,,,,,,
581,0,0.0,0.37,,,,,,,,,,,,,,,,,,
583,0,0.0,0.37,,-0.0,0.05,1.09,0,-1,-0,0.05,0,1920,0,0.0,0.0,0.0,0.0,0,0,0.0
585,0,0.0,0.37,,,,,,,,,,,,,,,,,,
587,0,0.0,0.36,,,,,,,,,,,,,,,,,,
589,0,0.0,0.37,,,,,,,,,,,,,,,,,,
591,0,0.0,0.37,,,,,,,,,,,,,,,,,,
593,0,0.0,0.37,,-0.08,0.09,0.97,-0,1,-0,0.12,,,,,,,,,,
595,0,0.0,0.37,,,,,,,,,,,,,,,,,,
597,0,0.0,0.37,,,,,,,,,,,,,,,,,,
599,0,0.0,0.37,,,,,,,,,,,,,,,,,,
601,0,0.0,0.37,,,,,,,,,,,,,,,,,,
603,0,0.0,0.37,,-0.16,0.07,1.02,0,-1,-0,0.18,0,1980,0,0.0,0.0,0.0,0.0,0,0,0.0
605,0,0.0,0.37,,,,,,,,,,,,,,,,,,
607,0,0.0,0.37,,,,,,,,,,,,,,,,,,
609,0,0.0,0.37,,,,,,,,,,,,,,,,,,
611,0,0.0,0.37,,,,,,,,,,,,,,,,,,
613,0,0.0,0.37,,-0.02,0.03,0.95,0,-1,-0,0.04,,,,,,,,,,
615,0,0.0,0.37,,,,,,,,,,,,,,,,,,
617,0,0.0,0.37,,,,,,,,,,,,,,,,,,
619,0,0.0,0.37,,,,,,,,,,,,,,,,,,
621,0,0.0,0.37,,,,,,,,,,,,,,,,,,
623,0,0.0,0.39,,-0.03,0.14,1.03,-0,0,-1,0.14,0,1920,0,0.0,0.0,0.0,0.0,0,0,0.0
625,0,0.0,0.37,,,,,,,,,,,,,,,,,,
627,0,0.0,0.37,,,,,,,,,,,,,,,,,,
629,0,0.0,0.38,,,,,,,,,,,,,,,,,,
631,0,0.0,0.37,,,,,,,,,,,,,,,,,,
633,0,0.0,0.37,,-0.22,0.07,0.96,0,-1,-1,0.24,,,,,,,,,,
635,0,0.0,0.37,,,,,,,,,,,,,,,,,,
637,0,0.0,0.38,,,,,,,,,,,,,,,,,,
639,0,0.0,0.37,,,,,,,,,,,,,,,,,,
641,0,0.0,0.37,,,,,,,,,,,,,,,,,,
643,0,0.0,0.38,,-0.04,0.03,1.08,0,-1,-0,0.05,0,1920,0,0.0,0.0,0.0,0.0,0,0,0.0
645,0,0.0,0.37,,,,,,,,,,,,,,,,,,
647,0,0.0,0.38,,,,,,,,,,,,,,,,,,
649,0,0.0,0.38,,,,,,,,,,,,,,,,,,
651,0,0.0,0.38,,,,,,,,,,,,,,,,,,
653,0,0.0,0.39,,-0.06,0.09,0.98,-0,1,-1,0.1,,,,,,,,,,
655,0,0.0,0.38,,,,,,,,,,,,,,,,,,
657,0,0.0,0.38,,,,,,,,,,,,,,,,,,
659,0,0.0,0.38,,,,,,,,,,,,,,,,,,
661,0,0.0,0.38,,,,,,,,,,,,,,,,,,
663,0,0.0,0.38,,-0.14,0.07,0.96,0,-1,-1,0.16,0,1980,0,0.0,0.0,0.0,0.0,0,0,0.0
665,0,0.0,0.38,,,,,,,,,,,,,,,,,,
667,0,0.0,0.37,,,,,,,,,,,,,,,,,,
669,0,0.0,0.38,,,,,,,,,,,,,,,,,,
671,0,0.0,0.38,,,,,,,,,,,,,,,,,,
673,0,0.0,0.38,,-0.05,0.05,0.96,0,-1,-0,0.07,,,,,,,,,,
675,0,0.0,0.38,,,,,,,,,,,,,,,,,,
677,0,0.0,0.38,,,,,,,,,,,,,,,,,,
679,0,0.0,0.38,,,,,,,,,,,,,,,,,,
681,0,0.0,0.38,,,,,,,,,,,,,,,,,,
683,0,0.0,0.39,,-0.02,0.13,1.04,-0,0,-1,0.13,0,1920,0,0.0,0.0,0.0,0.0,0,0,0.0
685,0,0.0,0.38,,,,,,,,,,,,,,,,,,
687,0,0.0,0.38,,,,,,,,,,,,,,,,,,
689,0,0.0,0.38,,,,,,,,,,,,,,,,,,
691,0,0.0,0.38,,,,,,,,,,,,,,,,,,
693,0,0.0,0.38,,-0.21,0.07,0.96,0,-1,-1,0.23,,,,,,,,,,
695,0,0.0,0.38,,,,,,,,,,,,,,,,,,
697,0,0.0,0.38,,,,,,,,,,,,,,,,,,
699,0,0.0,0.38,,,,,,,,,,,,,,,,,,
701,0,0.0,0.38,,,,,,,,,,,,,,,,,,
703,0,0.0,0.39,,-0.05,0.04,1.1,0,-1,-0,0.06,0,1920,0,0.0,0.0,0.0,0.0,0,0,0.0
705,0,0.0,0.39,,,,,,,,,,,,,,,,,,
707,0,0.0,0.39,,,,,,,,,,,,,,,,,,
709,0,0.0,0.39,,,,,,,,,,,,,,,,,,
711,0,0.0,0.39,,,,,,,,,,,,,,,,,,
713,0,0.0,0.4,,-0.03,0.09,0.99,-0,1,-0,0.09,,,,,,,,,,
715,0,0.0,0.39,,,,,,,,,,,,,,,,,,
717,0,0.0,0.39,,,,,,,,,,,,,,,,,,
719,0,0.0,0.39,,,,,,,,,,,,,,,,,,
721,0,0.0,0.39,,,,,,,,,,,,,,,,,,
723,0,0.0,0.39,,-0.14,0.09,0.92,0,-1,-1,0.17,0,1980,0,0.0,0.0,0.0,0.0,0,0,0.0
725,0,0.0,0.39,,,,,,,,,,,,,,,,,,
727,0,0.0,0.39,,,,,,,,,,,,,,,,,,
729,0,0.0,0.39,,,,,,,,,,,,,,,,,,
731,0,0.0,0.39,,,,,,,,,,,,,,,,,,
733,0,0.0,0.39,,-0.04,0.06,0.97,0,-1,-0,0.07,,,,,,,,,,
735,0,0.0,0.39,,,,,,,,,,,,,,,,,,
737,0,0.0,0.39,,,,,,,,,,,,,,,,,,
739,0,0.0,0.39,,,,,,,,,,,,,,,,,,
741,0,0.0,0.39,,,,,,,,,,,,,,,,,,
743,0,0.0,0.39,,-0.02,0.13,1.03,-0,0,-1,0.13,0,1980,0,0.0,0.0,0.0,0.0,0,0,0.0
745,0,0.0,0.4,,,,,,,,,,,,,,,,,,
747,0,0.0,0.39,,,,,,,,,,,,,,,,,,
749,0,0.0,0.39,,,,,,,,,,,,,,,,,,
751,0,0.0,0.39,,,,,,,,,,,,,,,,,,
753,0,0.0,0.39,,-0.18,0.06,0.92,0,-1,-1,0.19,,,,,,,,,,
755,0,0.0,0.39,,,,,,,,,,,,,,,,,,
757,0,0.0,0.39,,,,,,,,,,,,,,,,,,
759,0,0.0,0.39,,,,,,,,,,,,,,,,,,
761,0,0.0,0.39,,,,,,,,,,,,,,,,,,
763,0,0.0,0.4,,-0.05,0.03,1.1,0,-1,-0,0.06,0,1920,0,0.0,0.0,0.0,0.0,0,0,0.0
765,0,0.0,0.4,,,,,,,,,,,,,,,,,,
767,0,0.0,0.4,,,,,,,,,,,,,,,,,,
769,0,0.0,0.39,,,,,,,,,,,,,,,,,,
771,0,0.0,0.4,,,,,,,,,,,,,,,,,,
773,0,0.0,0.4,,-0.01,0.09,0.99,-0,0,-0,0.09,,,,,,,,,,
775,0,0.0,0.41,,,,,,,,,,,,,,,,,,
777,0,0.0,0.4,,,,,,,,,,,,,,,,,,
779,0,0.0,0.4,,,,,,,,,,,,,,,,,,
781,0,0.0,0.4,,,,,,,,,,,,,,,,,,
783,0,0.0,0.4,,-0.13,0.08,0.94,0,-0,-1,0.15,0,1980,0,0.0,0.0,0.0,0.0,0,0,0.0
785,0,0.0,0.4,,,,,,,,,,,,,,,,,,
787,0,0.0,0.4,,,,,,,,,,,,,,,,,,
789,0,0.0,0.4,,,,,,,,,,,,,,,,,,
791,0,0.0,0.4,,,,,,,,,,,,,,,,,,
793,0,0.0,0.4,,-0.07,0.06,1.0,0,-1,-0,0.09,,,,,,,,,,
795,0,0.01,0.4,,,,,,,,,,,,,,,,,,
797,0,0.0,0.4,,,,,,,,,,,,,,,,,,
799,0,0.0,0.4,,,,,,,,,,,,,,,,,,
801,0,0.0,0.4,,,,,,,,,,,,,,,,,,
803,0,0.0,0.4,,-0.02,0.11,1.03,-0,0,-1,0.11,0,1980,0,0.0,0.0,0.0,0.0,0,0,0.0
805,0,0.0,0.41,,,,,,,,,,,,,,,,,,
807,0,0.0,0.4,,,,,,,,,,,,,,,,,,
809,0,0.0,0.4,,,,,,,,,,,,,,,,,,
811,0,0.0,0.4,,,,,,,,,,,,,,,,,,
813,0,0.0,0.41,,-0.17,0.07,0.92,0,-1,-1,0.18,,,,,,,,,,
815,0,0.0,0.4,,,,,,,,,,,,,,,,,,
817,0,0.0,0.4,,,,,,,,,,,,,,,,,,
819,0,0.0,0.4,,,,,,,,,,,,,,,,,,
821,0,0.0,0.4,,,,,,,,,,,,,,,,,,
823,0,0.0,0.4,,-0.06,0.04,1.1,0,-1,-0,0.07,0,1920,0,0.0,0.0,0.0,0.0,0,0,0.0
825,0,0.0,0.41,,,,,,,,,,,,,,,,,,
827,0,0.0,0.41,,,,,,,,,,,,,,,,,,
829,0,0.0,0.41,,,,,,,,,,,,,,,,,,
831,0,0.0,0.41,,,,,,,,,,,,,,,,,,
833,0,0.0,0.41,,-0.01,0.08,0.98,-0,-0,-0,0.08,,,,,,,,,,
835,0,0.0,0.42,,,,,,,,,,,,,,,,,,
837,0,0.0,0.41,,,,,,,,,,,,,,,,,,
839,0,0.0,0.41,,,,,,,,,,,,,,,,,,
841,0,0.0,0.41,,,,,,,,,,,,,,,,,,
843,0,0.0,0.41,,-0.13,0.1,0.94,0,-0,-0,0.16,0,1980,0,0.0,0.0,0.0,0.0,0,0,0.0
845,0,0.0,0.41,,,,,,,,,,,,,,,,,,
847,0,0.0,0.41,,,,,,,,,,,,,,,,,,
849,0,0.0,0.41,,,,,,,,,,,,,,,,,,
851,0,0.0,0.41,,,,,,,,,,,,,,,,,,
853,0,0.0,0.41,,-0.09,0.07,1.02,0,-0,-0,0.12,,,,,,,,,,
855,0,0.0,0.41,,,,,,,,,,,,,,,,,,
857,0,0.0,0.41,,,,,,,,,,,,,,,,,,
859,0,0.0,0.41,,,,,,,,,,,,,,,,,,
861,0,0.0,0.41,,,,,,,,,,,,,,,,,,
863,0,0.0,0.41,,-0.02,0.1,1.03,-0,0,-1,0.1,0,1980,0,0.0,0.0,0.0,0.0,0,0,0.0
865,0,0.0,0.42,,,,,,,,,,,,,,,,,,
867,0,0.0,0.41,,,,,,,,,,,,,,,,,,
869,0,0.0,0.41,,,,,,,,,,,,,,,,,,
871,0,0.0,0.41,,,,,,,,,,,,,,,,,,
873,0,0.0,0.41,,-0.14,0.07,0.94,0,-1,-1,0.16,,,,,,,,,,
875,0,0.0,0.41,,,,,,,,,,,,,,,,,,
877,0,0.0,0.41,,,,,,,,,,,,,,,,,,
879,0,0.0,0.41,,,,,,,,,,,,,,,,,,
881,0,0.0,0.41,,,,,,,,,,,,,,,,,,
883,0,0.0,0.41,,-0.06,0.05,1.1,0,-0,-0,0.07,0,1920,0,0.0,0.0,0.0,0.0,0,0,0.0
885,0,0.0,0.41,,,,,,,,,,,,,,,,,,
887,0,0.0,0.42,,,,,,,,,,,,,,,,,,
889,0,0.0,0.42,,,,,,,,,,,,,,,,,,
891,0,0.0,0.42,,,,,,,,,,,,,,,,,,
893,0,0.0,0.42,,-0.0,0.08,0.97,-0,-0,-0,0.08,,,,,,,,,,
895,0,0.0,0.43,,,,,,,,,,,,,,,,,,
897,0,0.0,0.42,,,,,,,,,,,,,,,,,,
899,0,0.0,0.42,,,,,,,,,,,,,,,,,,
901,0,0.0,0.42,,,,,,,,,,,,,,,,,,
903,0,0.0,0.42,,-0.12,0.12,0.92,0,-0,-1,0.17,0,1980,0,0.0,0.0,0.0,0.0,0,0,0.0
905,0,0.0,0.42,,,,,,,,,,,,,,,,,,
907,0,0.0,0.42,,,,,,,,,,,,,,,,,,
909,0,0.0,0.42,,,,,,,,,,,,,,,,,,
911,0,0.0,0.42,,,,,,,,,,,,,,,,,,
913,0,0.0,0.42,,-0.09,0.1,1.02,0,-0,-0,0.13,,,,,,,,,,
915,0,0.0,0.42,,,,,,,,,,,,,,,,,,
917,0,0.0,0.42,,,,,,,,,,,,,,,,,,
919,0,0.0,0.42,,,,,,,,,,,,,,,,,,
921,0,0.0,0.42,,,,,,,,,,,,,,,,,,
923,0,0.0,0.42,,-0.01,0.09,1.02,-0,0,-1,0.09,0,1980,0,0.0,0.0,0.0,0.0,0,0,0.0
925,0,0.0,0.43,,,,,,,,,,,,,,,,,,
927,0,0.0,0.42,,,,,,,,,,,,,,,,,,
929,0,0.0,0.42,,,,,,,,,,,,,,,,,,
931,0,0.0,0.42,,,,,,,,,,,,,,,,,,
933,0,0.0,0.42,,-0.13,0.06,0.95,0,-1,-1,0.15,,,,,,,,,,
935,0,0.0,0.42,,,,,,,,,,,,,,,,,,
937,0,0.0,0.42,,,,,,,,,,,,,,,,,,
939,0,0.0,0.42,,,,,,,,,,,,,,,,,,
941,0,0.0,0.42,,,,,,,,,,,,,,,,,,
943,0,0.0,0.42,,-0.06,0.06,1.05,0,-0,-0,0.08,0,1920,0,0.0,0.0,0.0,0.0,0,0,0.0
945,0,0.0,0.42,,,,,,,,,,,,,,,,,,
947,0,0.0,0.42,,,,,,,,,,,,,,,,,,
949,0,0.0,0.43,,,,,,,,,,,,,,,,,,
951,0,0.0,0.43,,,,,,,,,,,,,,,,,,
953,0,0.0,0.43,,0.0,0.08,0.98,-0,-0,-0,0.08,,,,,,,,,,
955,0,0.0,0.44,,,,,,,,,,,,,,,,,,
957,0,0.0,0.43,,,,,,,,,,,,,,,,,,
959,0,0.0,0.42,,,,,,,,,,,,,,,,,,
961,0,0.0,0.42,,,,,,,,,,,,,,,,,,
963,0,0.0,0.43,,-0.12,0.1,0.93,0,-0,-1,0.16,0,1980,0,0.0,0.0,0.0,0.0,0,0,0.0
965,0,0.0,0.43,,,,,,,,,,,,,,,,,,
967,0,0.0,0.43,,,,,,,,,,,,,,,,,,
969,0,0.0,0.43,,,,,,,,,,,,,,,,,,
971,0,0.0,0.42,,,,,,,,,,,,,,,,,,
973,0,0.0,0.43,,-0.09,0.09,0.99,0,-0,-0,0.13,,,,,,,,,,
975,0,0.0,0.43,,,,,,,,,,,,,,,,,,
977,0,0.0,0.43,,,,,,,,,,,,,,,,,,
979,0,0.0,0.43,,,,,,,,,,,,,,,,,,
981,0,0.0,0.43,,,,,,,,,,,,,,,,,,
983,0,0.0,0.43,,0.0,0.1,0.98,-0,0,-0,0.1,0,1980,0,0.0,0.0,0.0,0.0,0,0,0.0
985,0,0.0,0.44,,,,,,,,,,,,,,,,,,
987,0,0.0,0.43,,,,,,,,,,,,,,,,,,
989,0,0.0,0.43,,,,,,,,,,,,,,,,,,
991,0,0.0,0.43,,,,,,,,,,,,,,,,,,
993,0,0.0,0.43,,-0.13,0.08,0.94,0,-1,-1,0.16,,,,,,,,,,
995,0,0.0,0.43,,,,,,,,,,,,,,,,,,
997,0,0.0,0.43,,,,,,,,,,,,,,,,,,
999,0,0.0,0.43,,,,,,,,,,,,,,,,,,
1001,0,0.0,0.43,,,,,,,,,,,,,,,,,,
1003,0,0.0,0.43,,-0.05,0.05,1.03,0,-0,-0,0.07,0,1920,0,0.0,0.0,0.0,0.0,0,0,0.0
1005,0,0.0,0.43,,,,,,,,,,,,,,,,,,
1007,0,0.0,0.43,,,,,,,,,,,,,,,,,,
1009,0,0.0,0.44,,,,,,,,,,,,,,,,,,
1011,0,0.0,0.44,,,,,,,,,,,,,,,,,,
1013,0,0.0,0.43,,0.0,0.08,0.97,-0,-0,-0,0.08,,,,,,,,,,
1015,0,0.0,0.44,,,,,,,,,,,,,,,,,,
1017,0,0.0,0.44,,,,,,,,,,,,,,,,,,
1019,0,0.0,0.44,,,,,,,,,,,,,,,,,,
1021,0,0.0,0.43,,,,,,,,,,,,,,,,,,
1023,0,0.0,0.43,,-0.14,0.12,0.9,0,-0,-1,0.18,0,1980,0,0.0,0.0,0.0,0.0,0,0,0.0
1025,0,0.0,0.44,,,,,,,,,,,,,,,,,,
1027,0,0.0,0.44,,,,,,,,,,,,,,,,,,
1029,0,0.0,0.44,,,,,,,,,,,,,,,,,,
1031,0,0.0,0.44,,,,,,,,,,,,,,,,,,
1033,0,0.0,0.44,,-0.12,0.11,0.99,0,-0,-0,0.16,,,,,,,,,,
1035,0,0.0,0.44,,,,,,,,,,,,,,,,,,
1037,0,0.0,0.44,,,,,,,,,,,,,,,,,,
1039,0,0.0,0.44,,,,,,,,,,,,,,,,,,
1041,0,0.0,0.44,,,,,,,,,,,,,,,,,,
1043,0,0.0,0.44,13.43,-0.01,0.09,0.97,-0,-0,-0,0.09,0,1980,0,0.0,0.0,0.0,0.0,0,0,0.0
1045,0,0.0,0.44,,,,,,,,,,,,,,,,,,
1047,0,0.0,0.45,,,,,,,,,,,,,,,,,,
1049,0,0.0,0.44,,,,,,,,,,,,,,,,,,
1051,0,0.0,0.44,,,,,,,,,,,,,,,,,,
1053,0,0.0,0.44,,-0.13,0.07,0.92,0,-1,-1,0.15,,,,,,,,,,
1055,0,0.0,0.44,,,,,,,,,,,,,,,,,,
1057,0,0.0,0.44,,,,,,,,,,,,,,,,,,
1059,0,0.0,0.44,,,,,,,,,,,,,,,,,,
1061,0,0.0,0.44,,,,,,,,,,,,,,,,,,
1063,0,0.0,0.44,,-0.06,0.06,1.06,0,-0,-0,0.08,0,1920,0,0.0,0.0,0.0,0.0,0,0,0.0
1065,0,0.0,0.44,,,,,,,,,,,,,,,,,,
1067,0,0.0,0.44,,,,,,,,,,,,,,,,,,
1069,0,0.0,0.44,,,,,,,,,,,,,,,,,,
1071,0,0.0,0.45,,,,,,,,,,,,,,,,,,
1073,0,0.0,0.44,,0.0,0.07,0.97,-0,-0,-0,0.07,,,,,,,,,,
1075,0,0.0,0.44,,,,,,,,,,,,,,,,,,
1077,0,0.0,0.46,,,,,,,,,,,,,,,,,,
1079,0,0.0,0.45,,,,,,,,,,,,,,,,,,
1081,0,0.0,0.44,,,,,,,,,,,,,,,,,,
1083,0,0.0,0.44,,-0.12,0.11,0.92,0,-0,-1,0.16,0,1980,0,0.0,0.0,0.0,0.0,0,0,0.0
1085,0,0.0,0.45,,,,,,,,,,,,,,,,,,
1087,0,0.0,0.45,,,,,,,,,,,,,,,,,,
1089,0,0.0,0.45,,,,,,,,,,,,,,,,,,
1091,0,0.0,0.45,,,,,,,,,,,,,,,,,,
1093,0,0.0,0.45,,-0.12,0.1,1.02,0,-0,-0,0.15,,,,,,,,,,
1095,0,0.0,0.45,,,,,,,,,,,,,,,,,,
1097,0,0.0,0.45,,,,,,,,,,,,,,,,,,
1099,0,0.0,0.45,,,,,,,,,,,,,,,,,,
1101,0,0.0,0.45,,,,,,,,,,,,,,,,,,
1103,0,0.0,0.45,,-0.01,0.08,1.0,-0,-0,-1,0.08,0,1980,0,0.0,0.0,0.0,0.0,0,0,0.0
1105,0,0.0,0.45,,,,,,,,,,,,,,,,,,
1107,0,0.0,0.46,,,,,,,,,,,,,,,,,,
1109,0,0.0,0.45,,,,,,,,,,,,,,,,,,
1111,0,0.0,0.45,,,,,,,,,,,,,,,,,,
1113,0,0.0,0.45,,-0.11,0.07,0.94,0,-1,-1,0.13,,,,,,,,,,
1115,0,0.0,0.45,,,,,,,,,,,,,,,,,,
1117,0,0.0,0.45,,,,,,,,,,,,,,,,,,
1119,0,0.0,0.45,,,,,,,,,,,,,,,,,,
1121,0,0.0,0.45,,,,,,,,,,,,,,,,,,
1123,0,0.0,0.45,,-0.06,0.08,1.03,0,0,-0,0.1,0,1920,0,0.0,0.0,0.0,0.0,0,0,0.0
1125,0,0.0,0.45,,,,,,,,,,,,,,,,,,
1127,0,0.0,0.45,,,,,,,,,,,,,,,,,,
1129,0,0.0,0.45,,,,,,,,,,,,,,,,,,
1131,0,0.0,0.45,,,,,,,,,,,,,,,,,,
1133,0,0.0,0.45,,0.02,0.08,0.97,-0,-0,-0,0.08,,,,,,,,,,
1135,0,0.0,0.45,,,,,,,,,,,,,,,,,,
1137,0,0.0,0.47,,,,,,,,,,,,,,,,,,
1139,0,0.0,0.45,,,,,,,,,,,,,,,,,,
1141,0,0.0,0.45,,,,,,,,,,,,,,,,,,
1143,0,0.0,0.46,,-0.13,0.11,0.94,0,0,-1,0.17,0,1980,0,0.0,0.0,0.0,0.0,0,0,0.0
1145,0,0.0,0.45,,,,,,,,,,,,,,,,,,
1147,0,0.0,0.45,,,,,,,,,,,,,,,,,,
1149,0,0.0,0.46,,,,,,,,,,,,,,,,,,
1151,0,0.0,0.46,,,,,,,,,,,,,,,,,,
1153,0,0.0,0.46,,-0.13,0.11,1.03,0,-0,-1,0.17,,,,,,,,,,
1155,0,0.0,0.46,,,,,,,,,,,,,,,,,,
1157,0,0.0,0.46,,,,,,,,,,,,,,,,,,
1159,0,0.0,0.46,,,,,,,,,,,,,,,,,,
1161,0,0.0,0.46,,,,,,,,,,,,,,,,,,
1163,0,0.0,0.46,,-0.0,0.06,0.98,-0,-0,-0,0.06,0,1980,0,0.0,0.0,0.0,0.0,0,0,0.0
1165,0,0.0,0.46,,,,,,,,,,,,,,,,,,
1167,0,0.0,0.46,,,,,,,,,,,,,,,,,,
1169,0,0.0,0.47,,,,,,,,,,,,,,,,,,
1171,0,0.0,0.46,,,,,,,,,,,,,,,,,,
1173,0,0.0,0.46,,-0.09,0.08,0.97,0,-1,-1,0.12,,,,,,,,,,
1175,0,0.0,0.46,,,,,,,,,,,,,,,,,,
1177,0,0.0,0.46,,,,,,,,,,,,,,,,,,
1179,0,0.0,0.46,,,,,,,,,,,,,,,,,,
1181,0,0.0,0.46,,,,,,,,,,,,,,,,,,
1183,0,0.0,0.46,,-0.05,0.09,1.03,0,0,-0,0.1,0,1920,0,0.0,0.0,0.0,0.0,0,0,0.0
1185,0,0.0,0.46,,,,,,,,,,,,,,,,,,
1187,0,0.0,0.46,,,,,,,,,,,,,,,,,,
1189,0,0.0,0.46,,,,,,,,,,,,,,,,,,
1191,0,0.0,0.46,,,,,,,,,,,,,,,,,,
1193,0,0.0,0.47,,0.04,0.07,0.99,-0,-0,-0,0.08,,,,,,,,,,
1195,0,0.0,0.46,,,,,,,,,,,,,,,,,,
1197,0,0.0,0.46,,,,,,,,,,,,,,,,,,
1199,0,0.0,0.48,,,,,,,,,,,,,,,,,,
1201,0,0.0,0.46,,,,,,,,,,,,,,,,,,
1203,0,0.0,0.46,,-0.13,0.11,0.97,0,0,-1,0.17,0,1980,0,0.0,0.0,0.0,0.0,0,0,0.0
1205,0,0.0,0.46,,,,,,,,,,,,,,,,,,
1207,0,0.0,0.46,,,,,,,,,,,,,,,,,,
1209,0,0.0,0.46,,,,,,,,,,,,,,,,,,
1211,0,0.0,0.47,,,,,,,,,,,,,,,,,,
1213,0,0.0,0.47,,-0.14,0.11,1.04,0,-0,-1,0.18,,,,,,,,,,
1215,0,0.0,0.47,,,,,,,,,,,,,,,,,,
1217,0,0.0,0.47,,,,,,,,,,,,,,,,,,
1219,0,0.0,0.47,,,,,,,,,,,,,,,,,,
1221,0,0.0,0.47,,,,,,,,,,,,,,,,,,
1223,0,0.0,0.47,,-0.0,0.06,0.95,-0,-1,-0,0.06,0,1980,0,0.0,0.0,0.0,0.0,0,0,0.0
1225,0,0.0,0.47,,,,,,,,,,,,,,,,,,
1227,0,0.0,0.47,,,,,,,,,,,,,,,,,,
1229,0,0.0,0.48,,,,,,,,,,,,,,,,,,
1231,0,0.0,0.47,,,,,,,,,,,,,,,,,,
1233,0,0.0,0.47,,-0.08,0.09,0.98,0,-1,-1,0.12,,,,,,,,,,
1235,0,0.0,0.47,,,,,,,,,,,,,,,,,,
1237,0,0.0,0.47,,,,,,,,,,,,,,,,,,
1239,0,0.0,0.47,,,,,,,,,,,,,,,,,,
1241,0,0.0,0.47,,,,,,,,,,,,,,,,,,
1243,0,0.0,0.47,,-0.07,0.09,0.99,0,0,-0,0.12,0,1920,0,0.0,0.0,0.0,0.0,0,0,0.0
1245,0,0.0,0.47,,,,,,,,,,,,,,,,,,
1247,0,0.0,0.47,,,,,,,,,,,,,,,,,,
1249,0,0.0,0.47,,,,,,,,,,,,,,,,,,
1251,0,0.0,0.47,,,,,,,,,,,,,,,,,,
1253,0,0.0,0.47,,0.04,0.07,0.99,-0,-1,-0,0.08,,,,,,,,,,
1255,0,0.0,0.47,,,,,,,,,,,,,,,,,,
1257,0,0.0,0.47,,,,,,,,,,,,,,,,,,
1259,0,0.0,0.48,,,,,,,,,,,,,,,,,,
1261,0,0.0,0.47,,,,,,,,,,,,,,,,,,
1263,0,0.0,0.47,,-0.12,0.09,0.96,0,1,-1,0.15,0,1980,0,0.0,0.0,0.0,0.0,0,0,0.0
1265,0,0.0,0.47,,,,,,,,,,,,,,,,,,
1267,0,0.0,0.47,,,,,,,,,,,,,,,,,,
1269,0,0.0,0.47,,,,,,,,,,,,,,,,,,
1271,0,0.0,0.48,,,,,,,,,,,,,,,,,,
1273,0,0.0,0.47,,-0.15,0.1,1.03,0,-0,-0,0.18,,,,,,,,,,
1275,0,0.0,0.47,,,,,,,,,,,,,,,,,,
1277,0,0.0,0.47,,,,,,,,,,,,,,,,,,
1279,0,0.0,0.47,,,,,,,,,,,,,,,,,,
1281,0,0.0,0.47,,,,,,,,,,,,,,,,,,
1283,0,0.0,0.47,,-0.02,0.04,0.95,-0,-1,-0,0.04,0,1980,0,0.0,0.0,0.0,0.0,0,0,0.0
1285,0,0.0,0.48,,,,,,,,,,,,,,,,,,
1287,0,0.0,0.48,,,,,,,,,,,,,,,,,,
1289,0,0.0,0.49,,,,,,,,,,,,,,,,,,
1291,0,0.0,0.48,,,,,,,,,,,,,,,,,,
1293,0,0.0,0.48,,-0.06,0.09,0.98,0,-0,-1,0.11,,,,,,,,,,
1295,0,0.0,0.48,,,,,,,,,,,,,,,,,,
1297,0,0.0,0.47,,,,,,,,,,,,,,,,,,
1299,0,0.0,0.48,,,,,,,,,,,,,,,,,,
1301,0,0.0,0.48,,,,,,,,,,,,,,,,,,
1303,0,0.0,0.48,,-0.07,0.11,0.97,0,0,-1,0.12,0,1920,0,0.0,0.0,0.0,0.0,0,0,0.0
1305,0,0.0,0.48,,,,,,,,,,,,,,,,,,
1307,0,0.0,0.48,,,,,,,,,,,,,,,,,,
1309,0,0.0,0.47,,,,,,,,,,,,,,,,,,
1311,0,0.0,0.48,,,,,,,,,,,,,,,,,,
1313,0,0.0,0.48,,0.04,0.07,0.99,0,-1,-0,0.08,,,,,,,,,,
1315,0,0.0,0.48,,,,,,,,,,,,,,,,,,
1317,0,0.0,0.48,,,,,,,,,,,,,,,,,,
1319,0,0.0,0.49,,,,,,,,,,,,,,,,,,
1321,0,0.0,0.48,,,,,,,,,,,,,,,,,,
1323,0,0.0,0.48,,-0.12,0.1,0.96,0,1,-1,0.15,0,1980,0,0.0,0.0,0.0,0.0,0,0,0.0
1325,0,0.0,0.48,,,,,,,,,,,,,,,,,,
1327,0,0.0,0.48,,,,,,,,,,,,,,,,,,
1329,0,0.0,0.48,,,,,,,,,,,,,,,,,,
1331,0,0.0,0.48,,,,,,,,,,,,,,,,,,
1333,0,0.0,0.48,,-0.15,0.09,1.04,0,-0,-1,0.18,,,,,,,,,,
1335,0,0.0,0.48,,,,,,,,,,,,,,,,,,
1337,0,0.0,0.48,,,,,,,,,,,,,,,,,,
1339,0,0.0,0.48,,,,,,,,,,,,,,,,,,
1341,0,0.0,0.48,,,,,,,,,,,,,,,,,,
1343,0,0.0,0.48,,0.0,0.04,0.94,0,-1,-0,0.04,0,1980,0,0.0,0.0,0.0,0.0,0,0,0.0
1345,0,0.0,0.48,,,,,,,,,,,,,,,,,,
1347,0,0.0,0.48,,,,,,,,,,,,,,,,,,
1349,0,0.0,0.49,,,,,,,,,,,,,,,,,,
1351,0,0.0,0.5,,,,,,,,,,,,,,,,,,
1353,0,0.0,0.48,,-0.05,0.1,0.99,0,-0,-0,0.11,,,,,,,,,,
1355,0,0.0,0.49,,,,,,,,,,,,,,,,,,
1357,0,0.0,0.48,,,,,,,,,,,,,,,,,,
1359,0,0.0,0.48,,,,,,,,,,,,,,,,,,
1361,0,0.0,0.49,,,,,,,,,,,,,,,,,,
1363,0,0.0,0.49,,-0.12,0.11,0.98,0,0,-1,0.16,0,1920,0,0.0,0.0,0.0,0.0,0,0,0.0
1365,0,0.0,0.49,,,,,,,,,,,,,,,,,,
1367,0,0.0,0.49,,,,,,,,,,,,,,,,,,
1369,0,0.0,0.49,,,,,,,,,,,,,,,,,,
1371,0,0.0,0.49,,,,,,,,,,,,,,,,,,
1373,0,0.0,0.49,,0.03,0.06,1.02,0,-1,-0,0.07,,,,,,,,,,
1375,0,0.0,0.49,,,,,,,,,,,,,,,,,,
1377,0,0.0,0.49,,,,,,,,,,,,,,,,,,
1379,0,0.0,0.49,,,,,,,,,,,,,,,,,,
1381,0,0.0,0.5,,,,,,,,,,,,,,,,,,
1383,0,0.0,0.49,,-0.09,0.1,0.97,-0,1,-1,0.14,0,1980,0,0.0,0.0,0.0,0.0,0,0,0.0
1385,0,0.0,0.49,,,,,,,,,,,,,,,,,,
1387,0,0.0,0.49,,,,,,,,,,,,,,,,,,
1389,0,0.0,0.49,,,,,,,,,,,,,,,,,,
1391,0,0.0,0.49,,,,,,,,,,,,,,,,,,
1393,0,0.0,0.49,,-0.17,0.09,1.04,0,-0,-1,0.19,,,,,,,,,,
1395,0,0.0,0.49,,,,,,,,,,,,,,,,,,
1397,0,0.0,0.49,,,,,,,,,,,,,,,,,,
1399,0,0.0,0.49,,,,,,,,,,,,,,,,,,
1401,0,0.01,0.49,,,,,,,,,,,,,,,,,,
1403,0,0.0,0.49,,-0.01,0.03,0.94,0,-1,-0,0.03,0,1980,0,0.0,0.0,0.0,0.0,0,0,0.0
1405,0,0.0,0.49,,,,,,,,,,,,,,,,,,
1407,0,0.0,0.49,,,,,,,,,,,,,,,,,,
1409,0,0.0,0.49,,,,,,,,,,,,,,,,,,
1411,0,0.0,0.5,,,,,,,,,,,,,,,,,,
1413,0,0.0,0.5,,-0.04,0.1,0.99,0,0,-0,0.11,,,,,,,,,,
1415,0,0.0,0.49,,,,,,,,,,,,,,,,,,
1417,0,0.0,0.49,,,,,,,,,,,,,,,,,,
1419,0,0.0,0.49,,,,,,,,,,,,,,,,,,
1421,0,0.0,0.49,,,,,,,,,,,,,,,,,,
1423,0,0.0,0.49,,-0.17,0.11,0.99,0,-0,-1,0.2,0,1920,0,0.0,0.0,0.0,0.0,0,0,0.0
1425,0,0.0,0.5,,,,,,,,,,,,,,,,,,
1427,0,0.0,0.5,,,,,,,,,,,,,,,,,,
1429,0,0.0,0.5,,,,,,,,,,,,,,,,,,
1431,0,0.0,0.5,,,,,,,,,,,,,,,,,,
1433,0,0.0,0.5,,0.03,0.05,1.04,0,-1,-0,0.06,,,,,,,,,,
1435,0,0.0,0.5,,,,,,,,,,,,,,,,,,
1437,0,0.0,0.5,,,,,,,,,,,,,,,,,,
1439,0,0.0,0.5,,,,,,,,,,,,,,,,,,
1441,0,0.0,0.51,,,,,,,,,,,,,,,,,,
1443,0,0.0,0.5,,-0.09,0.09,1.0,0,1,-0,0.13,0,1980,0,0.0,0.0,0.0,0.0,0,0,0.0
1445,0,0.0,0.5,,,,,,,,,,,,,,,,,,
1447,0,0.0,0.5,,,,,,,,,,,,,,,,,,
1449,0,0.0,0.5,,,,,,,,,,,,,,,,,,
1451,0,0.0,0.5,,,,,,,,,,,,,,,,,,
1453,0,0.0,0.5,,-0.17,0.08,1.02,0,-1,-1,0.19,,,,,,,,,,
1455,0,0.0,0.5,,,,,,,,,,,,,,,,,,
1457,0,0.0,0.5,,,,,,,,,,,,,,,,,,
1459,0,0.0,0.5,,,,,,,,,,,,,,,,,,
1461,0,0.0,0.5,,,,,,,,,,,,,,,,,,
1463,0,0.0,0.5,,-0.02,0.03,0.93,0,-1,-0,0.03,0,1980,0,0.0,0.0,0.0,0.0,0,0,0.0
1465,0,0.0,0.5,,,,,,,,,,,,,,,,,,
1467,0,0.0,0.5,,,,,,,,,,,,,,,,,,
1469,0,0.0,0.5,,,,,,,,,,,,,,,,,,
1471,0,0.0,0.5,,,,,,,,,,,,,,,,,,
1473,0,0.0,0.51,,-0.04,0.12,1.0,0,0,-0,0.13,,,,,,,,,,
1475,0,0.0,0.5,,,,,,,,,,,,,,,,,,
1477,0,0.0,0.5,,,,,,,,,,,,,,,,,,
1479,0,0.0,0.5,,,,,,,,,,,,,,,,,,
1481,0,0.0,0.5,,,,,,,,,,,,,,,,,,
1483,0,0.0,0.5,,-0.2,0.11,0.98,0,-0,-1,0.23,0,1920,0,0.0,0.0,0.0,0.0,0,0,0.0
1485,0,0.0,0.5,,,,,,,,,,,,,,,,,,
1487,0,0.0,0.5,,,,,,,,,,,,,,,,,,
1489,0,0.0,0.5,,,,,,,,,,,,,,,,,,
1491,0,0.0,0.5,,,,,,,,,,,,,,,,,,
1493,0,0.0,0.5,,0.01,0.04,1.06,0,-1,-0,0.04,,,,,,,,,,
1495,0,0.0,0.5,,,,,,,,,,,,,,,,,,
1497,0,0.0,0.5,,,,,,,,,,,,,,,,,,
1499,0,0.0,0.51,,,,,,,,,,,,,,,,,,
1501,0,0.0,0.51,,,,,,,,,,,,,,,,,,
1503,0,0.0,0.51,,-0.08,0.08,1.0,-0,1,-0,0.12,0,1980,0,0.0,0.0,0.0,0.0,0,0,0.0
1505,0,0.0,0.51,,,,,,,,,,,,,,,,,,
1507,0,0.0,0.51,,,,,,,,,,,,,,,,,,
1509,0,0.0,0.51,,,,,,,,,,,,,,,,,,
1511,0,0.0,0.5,,,,,,,,,,,,,,,,,,
1513,0,0.0,0.51,,-0.16,0.08,1.02,0,-1,-1,0.17,,,,,,,,,,
1515,0,0.0,0.51,,,,,,,,,,,,,,,,,,
1517,0,0.0,0.51,,,,,,,,,,,,,,,,,,
1519,0,0.0,0.51,,,,,,,,,,,,,,,,,,
1521,0,0.0,0.51,,,,,,,,,,,,,,,,,,
1523,0,0.0,0.51,,-0.03,0.04,0.95,0,-1,-0,0.05,0,1980,0,0.0,0.0,0.0,0.0,0,0,0.0
1525,0,0.0,0.51,,,,,,,,,,,,,,,,,,
1527,0,0.0,0.51,,,,,,,,,,,,,,,,,,
1529,0,0.0,0.51,,,,,,,,,,,,,,,,,,
1531,0,0.01,0.51,,,,,,,,,,,,,,,,,,
1533,0,0.0,0.52,,-0.04,0.12,1.03,0,0,-0,0.12,,,,,,,,,,
1535,0,0.0,0.51,,,,,,,,,,,,,,,,,,
1537,0,0.0,0.51,,,,,,,,,,,,,,,,,,
1539,0,0.0,0.51,,,,,,,,,,,,,,,,,,
1541,0,0.0,0.51,,,,,,,,,,,,,,,,,,
1543,0,0.0,0.51,,-0.22,0.09,0.97,0,-1,-1,0.24,0,1920,0,0.0,0.0,0.0,0.0,0,0,0.0
1545,0,0.0,0.51,,,,,,,,,,,,,,,,,,
1547,0,0.0,0.51,,,,,,,,,,,,,,,,,,
1549,0,0.0,0.51,,,,,,,,,,,,,,,,,,
1551,0,0.0,0.51,,,,,,,,,,,,,,,,,,
1553,0,0.0,0.51,,-0.01,0.05,1.08,0,-1,-0,0.05,,,,,,,,,,
1555,0,0.0,0.51,,,,,,,,,,,,,,,,,,
1557,0,0.0,0.51,,,,,,,,,,,,,,,,,,
1559,0,0.0,0.51,,,,,,,,,,,,,,,,,,
1561,0,0.0,0.51,,,,,,,,,,,,,,,,,,
1563,0,0.0,0.53,,-0.08,0.09,0.97,-0,1,-1,0.12,0,1980,0,0.0,0.0,0.0,0.0,0,0,0.0
1565,0,0.0,0.52,,,,,,,,,,,,,,,,,,
1567,0,0.0,0.51,,,,,,,,,,,,,,,,,,
1569,0,0.0,0.51,,,,,,,,,,,,,,,,,,
1571,0,0.0,0.51,,,,,,,,,,,,,,,,,,
1573,0,0.0,0.51,,-0.15,0.08,0.98,0,-1,-1,0.17,,,,,,,,,,
1575,0,0.0,0.52,,,,,,,,,,,,,,,,,,
1577,0,0.0,0.52,,,,,,,,,,,,,,,,,,
1579,0,0.0,0.52,,,,,,,,,,,,,,,,,,
1581,0,0.0,0.52,,,,,,,,,,,,,,,,,,
1583,0,0.0,0.52,,-0.03,0.05,0.96,0,-1,-0,0.06,0,1980,0,0.0,0.0,0.0,0.0,0,0,0.0
1585,0,0.0,0.52,,,,,,,,,,,,,,,,,,
1587,0,0.0,0.52,,,,,,,,,,,,,,,,,,
1589,0,0.0,0.52,,,,,,,,,,,,,,,,,,
1591,0,0.0,0.52,,,,,,,,,,,,,,,,,,
1593,0,0.0,0.53,,-0.04,0.13,1.03,0,0,-1,0.14,,,,,,,,,,
1595,0,0.0,0.52,,,,,,,,,,,,,,,,,,
1597,0,0.0,0.52,,,,,,,,,,,,,,,,,,
1599,0,0.0,0.52,,,,,,,,,,,,,,,,,,
1601,0,0.0,0.52,,,,,,,,,,,,,,,,,,
1603,0,0.0,0.52,,-0.23,0.08,0.97,0,-1,-1,0.24,0,1920,0,0.0,0.0,0.0,0.0,0,0,0.0
1605,0,0.0,0.52,,,,,,,,,,,,,,,,,,
1607,0,0.0,0.52,,,,,,,,,,,,,,,,,,
1609,0,0.0,0.52,,,,,,,,,,,,,,,,,,
1611,0,0.0,0.52,,,,,,,,,,,,,,,,,,
1613,0,0.0,0.52,,-0.03,0.05,1.09,0,-1,-0,0.06,,,,,,,,,,
1615,0,0.0,0.52,,,,,,,,,,,,,,,,,,
1617,0,0.0,0.52,,,,,,,,,,,,,,,,,,
1619,0,0.0,0.52,,,,,,,,,,,,,,,,,,
1621,0,0.0,0.52,,,,,,,,,,,,,,,,,,
1623,0,0.0,0.53,,-0.07,0.09,0.97,-0,1,-0,0.11,0,1980,0,0.0,0.0,0.0,0.0,0,0,0.0
1625,0,0.0,0.52,,,,,,,,,,,,,,,,,,
1627,0,0.0,0.52,,,,,,,,,,,,,,,,,,
1629,0,0.0,0.52,,,,,,,,,,,,,,,,,,
1631,0,0.0,0.52,,,,,,,,,,,,,,,,,,
1633,0,0.0,0.52,,-0.14,0.08,0.96,0,-1,-1,0.16,,,,,,,,,,
1635,0,0.0,0.52,,,,,,,,,,,,,,,,,,
1637,0,0.0,0.52,,,,,,,,,,,,,,,,,,
1639,0,0.0,0.52,,,,,,,,,,,,,,,,,,
1641,0,0.0,0.52,,,,,,,,,,,,,,,,,,
1643,0,0.0,0.52,,-0.04,0.05,0.97,0,-1,-0,0.07,0,1980,0,0.0,0.0,0.0,0.0,0,0,0.0
1645,0,0.0,0.53,,,,,,,,,,,,,,,,,,
1647,0,0.0,0.53,,,,,,,,,,,,,,,,,,
1649,0,0.0,0.53,,,,,,,,,,,,,,,,,,
1651,0,0.0,0.53,,,,,,,,,,,,,,,,,,
1653,0,0.0,0.52,,-0.03,0.13,1.02,-0,0,-1,0.13,,,,,,,,,,
1655,0,0.0,0.53,,,,,,,,,,,,,,,,,,
1657,0,0.0,0.53,,,,,,,,,,,,,,,,,,
1659,0,0.0,0.53,,,,,,,,,,,,,,,,,,
1661,0,0.0,0.52,,,,,,,,,,,,,,,,,,
1663,0,0.0,0.52,,-0.21,0.07,0.94,0,-1,-1,0.22,0,1920,0,0.0,0.0,0.0,0.0,0,0,0.0
1665,0,0.0,0.53,,,,,,,,,,,,,,,,,,
1667,0,0.0,0.53,,,,,,,,,,,,,,,,,,
1669,0,0.0,0.53,,,,,,,,,,,,,,,,,,
1671,0,0.0,0.53,,,,,,,,,,,,,,,,,,
1673,0,0.0,0.53,,-0.05,0.03,1.08,0,-1,-0,0.06,,,,,,,,,,
1675,0,0.0,0.53,,,,,,,,,,,,,,,,,,
1677,0,0.0,0.53,,,,,,,,,,,,,,,,,,
1679,0,0.0,0.53,,,,,,,,,,,,,,,,,,
1681,0,0.0,0.53,,,,,,,,,,,,,,,,,,
1683,0,0.0,0.53,,-0.04,0.09,0.98,-0,0,-0,0.09,0,1920,0,0.0,0.0,0.0,0.0,0,0,0.0
1685,0,0.0,0.54,,,,,,,,,,,,,,,,,,
1687,0,0.0,0.53,,,,,,,,,,,,,,,,,,
1689,0,0.0,0.53,,,,,,,,,,,,,,,,,,
1691,0,0.0,0.53,,,,,,,,,,,,,,,,,,
1693,0,0.0,0.53,,-0.13,0.09,0.94,0,-1,-1,0.16,,,,,,,,,,
1695,0,0.0,0.53,,,,,,,,,,,,,,,,,,
1697,0,0.0,0.53,,,,,,,,,,,,,,,,,,
1699,0,0.0,0.53,,,,,,,,,,,,,,,,,,
1701,0,0.0,0.53,,,,,,,,,,,,,,,,,,
1703,0,0.0,0.53,,-0.05,0.06,0.97,0,-1,-0,0.08,0,1980,0,0.0,0.0,0.0,0.0,0,0,0.0
1705,0,0.0,0.53,,,,,,,,,,,,,,,,,,
1707,0,0.0,0.53,,,,,,,,,,,,,,,,,,
1709,0,0.0,0.53,,,,,,,,,,,,,,,,,,
1711,0,0.0,0.53,,,,,,,,,,,,,,,,,,
1713,0,0.0,0.53,,-0.02,0.12,1.03,-0,0,-1,0.12,,,,,,,,,,
1715,0,0.0,0.55,,,,,,,,,,,,,,,,,,
1717,0,0.0,0.54,,,,,,,,,,,,,,,,,,
1719,0,0.0,0.54,,,,,,,,,,,,,,,,,,
1721,0,0.0,0.54,,,,,,,,,,,,,,,,,,
1723,0,0.0,0.53,,-0.19,0.08,0.93,0,-1,-1,0.21,0,1920,0,0.0,0.0,0.0,0.0,0,0,0.0
1725,0,0.0,0.53,,,,,,,,,,,,,,,,,,
1727,0,0.0,0.53,,,,,,,,,,,,,,,,,,
1729,0,0.0,0.54,,,,,,,,,,,,,,,,,,
1731,0,0.0,0.53,,,,,,,,,,,,,,,,,,
1733,0,0.0,0.53,,-0.05,0.04,1.1,0,-1,-0,0.06,,,,,,,,,,
1735,0,0.0,0.54,,,,,,,,,,,,,,,,,,
1737,0,0.0,0.54,,,,,,,,,,,,,,,,,,
1739,0,0.0,0.54,,,,,,,,,,,,,,,,,,
1741,0,0.0,0.54,,,,,,,,,,,,,,,,,,
1743,0,0.0,0.54,,-0.02,0.08,0.99,-0,-0,-0,0.08,0,1920,0,0.0,0.0,0.0,0.0,0,0,0.0
1745,0,0.0,0.55,,,,,,,,,,,,,,,,,,
1747,0,0.0,0.54,,,,,,,,,,,,,,,,,,
1749,0,0.0,0.54,,,,,,,,,,,,,,,,,,
1751,0,0.0,0.54,,,,,,,,,,,,,,,,,,
1753,0,0.0,0.54,,-0.13,0.09,0.93,0,-0,-1,0.15,,,,,,,,,,
1755,0,0.0,0.54,,,,,,,,,,,,,,,,,,
1757,0,0.0,0.54,,,,,,,,,,,,,,,,,,
1759,0,0.0,0.54,,,,,,,,,,,,,,,,,,
1761,0,0.0,0.54,,,,,,,,,,,,,,,,,,
1763,0,0.0,0.54,,-0.08,0.07,1.0,0,-0,-0,0.11,0,1980,0,0.0,0.0,0.0,0.0,0,0,0.0
1765,0,0.0,0.54,,,,,,,,,,,,,,,,,,
1767,0,0.0,0.54,,,,,,,,,,,,,,,,,,
1769,0,0.0,0.54,,,,,,,,,,,,,,,,,,
1771,0,0.0,0.54,,,,,,,,,,,,,,,,,,
1773,0,0.0,0.54,,-0.01,0.12,1.03,-0,0,-1,0.12,,,,,,,,,,
1775,0,0.0,0.55,,,,,,,,,,,,,,,,,,
1777,0,0.0,0.54,,,,,,,,,,,,,,,,,,
1779,0,0.0,0.54,,,,,,,,,,,,,,,,,,
1781,0,0.0,0.54,,,,,,,,,,,,,,,,,,
1783,0,0.0,0.54,,-0.15,0.07,0.92,0,-1,-1,0.17,0,1920,0,0.0,0.0,0.0,0.0,0,0,0.0
1785,0,0.0,0.54,,,,,,,,,,,,,,,,,,
1787,0,0.0,0.54,,,,,,,,,,,,,,,,,,
1789,0,0.0,0.54,,,,,,,,,,,,,,,,,,
1791,0,0.0,0.54,,,,,,,,,,,,,,,,,,
1793,0,0.0,0.54,,-0.06,0.04,1.11,0,-0,-0,0.07,,,,,,,,,,
1795,0,0.0,0.54,,,,,,,,,,,,,,,,,,
1797,0,0.0,0.55,,,,,,,,,,,,,,,,,,
1799,0,0.0,0.55,,,,,,,,,,,,,,,,,,
1801,0,0.0,0.55,,,,,,,,,,,,,,,,,,
1803,0,0.0,0.55,,-0.01,0.08,1.0,-0,-0,-0,0.08,0,1920,0,0.0,0.0,0.0,0.0,0,0,0.0
1805,0,0.0,0.56,,,,,,,,,,,,,,,,,,
1807,0,0.0,0.55,,,,,,,,,,,,,,,,,,
1809,0,0.0,0.55,,,,,,,,,,,,,,,,,,
1811,0,0.0,0.55,,,,,,,,,,,,,,,,,,
1813,0,0.0,0.55,,-0.12,0.09,0.93,0,-0,-1,0.16,,,,,,,,,,
1815,0,0.0,0.55,,,,,,,,,,,,,,,,,,
1817,0,0.0,0.54,,,,,,,,,,,,,,,,,,
1819,0,0.0,0.55,,,,,,,,,,,,,,,,,,
1821,0,0.0,0.54,,,,,,,,,,,,,,,,,,
1823,0,0.0,0.55,,-0.1,0.08,1.02,0,-0,-0,0.13,0,1980,0,0.0,0.0,0.0,0.0,0,0,0.0
1825,0,0.0,0.55,,,,,,,,,,,,,,,,,,
1827,0,0.0,0.55,,,,,,,,,,,,,,,,,,
1829,0,0.0,0.55,,,,,,,,,,,,,,,,,,
1831,0,0.0,0.55,,,,,,,,,,,,,,,,,,
1833,0,0.0,0.55,,-0.01,0.1,1.01,-0,0,-0,0.1,,,,,,,,,,
1835,0,0.0,0.55,,,,,,,,,,,,,,,,,,
1837,0,0.0,0.55,,,,,,,,,,,,,,,,,,
1839,0,0.0,0.55,,,,,,,,,,,,,,,,,,
1841,0,0.0,0.55,,,,,,,,,,,,,,,,,,
1843,0,0.0,0.55,,-0.15,0.07,0.94,0,-1,-1,0.16,0,1920,0,0.0,0.0,0.0,0.0,0,0,0.0
1845,0,0.0,0.55,,,,,,,,,,,,,,,,,,
1847,0,0.0,0.55,,,,,,,,,,,,,,,,,,
1849,0,0.0,0.55,,,,,,,,,,,,,,,,,,
1851,0,0.0,0.55,,,,,,,,,,,,,,,,,,
1853,0,0.0,0.55,,-0.07,0.05,1.06,0,-0,-0,0.08,,,,,,,,,,
1855,0,0.0,0.55,,,,,,,,,,,,,,,,,,
1857,0,0.0,0.55,,,,,,,,,,,,,,,,,,
1859,0,0.0,0.56,,,,,,,,,,,,,,,,,,
1861,0,0.0,0.55,,,,,,,,,,,,,,,,,,
1863,0,0.0,0.55,,-0.0,0.08,0.98,-0,-0,-0,0.08,0,1920,0,0.0,0.0,0.0,0.0,0,0,0.0
1865,0,0.0,0.55,,,,,,,,,,,,,,,,,,
1867,0,0.0,0.56,,,,,,,,,,,,,,,,,,
1869,0,0.0,0.55,,,,,,,,,,,,,,,,,,
1871,0,0.0,0.55,,,,,,,,,,,,,,,,,,
1873,0,0.0,0.55,,-0.12,0.1,0.94,0,-0,-1,0.16,,,,,,,,,,
1875,0,0.0,0.55,,,,,,,,,,,,,,,,,,
1877,0,0.0,0.55,,,,,,,,,,,,,,,,,,
1879,0,0.0,0.55,,,,,,,,,,,,,,,,,,
1881,0,0.0,0.55,,,,,,,,,,,,,,,,,,
1883,0,0.0,0.55,,-0.12,0.09,1.03,0,-0,-0,0.15,0,1980,0,0.0,0.0,0.0,0.0,0,0,0.0
1885,0,0.0,0.55,,,,,,,,,,,,,,,,,,
1887,0,0.0,0.56,,,,,,,,,,,,,,,,,,
1889,0,0.0,0.56,,,,,,,,,,,,,,,,,,
1891,0,0.0,0.56,,,,,,,,,,,,,,,,,,
1893,0,0.0,0.56,,-0.01,0.09,1.0,-0,0,-0,0.09,,,,,,,,,,
1895,0,0.0,0.56,,,,,,,,,,,,,,,,,,
1897,0,0.0,0.57,,,,,,,,,,,,,,,,,,
1899,0,0.0,0.56,,,,,,,,,,,,,,,,,,
1901,0,0.0,0.56,,,,,,,,,,,,,,,,,,
1903,0,0.0,0.56,,-0.12,0.07,0.94,0,-1,-1,0.14,0,1920,0,0.0,0.0,0.0,0.0,0,0,0.0
1905,0,0.0,0.56,,,,,,,,,,,,,,,,,,
1907,0,0.0,0.56,,,,,,,,,,,,,,,,,,
1909,0,0.0,0.56,,,,,,,,,,,,,,,,,,
1911,0,0.0,0.56,,,,,,,,,,,,,,,,,,
1913,0,0.0,0.56,,-0.07,0.06,1.04,0,-0,-0,0.09,,,,,,,,,,
1915,0,0.0,0.56,,,,,,,,,,,,,,,,,,
1917,0,0.0,0.56,,,,,,,,,,,,,,,,,,
1919,0,0.0,0.56,,,,,,,,,,,,,,,,,,
1921,0,0.0,0.56,,,,,,,,,,,,,,,,,,
1923,0,0.0,0.56,,0.02,0.08,0.97,-0,-0,-0,0.08,0,1920,0,0.0,0.0,0.0,0.0,0,0,0.0
1925,0,0.0,0.56,,,,,,,,,,,,,,,,,,
1927,0,0.0,0.57,,,,,,,,,,,,,,,,,,
1929,0,0.0,0.56,,,,,,,,,,,,,,,,,,
1931,0,0.0,0.56,,,,,,,,,,,,,,,,,,
1933,0,0.0,0.56,,-0.13,0.1,0.93,0,0,-1,0.17,,,,,,,,,,
1935,0,0.0,0.56,,,,,,,,,,,,,,,,,,
1937,0,0.0,0.56,,,,,,,,,,,,,,,,,,
1939,0,0.0,0.56,,,,,,,,,,,,,,,,,,
1941,0,0.0,0.56,,,,,,,,,,,,,,,,,,
1943,0,0.0,0.56,,-0.13,0.09,1.04,0,-0,-0,0.16,0,1980,0,0.0,0.0,0.0,0.0,0,0,0.0
1945,0,0.0,0.56,,,,,,,,,,,,,,,,,,
1947,0,0.0,0.56,,,,,,,,,,,,,,,,,,
1949,0,0.0,0.56,,,,,,,,,,,,,,,,,,
1951,0,0.0,0.57,,,,,,,,,,,,,,,,,,
1953,0,0.0,0.56,,-0.01,0.07,1.0,-0,-0,-0,0.07,,,,,,,,,,
1955,0,0.0,0.56,,,,,,,,,,,,,,,,,,
1957,0,0.0,0.57,,,,,,,,,,,,,,,,,,
1959,0,0.0,0.56,,,,,,,,,,,,,,,,,,
1961,0,0.0,0.57,,,,,,,,,,,,,,,,,,
1963,0,0.0,0.57,,-0.11,0.07,0.95,0,-1,-1,0.13,0,1920,0,0.0,0.0,0.0,0.0,0,0,0.0
1965,0,0.0,0.57,,,,,,,,,,,,,,,,,,
1967,0,0.0,0.56,,,,,,,,,,,,,,,,,,
1969,0,0.0,0.56,,,,,,,,,,,,,,,,,,
1971,0,0.0,0.56,,,,,,,,,,,,,,,,,,
1973,0,0.0,0.56,,-0.05,0.08,1.03,0,0,-0,0.09,,,,,,,,,,
1975,0,0.0,0.56,,,,,,,,,,,,,,,,,,
1977,0,0.0,0.57,,,,,,,,,,,,,,,,,,
1979,0,0.0,0.57,,,,,,,,,,,,,,,,,,
1981,0,0.0,0.57,,,,,,,,,,,,,,,,,,
1983,0,0.0,0.57,,0.03,0.08,0.99,-0,-1,-0,0.08,0,1920,0,0.0,0.0,0.0,0.0,0,0,0.0
1985,0,0.0,0.57,,,,,,,,,,,,,,,,,,
1987,0,0.0,0.58,,,,,,,,,,,,,,,,,,
1989,0,0.0,0.57,,,,,,,,,,,,,,,,,,
1991,0,0.0,0.57,,,,,,,,,,,,,,,,,,
1993,0,0.0,0.57,,-0.13,0.1,0.96,0,1,-1,0.17,,,,,,,,,,
1995,0,0.0,0.57,,,,,,,,,,,,,,,,,,
1997,0,0.0,0.57,,,,,,,,,,,,,,,,,,
1999,0,0.0,0.57,,,,,,,,,,,,,,,,,,
2001,0,0.0,0.57,,,,,,,,,,,,,,,,,,
2003,0,0.0,0.57,,-0.14,0.1,1.04,0,-0,-0,0.17,0,1980,0,0.0,0.0,0.0,0.0,0,0,0.0
2005,0,0.0,0.57,,,,,,,,,,,,,,,,,,
2007,0,0.0,0.57,,,,,,,,,,,,,,,,,,
2009,0,0.0,0.57,,,,,,,,,,,,,,,,,,
2011,0,0.0,0.57,,,,,,,,,,,,,,,,,,
2013,0,0.0,0.57,,-0.01,0.06,0.97,-0,-0,-0,0.07,,,,,,,,,,
2015,0,0.0,0.57,,,,,,,,,,,,,,,,,,
2017,0,0.0,0.57,,,,,,,,,,,,,,,,,,
2019,0,0.0,0.58,,,,,,,,,,,,,,,,,,
2021,0,0.0,0.57,,,,,,,,,,,,,,,,,,
2023,0,0.0,0.57,,-0.09,0.09,0.97,0,-1,-1,0.12,0,1920,0,0.0,0.0,0.0,0.0,0,0,0.0
2025,0,0.0,0.57,,,,,,,,,,,,,,,,,,
2027,0,0.0,0.57,,,,,,,,,,,,,,,,,,
2029,0,0.0,0.57,,,,,,,,,,,,,,,,,,
2031,0,0.0,0.57,,,,,,,,,,,,,,,,,,
2033,0,0.0,0.57,,-0.05,0.09,0.98,0,0,-0,0.1,,,,,,,,,,
2035,0,0.0,0.57,,,,,,,,,,,,,,,,,,
2037,0,0.0,0.57,,,,,,,,,,,,,,,,,,
2039,0,0.0,0.58,,,,,,,,,,,,,,,,,,
2041,0,0.0,0.58,,,,,,,,,,,,,,,,,,
2043,0,0.0,0.57,13.44,0.03,0.08,0.99,-0,-1,-0,0.08,0,1920,0,0.0,0.0,0.0,0.0,0,0,0.0
2045,0,0.0,0.58,,,,,,,,,,,,,,,,,,
2047,0,0.0,0.58,,,,,,,,,,,,,,,,,,
2049,0,0.0,0.59,,,,,,,,,,,,,,,,,,
2051,0,0.0,0.58,,,,,,,,,,,,,,,,,,
2053,0,0.0,0.58,,-0.12,0.11,0.97,0,1,-1,0.16,,,,,,,,,,
2055,0,0.0,0.58,,,,,,,,,,,,,,,,,,
2057,0,0.0,0.58,,,,,,,,,,,,,,,,,,
2059,0,0.0,0.58,,,,,,,,,,,,,,,,,,
2061,0,0.0,0.58,,,,,,,,,,,,,,,,,,
2063,0,0.0,0.57,,-0.14,0.1,1.04,0,-0,-1,0.17,0,1980,0,0.0,0.0,0.0,0.0,0,0,0.0
2065,0,0.0,0.58,,,,,,,,,,,,,,,,,,
2067,0,0.0,0.58,,,,,,,,,,,,,,,,,,
2069,0,0.0,0.58,,,,,,,,,,,,,,,,,,
2071,0,0.0,0.58,,,,,,,,,,,,,,,,,,
2073,0,0.0,0.58,,-0.0,0.05,0.94,-0,-1,-0,0.05,,,,,,,,,,
2075,0,0.0,0.58,,,,,,,,,,,,,,,,,,
2077,0,0.0,0.58,,,,,,,,,,,,,,,,,,
2079,0,0.0,0.59,,,,,,,,,,,,,,,,,,
2081,0,0.0,0.58,,,,,,,,,,,,,,,,,,
2083,0,0.0,0.58,,-0.07,0.09,0.98,0,-0,-1,0.12,0,1920,0,0.0,0.0,0.0,0.0,0,0,0.0
2085,0,0.0,0.58,,,,,,,,,,,,,,,,,,
2087,0,0.0,0.58,,,,,,,,,,,,,,,,,,
2089,0,0.0,0.58,,,,,,,,,,,,,,,,,,
2091,0,0.0,0.58,,,,,,,,,,,,,,,,,,
2093,0,0.0,0.58,,-0.09,0.1,0.96,0,0,-1,0.14,,,,,,,,,,
2095,0,0.0,0.58,,,,,,,,,,,,,,,,,,
2097,0,0.0,0.58,,,,,,,,,,,,,,,,,,
2099,0,0.0,0.58,,,,,,,,,,,,,,,,,,
2101,0,0.0,0.58,,,,,,,,,,,,,,,,,,
2103,0,0.0,0.58,,0.03,0.07,1.02,-0,-1,-0,0.08,0,1920,0,0.0,0.0,0.0,0.0,0,0,0.0
2105,0,0.0,0.58,,,,,,,,,,,,,,,,,,
2107,0,0.0,0.58,,,,,,,,,,,,,,,,,,
2109,0,0.0,0.59,,,,,,,,,,,,,,,,,,
2111,0,0.0,0.58,,,,,,,,,,,,,,,,,,
2113,0,0.0,0.58,,-0.1,0.09,0.96,0,1,-1,0.14,,,,,,,,,,
2115,0,0.0,0.58,,,,,,,,,,,,,,,,,,
2117,0,0.0,0.58,,,,,,,,,,,,,,,,,,
2119,0,0.0,0.58,,,,,,,,,,,,,,,,,,
2121,0,0.0,0.58,,,,,,,,,,,,,,,,,,
2123,0,0.0,0.58,,-0.16,0.09,1.03,0,-0,-1,0.18,0,1920,0,0.0,0.0,0.0,0.0,0,0,0.0
2125,0,0.0,0.58,,,,,,,,,,,,,,,,,,
2127,0,0.0,0.58,,,,,,,,,,,,,,,,,,
2129,0,0.0,0.58,,,,,,,,,,,,,,,,,,
2131,0,0.0,0.59,,,,,,,,,,,,,,,,,,
2133,0,0.0,0.58,,-0.01,0.04,0.94,0,-1,-0,0.04,,,,,,,,,,
2135,0,0.0,0.59,,,,,,,,,,,,,,,,,,
2137,0,0.0,0.59,,,,,,,,,,,,,,,,,,
2139,0,0.0,0.59,,,,,,,,,,,,,,,,,,
2141,0,0.0,0.6,,,,,,,,,,,,,,,,,,
2143,0,0.0,0.59,,-0.05,0.1,0.98,0,-0,-1,0.11,0,1920,0,0.0,0.0,0.0,0.0,0,0,0.0
2145,0,0.0,0.59,,,,,,,,,,,,,,,,,,
2147,0,0.0,0.59,,,,,,,,,,,,,,,,,,
2149,0,0.0,0.59,,,,,,,,,,,,,,,,,,
2151,0,0.0,0.59,,,,,,,,,,,,,,,,,,
2153,0,0.0,0.59,,-0.13,0.11,0.96,0,-0,-1,0.17,,,,,,,,,,
2155,0,0.0,0.59,,,,,,,,,,,,,,,,,,
2157,0,0.0,0.59,,,,,,,,,,,,,,,,,,
2159,0,0.0,0.58,,,,,,,,,,,,,,,,,,
2161,0,0.0,0.59,,,,,,,,,,,,,,,,,,
2163,0,0.0,0.59,,0.03,0.05,1.04,0,-1,-0,0.06,0,1920,0,0.0,0.0,0.0,0.0,0,0,0.0
2165,0,0.0,0.59,,,,,,,,,,,,,,,,,,
2167,0,0.0,0.59,,,,,,,,,,,,,,,,,,
2169,0,0.0,0.59,,,,,,,,,,,,,,,,,,
2171,0,0.0,0.6,,,,,,,,,,,,,,,,,,
2173,0,0.0,0.59,,-0.07,0.09,0.94,0,1,-1,0.12,,,,,,,,,,
2175,0,0.0,0.59,,,,,,,,,,,,,,,,,,
2177,0,0.0,0.59,,,,,,,,,,,,,,,,,,
2179,0,0.0,0.59,,,,,,,,,,,,,,,,,,
2181,0,0.0,0.59,,,,,,,,,,,,,,,,,,
2183,0,0.0,0.59,,-0.16,0.09,1.01,0,-0,-1,0.19,0,1980,0,0.0,0.0,0.0,0.0,0,0,0.0
2185,0,0.0,0.59,,,,,,,,,,,,,,,,,,
2187,0,0.0,0.59,,,,,,,,,,,,,,,,,,
2189,0,0.0,0.59,,,,,,,,,,,,,,,,,,
2191,0,0.0,0.59,,,,,,,,,,,,,,,,,,
2193,0,0.0,0.59,,-0.02,0.03,0.95,0,-1,-0,0.03,,,,,,,,,,
2195,0,0.0,0.59,,,,,,,,,,,,,,,,,,
2197,0,0.0,0.59,,,,,,,,,,,,,,,,,,
2199,0,0.0,0.59,,,,,,,,,,,,,,,,,,
2201,0,0.0,0.6,,,,,,,,,,,,,,,,,,
2203,0,0.0,0.59,,-0.05,0.12,1.0,0,0,-0,0.13,0,1920,0,0.0,0.0,0.0,0.0,0,0,0.0
2205,0,0.0,0.59,,,,,,,,,,,,,,,,,,
2207,0,0.0,0.59,,,,,,,,,,,,,,,,,,
2209,0,0.0,0.59,,,,,,,,,,,,,,,,,,
2211,0,0.0,0.6,,,,,,,,,,,,,,,,,,
2213,0,0.0,0.59,,-0.2,0.11,0.99,0,-1,-1,0.23,,,,,,,,,,
2215,0,0.0,0.59,,,,,,,,,,,,,,,,,,
2217,0,0.0,0.59,,,,,,,,,,,,,,,,,,
2219,0,0.0,0.59,,,,,,,,,,,,,,,,,,
2221,0,0.0,0.59,,,,,,,,,,,,,,,,,,
2223,0,0.0,0.6,,0.02,0.04,1.1,0,-1,-0,0.05,0,1920,0,0.0,0.0,0.0,0.0,0,0,0.0
2225,0,0.0,0.6,,,,,,,,,,,,,,,,,,
2227,0,0.0,0.6,,,,,,,,,,,,,,,,,,
2229,0,0.0,0.6,,,,,,,,,,,,,,,,,,
2231,0,0.0,0.61,,,,,,,,,,,,,,,,,,
2233,0,0.0,0.6,,-0.08,0.09,0.96,-0,1,-1,0.12,,,,,,,,,,
2235,0,0.0,0.6,,,,,,,,,,,,,,,,,,
2237,0,0.0,0.6,,,,,,,,,,,,,,,,,,
2239,0,0.0,0.6,,,,,,,,,,,,,,,,,,
2241,0,0.0,0.6,,,,,,,,,,,,,,,,,,
2243,0,0.0,0.6,,-0.17,0.08,1.02,0,-1,-0,0.19,0,1980,0,0.0,0.0,0.0,0.0,0,0,0.0
2245,0,0.0,0.6,,,,,,,,,,,,,,,,,,
2247,0,0.0,0.6,,,,,,,,,,,,,,,,,,
2249,0,0.0,0.6,,,,,,,,,,,,,,,,,,
2251,0,0.0,0.6,,,,,,,,,,,,,,,,,,
2253,0,0.0,0.6,,-0.03,0.03,0.95,0,-1,-0,0.04,,,,,,,,,,
2255,0,0.0,0.6,,,,,,,,,,,,,,,,,,
2257,0,0.0,0.6,,,,,,,,,,,,,,,,,,
2259,0,0.0,0.6,,,,,,,,,,,,,,,,,,
2261,0,0.0,0.6,,,,,,,,,,,,,,,,,,
2263,0,0.0,0.61,,-0.04,0.13,1.02,0,0,-1,0.13,0,1920,0,0.0,0.0,0.0,0.0,0,0,0.0
2265,0,0.0,0.6,,,,,,,,,,,,,,,,,,
2267,0,0.0,0.6,,,,,,,,,,,,,,,,,,
2269,0,0.0,0.6,,,,,,,,,,,,,,,,,,
2271,0,0.0,0.6,,,,,,,,,,,,,,,,,,
2273,0,0.0,0.61,,-0.22,0.09,0.96,0,-1,-1,0.23,,,,,,,,,,
2275,0,0.0,0.6,,,,,,,,,,,,,,,,,,
2277,0,0.0,0.6,,,,,,,,,,,,,,,,,,
2279,0,0.0,0.6,,,,,,,,,,,,,,,,,,
2281,0,0.0,0.6,,,,,,,,,,,,,,,,,,
2283,0,0.0,0.6,,-0.03,0.03,1.06,0,-1,-1,0.04,0,1920,0,0.0,0.0,0.0,0.0,0,0,0.0
2285,0,0.0,0.6,,,,,,,,,,,,,,,,,,
2287,0,0.0,0.6,,,,,,,,,,,,,,,,,,
2289,0,0.0,0.6,,,,,,,,,,,,,,,,,,
2291,0,0.0,0.6,,,,,,,,,,,,,,,,,,
2293,0,0.0,0.62,,-0.07,0.09,0.96,-0,0,-1,0.11,,,,,,,,,,
2295,0,0.0,0.61,,,,,,,,,,,,,,,,,,
2297,0,0.0,0.6,,,,,,,,,,,,,,,,,,
2299,0,0.0,0.6,,,,,,,,,,,,,,,,,,
2301,0,0.0,0.61,,,,,,,,,,,,,,,,,,
2303,0,0.0,0.6,,-0.17,0.08,0.99,0,-1,-1,0.18,0,1980,0,0.0,0.0,0.0,0.0,0,0,0.0
2305,0,0.0,0.6,,,,,,,,,,,,,,,,,,
2307,0,0.0,0.6,,,,,,,,,,,,,,,,,,
2309,0,0.0,0.6,,,,,,,,,,,,,,,,,,
2311,0,0.0,0.6,,,,,,,,,,,,,,,,,,
2313,0,0.0,0.61,,-0.05,0.04,0.96,0,-1,-0,0.06,,,,,,,,,,
2315,0,0.0,0.61,,,,,,,,,,,,,,,,,,
2317,0,0.0,0.61,,,,,,,,,,,,,,,,,,
2319,0,0.0,0.61,,,,,,,,,,,,,,,,,,
2321,0,0.0,0.61,,,,,,,,,,,,,,,,,,
2323,0,0.0,0.62,,-0.02,0.14,1.04,-0,1,-1,0.14,0,1920,0,0.0,0.0,0.0,0.0,0,0,0.0
2325,0,0.0,0.61,,,,,,,,,,,,,,,,,,
2327,0,0.0,0.61,,,,,,,,,,,,,,,,,,
2329,0,0.0,0.61,,,,,,,,,,,,,,,,,,
2331,0,0.0,0.61,,,,,,,,,,,,,,,,,,
2333,0,0.0,0.61,,-0.22,0.08,0.95,0,-1,-1,0.24,,,,,,,,,,
2335,0,0.0,0.61,,,,,,,,,,,,,,,,,,
2337,0,0.0,0.61,,,,,,,,,,,,,,,,,,
2339,0,0.0,0.61,,,,,,,,,,,,,,,,,,
2341,0,0.0,0.61,,,,,,,,,,,,,,,,,,
2343,0,0.0,0.61,,-0.06,0.03,1.15,0,-0,-0,0.07,0,1920,0,0.0,0.0,0.0,0.0,0,0,0.0
2345,0,0.0,0.61,,,,,,,,,,,,,,,,,,
2347,0,0.0,0.61,,,,,,,,,,,,,,,,,,
2349,0,0.0,0.61,,,,,,,,,,,,,,,,,,
2351,0,0.0,0.61,,,,,,,,,,,,,,,,,,
2353,0,0.0,0.62,,-0.05,0.09,0.97,-0,0,-0,0.11,,,,,,,,,,
2355,0,0.0,0.61,,,,,,,,,,,,,,,,,,
2357,0,0.0,0.61,,,,,,,,,,,,,,,,,,
2359,0,0.0,0.61,,,,,,,,,,,,,,,,,,
2361,0,0.0,0.61,,,,,,,,,,,,,,,,,,
2363,0,0.0,0.61,,-0.16,0.08,0.99,0,-0,-1,0.18,0,1980,0,0.0,0.0,0.0,0.0,0,0,0.0
2365,0,0.0,0.61,,,,,,,,,,,,,,,,,,
2367,0,0.0,0.61,,,,,,,,,,,,,,,,,,
2369,0,0.0,0.61,,,,,,,,,,,,,,,,,,
2371,0,0.0,0.61,,,,,,,,,,,,,,,,,,
2373,0,0.0,0.61,,-0.06,0.05,0.98,0,-1,-0,0.08,,,,,,,,,,
2375,0,0.0,0.61,,,,,,,,,,,,,,,,,,
2377,0,0.0,0.62,,,,,,,,,,,,,,,,,,
2379,0,0.0,0.62,,,,,,,,,,,,,,,,,,
2381,0,0.0,0.61,,,,,,,,,,,,,,,,,,
2383,0,0.0,0.62,,-0.01,0.13,1.02,-0,1,-1,0.13,0,1980,0,0.0,0.0,0.0,0.0,0,0,0.0
2385,0,0.0,0.63,,,,,,,,,,,,,,,,,,
2387,0,0.0,0.61,,,,,,,,,,,,,,,,,,
2389,0,0.0,0.61,,,,,,,,,,,,,,,,,,
2391,0,0.0,0.61,,,,,,,,,,,,,,,,,,
2393,0,0.0,0.61,,-0.21,0.07,0.96,0,-1,-1,0.22,,,,,,,,,,
2395,0,0.0,0.61,,,,,,,,,,,,,,,,,,
2397,0,0.0,0.61,,,,,,,,,,,,,,,,,,
2399,0,0.0,0.61,,,,,,,,,,,,,,,,,,
2401,0,0.0,0.61,,,,,,,,,,,,,,,,,,
2403,0,0.0,0.61,,-0.07,0.03,1.11,0,-1,-0,0.07,0,1920,0,0.0,0.0,0.0,0.0,0,0,0.0
2405,0,0.0,0.62,,,,,,,,,,,,,,,,,,
2407,0,0.0,0.61,,,,,,,,,,,,,,,,,,
2409,0,0.0,0.62,,,,,,,,,,,,,,,,,,
2411,0,0.0,0.62,,,,,,,,,,,,,,,,,,
2413,0,0.0,0.62,,-0.0,0.09,0.97,-0,-0,-0,0.09,,,,,,,,,,
2415,0,0.0,0.63,,,,,,,,,,,,,,,,,,
2417,0,0.0,0.62,,,,,,,,,,,,,,,,,,
2419,0,0.0,0.62,,,,,,,,,,,,,,,,,,
2421,0,0.0,0.62,,,,,,,,,,,,,,,,,,
2423,0,0.0,0.62,,-0.16,0.09,0.93,0,-1,-0,0.19,0,1980,0,0.0,0.0,0.0,0.0,0,0,0.0
2425,0,0.0,0.62,,,,,,,,,,,,,,,,,,
2427,0,0.0,0.62,,,,,,,,,,,,,,,,,,
2429,0,0.0,0.62,,,,,,,,,,,,,,,,,,
2431,0,0.0,0.62,,,,,,,,,,,,,,,,,,
2433,0,0.0,0.62,,-0.07,0.06,0.99,0,-0,-0,0.09,,,,,,,,,,
2435,0,0.0,0.62,,,,,,,,,,,,,,,,,,
2437,0,0.0,0.62,,,,,,,,,,,,,,,,,,
2439,0,0.0,0.62,,,,,,,,,,,,,,,,,,
2441,0,0.0,0.62,,,,,,,,,,,,,,,,,,
2443,0,0.0,0.62,,-0.0,0.11,1.01,-0,0,-0,0.11,0,1980,0,0.0,0.0,0.0,0.0,0,0,0.0
2445,0,0.0,0.63,,,,,,,,,,,,,,,,,,
2447,0,0.0,0.62,,,,,,,,,,,,,,,,,,
2449,0,0.0,0.62,,,,,,,,,,,,,,,,,,
2451,0,0.0,0.62,,,,,,,,,,,,,,,,,,
2453,0,0.0,0.62,,-0.17,0.07,0.96,0,-1,-1,0.19,,,,,,,,,,
2455,0,0.0,0.62,,,,,,,,,,,,,,,,,,
2457,0,0.0,0.62,,,,,,,,,,,,,,,,,,
2459,0,0.0,0.62,,,,,,,,,,,,,,,,,,
2461,0,0.0,0.62,,,,,,,,,,,,,,,,,,
2463,0,0.0,0.62,,-0.05,0.04,1.06,0,-0,-0,0.06,0,1920,0,0.0,0.0,0.0,0.0,0,0,0.0
2465,0,0.0,0.62,,,,,,,,,,,,,,,,,,
2467,0,0.0,0.63,,,,,,,,,,,,,,,,,,
2469,0,0.0,0.62,,,,,,,,,,,,,,,,,,
2471,0,0.0,0.62,,,,,,,,,,,,,,,,,,
2473,0,0.0,0.62,,0.02,0.09,0.97,-0,-1,-0,0.09,,,,,,,,,,
2475,0,0.0,0.64,,,,,,,,,,,,,,,,,,
2477,0,0.0,0.62,,,,,,,,,,,,,,,,,,
2479,0,0.0,0.63,,,,,,,,,,,,,,,,,,
2481,0,0.0,0.62,,,,,,,,,,,,,,,,,,
2483,0,0.0,0.62,,-0.14,0.09,0.95,0,-0,-1,0.17,0,1980,0,0.0,0.0,0.0,0.0,0,0,0.0
2485,0,0.0,0.63,,,,,,,,,,,,,,,,,,
2487,0,0.0,0.63,,,,,,,,,,,,,,,,,,
2489,0,0.0,0.63,,,,,,,,,,,,,,,,,,
2491,0,0.0,0.63,,,,,,,,,,,,,,,,,,
2493,0,0.0,0.63,,-0.1,0.08,1.02,0,-0,-0,0.12,,,,,,,,,,
2495,0,0.0,0.63,,,,,,,,,,,,,,,,,,
2497,0,0.0,0.63,,,,,,,,,,,,,,,,,,
2499,0,0.0,0.63,,,,,,,,,,,,,,,,,,
2501,0,0.0,0.63,,,,,,,,,,,,,,,,,,
2503,0,0.0,0.63,,-0.0,0.09,1.0,-0,0,-0,0.09,0,1980,0,0.0,0.0,0.0,0.0,0,0,0.0
2505,0,0.0,0.63,,,,,,,,,,,,,,,,,,
2507,0,0.0,0.64,,,,,,,,,,,,,,,,,,
2509,0,0.0,0.63,,,,,,,,,,,,,,,,,,
2511,0,0.0,0.63,,,,,,,,,,,,,,,,,,
2513,0,0.0,0.63,,-0.14,0.07,0.96,0,-1,-1,0.16,,,,,,,,,,
2515,0,0.0,0.63,,,,,,,,,,,,,,,,,,
2517,0,0.0,0.63,,,,,,,,,,,,,,,,,,
2519,0,0.0,0.63,,,,,,,,,,,,,,,,,,
2521,0,0.0,0.63,,,,,,,,,,,,,,,,,,
2523,0,0.0,0.63,,-0.04,0.06,1.05,0,0,-0,0.07,0,1920,0,0.0,0.0,0.0,0.0,0,0,0.0
2525,0,0.0,0.63,,,,,,,,,,,,,,,,,,
2527,0,0.0,0.63,,,,,,,,,,,,,,,,,,
2529,0,0.0,0.63,,,,,,,,,,,,,,,,,,
2531,0,0.0,0.63,,,,,,,,,,,,,,,,,,
2533,0,0.0,0.63,,0.03,0.07,0.97,-0,-1,-0,0.08,,,,,,,,,,
2535,0,0.0,0.63,,,,,,,,,,,,,,,,,,
2537,0,0.0,0.65,,,,,,,,,,,,,,,,,,
2539,0,0.01,0.63,,,,,,,,,,,,,,,,,,
2541,0,0.0,0.63,,,,,,,,,,,,,,,,,,
2543,0,0.0,0.63,,-0.14,0.11,0.95,0,0,-1,0.17,0,1920,0,0.0,0.0,0.0,0.0,0,0,0.0
2545,0,0.0,0.63,,,,,,,,,,,,,,,,,,
2547,0,0.0,0.63,,,,,,,,,,,,,,,,,,
2549,0,0.0,0.63,,,,,,,,,,,,,,,,,,
2551,0,0.0,0.63,,,,,,,,,,,,,,,,,,
2553,0,0.0,0.63,,-0.12,0.09,1.01,0,-0,-0,0.15,,,,,,,,,,
2555,0,0.0,0.63,,,,,,,,,,,,,,,,,,
2557,0,0.0,0.64,,,,,,,,,,,,,,,,,,
2559,0,0.0,0.63,,,,,,,,,,,,,,,,,,
2561,0,0.0,0.63,,,,,,,,,,,,,,,,,,
2563,0,0.0,0.64,,-0.02,0.07,0.99,-0,-0,-0,0.07,0,1920,0,0.0,0.0,0.0,0.0,0,0,0.0
2565,0,0.0,0.63,,,,,,,,,,,,,,,,,,
2567,0,0.0,0.65,,,,,,,,,,,,,,,,,,
2569,0,0.0,0.63,,,,,,,,,,,,,,,,,,
2571,0,0.0,0.63,,,,,,,,,,,,,,,,,,
2573,0,0.0,0.63,,-0.12,0.09,0.95,0,-1,-1,0.15,,,,,,,,,,
2575,0,0.0,0.64,,,,,,,,,,,,,,,,,,
2577,0,0.0,0.64,,,,,,,,,,,,,,,,,,
2579,0,0.0,0.64,,,,,,,,,,,,,,,,,,
2581,0,0.0,0.63,,,,,,,,,,,,,,,,,,
2583,0,0.0,0.63,,-0.03,0.09,0.97,0,0,-0,0.1,0,1920,0,0.0,0.0,0.0,0.0,0,0,0.0
2585,0,0.0,0.63,,,,,,,,,,,,,,,,,,
2587,0,0.0,0.63,,,,,,,,,,,,,,,,,,
2589,0,0.0,0.64,,,,,,,,,,,,,,,,,,
2591,0,0.0,0.64,,,,,,,,,,,,,,,,,,
2593,0,0.0,0.64,,0.02,0.07,0.98,-0,-1,-0,0.07,,,,,,,,,,
2595,0,0.0,0.64,,,,,,,,,,,,,,,,,,
2597,0,0.0,0.65,,,,,,,,,,,,,,,,,,
2599,0,0.0,0.64,,,,,,,,,,,,,,,,,,
2601,0,0.0,0.64,,,,,,,,,,,,,,,,,,
2603,0,0.0,0.64,,-0.12,0.11,0.92,-0,1,-1,0.16,0,1920,0,0.0,0.0,0.0,0.0,0,0,0.0
2605,0,0.0,0.64,,,,,,,,,,,,,,,,,,
2607,0,0.0,0.64,,,,,,,,,,,,,,,,,,
2609,0,0.0,0.64,,,,,,,,,,,,,,,,,,
2611,0,0.0,0.64,,,,,,,,,,,,,,,,,,
2613,0,0.0,0.64,,-0.15,0.1,1.01,0,0,-1,0.18,,,,,,,,,,
2615,0,0.0,0.64,,,,,,,,,,,,,,,,,,
2617,0,0.0,0.64,,,,,,,,,,,,,,,,,,
2619,0,0.0,0.64,,,,,,,,,,,,,,,,,,
2621,0,0.0,0.64,,,,,,,,,,,,,,,,,,
2623,0,0.0,0.64,,-0.02,0.05,0.96,-0,-1,-0,0.05,0,1920,0,0.0,0.0,0.0,0.0,0,0,0.0
2625,0,0.0,0.64,,,,,,,,,,,,,,,,,,
2627,0,0.0,0.64,,,,,,,,,,,,,,,,,,
2629,0,0.0,0.65,,,,,,,,,,,,,,,,,,
2631,0,0.0,0.64,,,,,,,,,,,,,,,,,,
2633,0,0.0,0.64,,-0.09,0.09,0.97,-0,-1,-1,0.13,,,,,,,,,,
2635,0,0.0,0.64,,,,,,,,,,,,,,,,,,
2637,0,0.0,0.64,,,,,,,,,,,,,,,,,,
2639,0,0.0,0.64,,,,,,,,,,,,,,,,,,
2641,0,0.0,0.64,,,,,,,,,,,,,,,,,,
2643,0,0.0,0.64,,-0.08,0.09,0.94,0,0,-0,0.12,0,1920,0,0.0,0.0,0.0,0.0,0,0,0.0
2645,0,0.0,0.64,,,,,,,,,,,,,,,,,,
2647,0,0.0,0.64,,,,,,,,,,,,,,,,,,
2649,0,0.0,0.64,,,,,,,,,,,,,,,,,,
2651,0,0.0,0.64,,,,,,,,,,,,,,,,,,
2653,0,0.0,0.64,,0.02,0.06,1.02,-0,-2,-0,0.06,,,,,,,,,,
2655,0,0.0,0.64,,,,,,,,,,,,,,,,,,
2657,0,0.0,0.64,,,,,,,,,,,,,,,,,,
2659,0,0.0,0.66,,,,,,,,,,,,,,,,,,
2661,0,0.0,0.64,,,,,,,,,,,,,,,,,,
2663,0,0.0,0.64,,-0.1,0.09,0.93,-0,1,-1,0.14,0,1980,0,0.0,0.0,0.0,0.0,0,0,0.0
2665,0,0.0,0.64,,,,,,,,,,,,,,,,,,
2667,0,0.0,0.64,,,,,,,,,,,,,,,,,,
2669,0,0.0,0.65,,,,,,,,,,,,,,,,,,
2671,0,0.0,0.64,,,,,,,,,,,,,,,,,,
2673,0,0.0,0.64,,-0.16,0.1,1.04,0,-1,-0,0.19,,,,,,,,,,
2675,0,0.0,0.65,,,,,,,,,,,,,,,,,,
2677,0,0.0,0.64,,,,,,,,,,,,,,,,,,
2679,0,0.0,0.65,,,,,,,,,,,,,,,,,,
2681,0,0.0,0.65,,,,,,,,,,,,,,,,,,
2683,0,0.0,0.64,,-0.01,0.03,0.96,-0,-1,-0,0.03,0,1980,0,0.0,0.0,0.0,0.0,0,0,0.0
2685,0,0.0,0.65,,,,,,,,,,,,,,,,,,
2687,0,0.0,0.65,,,,,,,,,,,,,,,,,,
2689,0,0.0,0.65,,,,,,,,,,,,,,,,,,
2691,0,0.0,0.65,,,,,,,,,,,,,,,,,,
2693,0,0.0,0.65,,-0.06,0.1,1.0,0,-0,-0,0.12,,,,,,,,,,
2695,0,0.0,0.65,,,,,,,,,,,,,,,,,,
2697,0,0.0,0.64,,,,,,,,,,,,,,,,,,
2699,0,0.0,0.65,,,,,,,,,,,,,,,,,,
2701,0,0.0,0.65,,,,,,,,,,,,,,,,,,
2703,0,0.0,0.65,,-0.1,0.12,0.96,0,-0,-0,0.15,0,1920,0,0.0,0.0,0.0,0.0,0,0,0.0
2705,0,0.0,0.65,,,,,,,,,,,,,,,,,,
2707,0,0.0,0.65,,,,,,,,,,,,,,,,,,
2709,0,0.0,0.65,,,,,,,,,,,,,,,,,,
2711,0,0.0,0.65,,,,,,,,,,,,,,,,,,
2713,0,0.0,0.65,,0.05,0.07,1.05,0,-1,-0,0.08,,,,,,,,,,
2715,0,0.0,0.65,,,,,,,,,,,,,,,,,,
2717,0,0.0,0.65,,,,,,,,,,,,,,,,,,
2719,0,0.0,0.65,,,,,,,,,,,,,,,,,,
2721,0,0.0,0.65,,,,,,,,,,,,,,,,,,
2723,0,0.0,0.65,,-0.07,0.08,0.91,0,1,-1,0.11,0,1980,0,0.0,0.0,0.0,0.0,0,0,0.0
2725,0,0.0,0.65,,,,,,,,,,,,,,,,,,
2727,0,0.0,0.65,,,,,,,,,,,,,,,,,,
2729,0,0.0,0.65,,,,,,,,,,,,,,,,,,
2731,0,0.0,0.65,,,,,,,,,,,,,,,,,,
2733,0,0.0,0.65,,-0.16,0.1,1.04,0,-0,-1,0.19,,,,,,,,,,
2735,0,0.0,0.65,,,,,,,,,,,,,,,,,,
2737,0,0.0,0.65,,,,,,,,,,,,,,,,,,
2739,0,0.0,0.65,,,,,,,,,,,,,,,,,,
2741,0,0.0,0.65,,,,,,,,,,,,,,,,,,
2743,0,0.0,0.65,,0.0,0.04,0.94,0,-1,-0,0.04,0,1980,0,0.0,0.0,0.0,0.0,0,0,0.0
2745,0,0.0,0.65,,,,,,,,,,,,,,,,,,
2747,0,0.0,0.65,,,,,,,,,,,,,,,,,,
2749,0,0.0,0.65,,,,,,,,,,,,,,,,,,
2751,0,0.0,0.66,,,,,,,,,,,,,,,,,,
2753,0,0.0,0.65,,-0.04,0.12,1.0,0,0,-1,0.13,,,,,,,,,,
2755,0,0.0,0.65,,,,,,,,,,,,,,,,,,
2757,0,0.0,0.65,,,,,,,,,,,,,,,,,,
2759,0,0.0,0.65,,,,,,,,,,,,,,,,,,
2761,0,0.0,0.65,,,,,,,,,,,,,,,,,,
2763,0,0.0,0.65,,-0.15,0.12,0.98,0,-0,-1,0.19,0,1920,0,0.0,0.0,0.0,0.0,0,0,0.0
2765,0,0.0,0.65,,,,,,,,,,,,,,,,,,
2767,0,0.0,0.65,,,,,,,,,,,,,,,,,,
2769,0,0.0,0.65,,,,,,,,,,,,,,,,,,
2771,0,0.0,0.65,,,,,,,,,,,,,,,,,,
2773,0,0.0,0.65,,0.04,0.05,1.07,-0,-1,-0,0.06,,,,,,,,,,
2775,0,0.0,0.66,,,,,,,,,,,,,,,,,,
2777,0,0.0,0.66,,,,,,,,,,,,,,,,,,
2779,0,0.0,0.66,,,,,,,,,,,,,,,,,,
2781,0,0.0,0.67,,,,,,,,,,,,,,,,,,
2783,0,0.0,0.66,,-0.07,0.08,0.98,-0,1,-1,0.11,0,1980,0,0.0,0.0,0.0,0.0,0,0,0.0
2785,0,0.0,0.66,,,,,,,,,,,,,,,,,,
2787,0,0.0,0.65,,,,,,,,,,,,,,,,,,
2789,0,0.0,0.65,,,,,,,,,,,,,,,,,,
2791,0,0.0,0.66,,,,,,,,,,,,,,,,,,
2793,0,0.0,0.65,,-0.16,0.09,1.04,0,-0,-1,0.18,,,,,,,,,,
2795,0,0.0,0.66,,,,,,,,,,,,,,,,,,
2797,0,0.0,0.66,,,,,,,,,,,,,,,,,,
2799,0,0.0,0.66,,,,,,,,,,,,,,,,,,
2801,0,0.0,0.65,,,,,,,,,,,,,,,,,,
2803,0,0.0,0.66,,-0.01,0.04,0.95,0,-1,-0,0.04,0,1980,0,0.0,0.0,0.0,0.0,0,0,0.0
2805,0,0.0,0.66,,,,,,,,,,,,,,,,,,
2807,0,0.0,0.66,,,,,,,,,,,,,,,,,,
2809,0,0.0,0.66,,,,,,,,,,,,,,,,,,
2811,0,0.0,0.67,,,,,,,,,,,,,,,,,,
2813,0,0.0,0.66,,-0.04,0.12,1.02,0,1,-1,0.13,,,,,,,,,,
2815,0,0.0,0.66,,,,,,,,,,,,,,,,,,
2817,0,0.0,0.66,,,,,,,,,,,,,,,,,,
2819,0,0.0,0.66,,,,,,,,,,,,,,,,,,
2821,0,0.0,0.66,,,,,,,,,,,,,,,,,,
2823,0,0.0,0.66,,-0.2,0.1,0.97,0,-0,-1,0.23,0,1920,0,0.0,0.0,0.0,0.0,0,0,0.0
2825,0,0.0,0.66,,,,,,,,,,,,,,,,,,
2827,0,0.0,0.66,,,,,,,,,,,,,,,,,,
2829,0,0.0,0.66,,,,,,,,,,,,,,,,,,
2831,0,0.0,0.66,,,,,,,,,,,,,,,,,,
2833,0,0.0,0.66,,0.01,0.04,1.08,0,-1,-0,0.04,,,,,,,,,,
2835,0,0.0,0.66,,,,,,,,,,,,,,,,,,
2837,0,0.0,0.66,,,,,,,,,,,,,,,,,,
2839,0,0.0,0.66,,,,,,,,,,,,,,,,,,
2841,0,0.0,0.67,,,,,,,,,,,,,,,,,,
2843,0,0.0,0.67,,-0.09,0.08,0.98,0,1,-1,0.12,0,1980,0,0.0,0.0,0.0,0.0,0,0,0.0
2845,0,0.0,0.66,,,,,,,,,,,,,,,,,,
2847,0,0.0,0.66,,,,,,,,,,,,,,,,,,
2849,0,0.0,0.66,,,,,,,,,,,,,,,,,,
2851,0,0.0,0.66,,,,,,,,,,,,,,,,,,
2853,0,0.0,0.66,,-0.16,0.08,0.99,0,-0,-1,0.18,,,,,,,,,,
2855,0,0.0,0.66,,,,,,,,,,,,,,,,,,
2857,0,0.0,0.66,,,,,,,,,,,,,,,,,,
2859,0,0.0,0.66,,,,,,,,,,,,,,,,,,
2861,0,0.0,0.66,,,,,,,,,,,,,,,,,,
2863,0,0.0,0.66,,-0.03,0.04,0.93,0,-1,-0,0.05,0,1980,0,0.0,0.0,0.0,0.0,0,0,0.0
2865,0,0.0,0.67,,,,,,,,,,,,,,,,,,
2867,0,0.0,0.67,,,,,,,,,,,,,,,,,,
2869,0,0.0,0.67,,,,,,,,,,,,,,,,,,
2871,0,0.0,0.66,,,,,,,,,,,,,,,,,,
2873,0,0.0,0.68,,-0.04,0.13,1.02,0,0,-1,0.14,,,,,,,,,,
2875,0,0.0,0.67,,,,,,,,,,,,,,,,,,
2877,0,0.0,0.66,,,,,,,,,,,,,,,,,,
2879,0,0.0,0.66,,,,,,,,,,,,,,,,,,
2881,0,0.0,0.67,,,,,,,,,,,,,,,,,,
2883,0,0.0,0.66,,-0.25,0.09,0.97,0,-0,-1,0.26,0,1920,0,0.0,0.0,0.0,0.0,0,0,0.0
2885,0,0.0,0.67,,,,,,,,,,,,,,,,,,
2887,0,0.0,0.67,,,,,,,,,,,,,,,,,,
2889,0,0.0,0.67,,,,,,,,,,,,,,,,,,
2891,0,0.0,0.67,,,,,,,,,,,,,,,,,,
2893,0,0.0,0.67,,-0.01,0.05,1.05,0,-1,-0,0.05,,,,,,,,,,
2895,0,0.0,0.67,,,,,,,,,,,,,,,,,,
2897,0,0.0,0.67,,,,,,,,,,,,,,,,,,
2899,0,0.0,0.67,,,,,,,,,,,,,,,,,,
2901,0,0.0,0.67,,,,,,,,,,,,,,,,,,
2903,0,0.0,0.68,,-0.09,0.1,0.99,-0,1,-0,0.13,0,1980,0,0.0,0.0,0.0,0.0,0,0,0.0
2905,0,0.0,0.67,,,,,,,,,,,,,,,,,,
2907,0,0.0,0.67,,,,,,,,,,,,,,,,,,
2909,0,0.0,0.67,,,,,,,,,,,,,,,,,,
2911,0,0.0,0.67,,,,,,,,,,,,,,,,,,
2913,0,0.0,0.67,,-0.17,0.08,1.01,0,-1,-0,0.19,,,,,,,,,,
2915,0,0.0,0.67,,,,,,,,,,,,,,,,,,
2917,0,0.0,0.67,,,,,,,,,,,,,,,,,,
2919,0,0.0,0.67,,,,,,,,,,,,,,,,,,
2921,0,0.0,0.67,,,,,,,,,,,,,,,,,,
2923,0,0.0,0.67,,-0.03,0.04,0.91,0,-1,0,0.05,0,1980,0,0.0,0.0,0.0,0.0,0,0,0.0
2925,0,0.0,0.67,,,,,,,,,,,,,,,,,,
2927,0,0.0,0.67,,,,,,,,,,,,,,,,,,
2929,0,0.0,0.67,,,,,,,,,,,,,,,,,,
2931,0,0.0,0.67,,,,,,,,,,,,,,,,,,
2933,0,0.0,0.68,,-0.03,0.13,1.02,-0,0,-1,0.13,,,,,,,,,,
2935,0,0.0,0.67,,,,,,,,,,,,,,,,,,
2937,0,0.0,0.67,,,,,,,,,,,,,,,,,,
2939,0,0.0,0.67,,,,,,,,,,,,,,,,,,
2941,0,0.0,0.67,,,,,,,,,,,,,,,,,,
2943,0,0.0,0.67,,-0.24,0.07,0.98,0,-0,-1,0.25,0,1920,0,0.0,0.0,0.0,0.0,0,0,0.0
2945,0,0.0,0.67,,,,,,,,,,,,,,,,,,
2947,0,0.0,0.67,,,,,,,,,,,,,,,,,,
2949,0,0.0,0.67,,,,,,,,,,,,,,,,,,
2951,0,0.0,0.67,,,,,,,,,,,,,,,,,,
2953,0,0.0,0.67,,-0.02,0.04,1.06,0,-1,-0,0.05,,,,,,,,,,
2955,0,0.0,0.67,,,,,,,,,,,,,,,,,,
2957,0,0.0,0.67,,,,,,,,,,,,,,,,,,
2959,0,0.0,0.67,,,,,,,,,,,,,,,,,,
2961,0,0.0,0.68,,,,,,,,,,,,,,,,,,
2963,0,0.0,0.69,,-0.05,0.08,1.0,-0,0,-0,0.1,0,1980,0,0.0,0.0,0.0,0.0,0,0,0.0
2965,0,0.0,0.68,,,,,,,,,,,,,,,,,,
2967,0,0.0,0.68,,,,,,,,,,,,,,,,,,
2969,0,0.0,0.67,,,,,,,,,,,,,,,,,,
2971,0,0.0,0.67,,,,,,,,,,,,,,,,,,
2973,0,0.0,0.67,,-0.14,0.08,0.99,0,-1,-0,0.16,,,,,,,,,,
2975,0,0.0,0.67,,,,,,,,,,,,,,,,,,
2977,0,0.0,0.67,,,,,,,,,,,,,,,,,,
2979,0,0.0,0.67,,,,,,,,,,,,,,,,,,
2981,0,0.0,0.67,,,,,,,,,,,,,,,,,,
2983,0,0.0,0.67,,-0.03,0.05,0.95,0,-1,0,0.06,0,1980,0,0.0,0.0,0.0,0.0,0,0,0.0
2985,0,0.0,0.68,,,,,,,,,,,,,,,,,,
2987,0,0.0,0.68,,,,,,,,,,,,,,,,,,
2989,0,0.0,0.68,,,,,,,,,,,,,,,,,,
2991,0,0.0,0.68,,,,,,,,,,,,,,,,,,
2993,0,0.0,0.69,,-0.01,0.13,1.04,0,0,-0,0.13,,,,,,,,,,
2995,0,0.0,0.68,,,,,,,,,,,,,,,,,,
2997,0,0.0,0.67,,,,,,,,,,,,,,,,,,
2999,0,0.0,0.68,,,,,,,,,,,,,,,,,,
3001,0,0.0,0.67,,,,,,,,,,,,,,,,,,
3003,0,0.0,0.68,,-0.21,0.08,0.97,0,-0,-1,0.23,0,1920,0,0.0,0.0,0.0,0.0,0,0,0.0
3005,0,0.0,0.68,,,,,,,,,,,,,,,,,,
3007,0,0.0,0.67,,,,,,,,,,,,,,,,,,
3009,0,0.0,0.68,,,,,,,,,,,,,,,,,,
3011,0,0.0,0.68,,,,,,,,,,,,,,,,,,
3013,0,0.0,0.68,,-0.01,0.05,1.07,0,-1,-0,0.06,,,,,,,,,,
3015,0,0.0,0.68,,,,,,,,,,,,,,,,,,
3017,0,0.0,0.68,,,,,,,,,,,,,,,,,,
3019,0,0.0,0.68,,,,,,,,,,,,,,,,,,
3021,0,0.0,0.68,,,,,,,,,,,,,,,,,,
3023,0,0.0,0.69,,-0.04,0.09,0.99,-0,0,-0,0.1,0,1980,0,0.0,0.0,0.0,0.0,0,0,0.0
3025,0,0.0,0.68,,,,,,,,,,,,,,,,,,
3027,0,0.0,0.68,,,,,,,,,,,,,,,,,,
3029,0,0.0,0.68,,,,,,,,,,,,,,,,,,
3031,0,0.0,0.68,,,,,,,,,,,,,,,,,,
3033,0,0.0,0.68,,-0.13,0.09,0.96,0,-1,-1,0.16,,,,,,,,,,
3035,0,0.0,0.68,,,,,,,,,,,,,,,,,,
3037,0,0.0,0.68,,,,,,,,,,,,,,,,,,
3039,0,0.0,0.68,,,,,,,,,,,,,,,,,,
3041,0,0.0,0.68,,,,,,,,,,,,,,,,,,
3043,0,0.0,0.68,13.41,-0.04,0.06,0.95,0,-1,-0,0.07,0,1980,0,0.0,0.0,0.0,0.0,0,0,0.0
3045,0,0.0,0.68,,,,,,,,,,,,,,,,,,
3047,0,0.0,0.68,,,,,,,,,,,,,,,,,,
3049,0,0.0,0.68,,,,,,,,,,,,,,,,,,
3051,0,0.0,0.68,,,,,,,,,,,,,,,,,,
3053,0,0.0,0.69,,-0.01,0.12,1.04,-0,0,-0,0.12,,,,,,,,,,
3055,0,0.0,0.7,,,,,,,,,,,,,,,,,,
3057,0,0.0,0.68,,,,,,,,,,,,,,,,,,
3059,0,0.0,0.68,,,,,,,,,,,,,,,,,,
3061,0,0.0,0.68,,,,,,,,,,,,,,,,,,
3063,0,0.0,0.68,,-0.2,0.07,0.94,0,-0,-1,0.21,0,1920,0,0.0,0.0,0.0,0.0,0,0,0.0
3065,0,0.0,0.68,,,,,,,,,,,,,,,,,,
3067,0,0.0,0.68,,,,,,,,,,,,,,,,,,
3069,0,0.0,0.68,,,,,,,,,,,,,,,,,,
3071,0,0.0,0.68,,,,,,,,,,,,,,,,,,
3073,0,0.0,0.68,,-0.02,0.05,1.06,0,-1,-0,0.05,,,,,,,,,,
3075,0,0.0,0.69,,,,,,,,,,,,,,,,,,
3077,0,0.0,0.69,,,,,,,,,,,,,,,,,,
3079,0,0.0,0.69,,,,,,,,,,,,,,,,,,
3081,0,0.0,0.68,,,,,,,,,,,,,,,,,,
3083,0,0.0,0.69,,-0.01,0.09,0.98,-0,0,-0,0.09,0,1920,0,0.0,0.0,0.0,0.0,0,0,0.0
3085,0,0.0,0.7,,,,,,,,,,,,,,,,,,
3087,0,0.0,0.69,,,,,,,,,,,,,,,,,,
3089,0,0.0,0.69,,,,,,,,,,,,,,,,,,
3091,0,0.0,0.69,,,,,,,,,,,,,,,,,,
3093,0,0.0,0.69,,-0.13,0.09,0.93,0,-1,-1,0.16,,,,,,,,,,
3095,0,0.0,0.69,,,,,,,,,,,,,,,,,,
3097,0,0.0,0.68,,,,,,,,,,,,,,,,,,
3099,0,0.0,0.69,,,,,,,,,,,,,,,,,,
