"Interval"|"ms"|0|0|1,"Utc"|"ms"|0|0|1,"Analog4"|"Volts"|0.0|5.0|500,"Analog5"|"Volts"|0.0|5.0|500,"Battery"|"Volts"|0.0|20.0|1,"AccelX"|"G"|-3.0|3.0|200,"AccelY"|"G"|-3.0|3.0|200,"AccelZ"|"G"|-3.0|3.0|200,"Yaw"|"Deg/Sec"|-120|120|200,"Pitch"|"Deg/Sec"|-120|120|200,"Roll"|"Deg/Sec"|-120|120|200,"Gsum"|"G"|0.0|3.0|200,"RPM2"|"rpm"|0|8000|50,"RPM3"|"rpm"|0|8000|50,"GPIO1"|""|0.0|1.0|50,"Latitude"|"Degrees"|-180.0|180.0|50,"Longitude"|"Degrees"|-180.0|180.0|50,"Speed"|"mph"|0.0|150.0|50,"Altitude"|"ft"|0.0|4000.0|50,"GPSSats"|""|0|20|50,"GPSQual"|""|0|5|50,"GPSDOP"|""|0.0|20.0|50
119,0,0.0,0.26,,,,,,,,,,,,,,,,,,
121,0,0.0,0.26,,,,,,,,,,,,,,,,,,
123,0,0.0,0.26,,-0.11,0.05,0.95,0,0,-0,0.12,0,2040,0,0.0,0.0,0.0,0.0,0,0,0.0
125,0,0.0,0.26,,,,,,,,,,,,,,,,,,
127,0,0.0,0.26,,,,,,,,,,,,,,,,,,
129,0,0.0,0.26,,,,,,,,,,,,,,,,,,
131,0,0.0,0.26,,,,,,,,,,,,,,,,,,
133,0,0.0,0.26,,-0.13,0.1,1.05,0,-0,-1,0.16,,,,,,,,,,
135,0,0.0,0.26,,,,,,,,,,,,,,,,,,
137,0,0.0,0.26,,,,,,,,,,,,,,,,,,
139,0,0.0,0.26,,,,,,,,,,,,,,,,,,
141,0,0.0,0.26,,,,,,,,,,,,,,,,,,
143,0,0.0,0.26,,-0.05,0.08,1.0,-0,-0,-0,0.09,0,2040,0,0.0,0.0,0.0,0.0,0,0,0.0
145,0,0.0,0.26,,,,,,,,,,,,,,,,,,
147,0,0.0,0.27,,,,,,,,,,,,,,,,,,
149,0,0.0,0.26,,,,,,,,,,,,,,,,,,
151,0,0.0,0.26,,,,,,,,,,,,,,,,,,
153,0,0.01,0.26,,-0.09,0.06,0.94,0,-0,-0,0.11,,,,,,,,,,
155,0,0.0,0.26,,,,,,,,,,,,,,,,,,
157,0,0.0,0.27,,,,,,,,,,,,,,,,,,
159,0,0.0,0.26,,,,,,,,,,,,,,,,,,
161,0,0.0,0.27,,,,,,,,,,,,,,,,,,
163,0,0.0,0.26,,-0.03,0.09,1.02,1,0,-0,0.1,0,2040,0,0.0,0.0,0.0,0.0,0,0,0.0
165,0,0.0,0.26,,,,,,,,,,,,,,,,,,
167,0,0.01,0.27,,,,,,,,,,,,,,,,,,
169,0,0.0,0.26,,,,,,,,,,,,,,,,,,
171,0,0.0,0.27,,,,,,,,,,,,,,,,,,
173,0,0.0,0.26,,-0.02,0.05,1.0,-0,-0,-0,0.05,,,,,,,,,,
175,0,0.0,0.28,,,,,,,,,,,,,,,,,,
177,0,0.0,0.27,,,,,,,,,,,,,,,,,,
179,0,0.0,0.26,,,,,,,,,,,,,,,,,,
181,0,0.01,0.27,,,,,,,,,,,,,,,,,,
183,0,0.0,0.27,,-0.11,0.05,0.91,0,-0,-0,0.12,0,2040,0,0.0,0.0,0.0,0.0,0,0,0.0
185,0,0.0,0.27,,,,,,,,,,,,,,,,,,
187,0,0.0,0.26,,,,,,,,,,,,,,,,,,
189,0,0.0,0.27,,,,,,,,,,,,,,,,,,
191,0,0.0,0.27,,,,,,,,,,,,,,,,,,
193,0,0.01,0.27,,-0.08,0.1,0.98,0,-0,-1,0.13,,,,,,,,,,
195,0,0.01,0.27,,,,,,,,,,,,,,,,,,
197,0,0.0,0.27,,,,,,,,,,,,,,,,,,
199,0,0.0,0.27,,,,,,,,,,,,,,,,,,
201,0,0.0,0.27,,,,,,,,,,,,,,,,,,
203,0,0.0,0.27,,-0.06,0.09,1.03,-0,-0,-0,0.11,0,2040,0,0.0,0.0,0.0,0.0,0,0,0.0
205,0,0.0,0.28,,,,,,,,,,,,,,,,,,
207,0,0.0,0.27,,,,,,,,,,,,,,,,,,
209,0,0.0,0.27,,,,,,,,,,,,,,,,,,
211,0,0.0,0.28,,,,,,,,,,,,,,,,,,
213,0,0.0,0.27,,-0.18,0.06,0.91,0,-1,-0,0.19,,,,,,,,,,
215,0,0.01,0.27,,,,,,,,,,,,,,,,,,
217,0,0.0,0.27,,,,,,,,,,,,,,,,,,
219,0,0.0,0.28,,,,,,,,,,,,,,,,,,
221,0,0.0,0.27,,,,,,,,,,,,,,,,,,
223,0,0.0,0.27,,-0.0,0.07,1.01,0,-1,-0,0.07,0,2040,0,0.0,0.0,0.0,0.0,0,0,0.0
225,0,0.0,0.28,,,,,,,,,,,,,,,,,,
227,0,0.0,0.27,,,,,,,,,,,,,,,,,,
229,0,0.0,0.27,,,,,,,,,,,,,,,,,,
231,0,0.0,0.27,,,,,,,,,,,,,,,,,,
233,0,0.0,0.29,,-0.07,0.07,0.99,-0,0,-0,0.1,,,,,,,,,,
235,0,0.0,0.27,,,,,,,,,,,,,,,,,,
237,0,0.0,0.28,,,,,,,,,,,,,,,,,,
239,0,0.0,0.28,,,,,,,,,,,,,,,,,,
241,0,0.0,0.28,,,,,,,,,,,,,,,,,,
243,0,0.01,0.28,,-0.14,0.09,0.93,0,-1,-0,0.17,0,2040,0,0.0,0.0,0.0,0.0,0,0,0.0
245,0,0.0,0.28,,,,,,,,,,,,,,,,,,
247,0,0.0,0.28,,,,,,,,,,,,,,,,,,
249,0,0.0,0.28,,,,,,,,,,,,,,,,,,
251,0,0.0,0.28,,,,,,,,,,,,,,,,,,
253,0,0.0,0.28,,-0.02,0.07,0.92,0,-1,-0,0.07,,,,,,,,,,
255,0,0.0,0.28,,,,,,,,,,,,,,,,,,
257,0,0.0,0.28,,,,,,,,,,,,,,,,,,
259,0,0.0,0.28,,,,,,,,,,,,,,,,,,
261,0,0.0,0.28,,,,,,,,,,,,,,,,,,
263,0,0.0,0.29,,-0.06,0.1,1.05,-0,0,-0,0.12,0,2040,0,0.0,0.0,0.0,0.0,0,0,0.0
265,0,0.0,0.28,,,,,,,,,,,,,,,,,,
267,0,0.0,0.28,,,,,,,,,,,,,,,,,,
269,0,0.0,0.28,,,,,,,,,,,,,,,,,,
271,0,0.0,0.28,,,,,,,,,,,,,,,,,,
273,0,0.0,0.28,,-0.21,0.07,0.99,0,-1,-0,0.22,,,,,,,,,,
275,0,0.0,0.29,,,,,,,,,,,,,,,,,,
277,0,0.01,0.28,,,,,,,,,,,,,,,,,,
279,0,0.0,0.28,,,,,,,,,,,,,,,,,,
281,0,0.0,0.29,,,,,,,,,,,,,,,,,,
283,0,0.0,0.28,,0.03,0.04,1.01,0,-1,-1,0.05,0,2040,0,0.0,0.0,0.0,0.0,0,0,0.0
285,0,0.0,0.28,,,,,,,,,,,,,,,,,,
287,0,0.0,0.28,,,,,,,,,,,,,,,,,,
289,0,0.0,0.28,,,,,,,,,,,,,,,,,,
291,0,0.01,0.3,,,,,,,,,,,,,,,,,,
293,0,0.0,0.29,,-0.12,0.07,1.02,-0,0,-0,0.13,,,,,,,,,,
295,0,0.0,0.29,,,,,,,,,,,,,,,,,,
297,0,0.0,0.28,,,,,,,,,,,,,,,,,,
299,0,0.0,0.29,,,,,,,,,,,,,,,,,,
301,0,0.0,0.29,,,,,,,,,,,,,,,,,,
303,0,0.0,0.29,,-0.15,0.11,1.02,0,-1,-0,0.19,0,2040,0,0.0,0.0,0.0,0.0,0,0,0.0
305,0,0.01,0.29,,,,,,,,,,,,,,,,,,
307,0,0.0,0.29,,,,,,,,,,,,,,,,,,
309,0,0.0,0.29,,,,,,,,,,,,,,,,,,
311,0,0.0,0.29,,,,,,,,,,,,,,,,,,
313,0,0.0,0.29,,0.02,0.05,0.92,0,-1,-0,0.05,,,,,,,,,,
315,0,0.0,0.29,,,,,,,,,,,,,,,,,,
317,0,0.0,0.29,,,,,,,,,,,,,,,,,,
319,0,0.0,0.3,,,,,,,,,,,,,,,,,,
321,0,0.0,0.29,,,,,,,,,,,,,,,,,,
323,0,0.0,0.29,,-0.07,0.1,1.0,0,0,-0,0.12,0,2040,0,0.0,0.0,0.0,0.0,0,0,0.0
325,0,0.0,0.29,,,,,,,,,,,,,,,,,,
327,0,0.0,0.29,,,,,,,,,,,,,,,,,,
329,0,0.0,0.29,,,,,,,,,,,,,,,,,,
331,0,0.0,0.29,,,,,,,,,,,,,,,,,,
333,0,0.0,0.29,,-0.16,0.09,1.05,0,-1,-1,0.19,,,,,,,,,,
335,0,0.0,0.29,,,,,,,,,,,,,,,,,,
337,0,0.0,0.29,,,,,,,,,,,,,,,,,,
339,0,0.0,0.29,,,,,,,,,,,,,,,,,,
341,0,0.0,0.29,,,,,,,,,,,,,,,,,,
343,0,0.0,0.3,,0.06,0.03,1.0,0,-0,-0,0.06,0,2040,0,0.0,0.0,0.0,0.0,0,0,0.0
345,0,0.0,0.29,,,,,,,,,,,,,,,,,,
347,0,0.0,0.29,,,,,,,,,,,,,,,,,,
349,0,0.0,0.31,,,,,,,,,,,,,,,,,,
351,0,0.0,0.3,,,,,,,,,,,,,,,,,,
353,0,0.0,0.29,,-0.15,0.08,1.0,-0,0,-0,0.17,,,,,,,,,,
355,0,0.0,0.29,,,,,,,,,,,,,,,,,,
357,0,0.0,0.3,,,,,,,,,,,,,,,,,,
359,0,0.0,0.29,,,,,,,,,,,,,,,,,,
361,0,0.0,0.29,,,,,,,,,,,,,,,,,,
363,0,0.0,0.3,,-0.14,0.1,1.05,0,-0,-0,0.17,0,2040,0,0.0,0.0,0.0,0.0,0,0,0.0
365,0,0.0,0.3,,,,,,,,,,,,,,,,,,
367,0,0.01,0.3,,,,,,,,,,,,,,,,,,
369,0,0.0,0.3,,,,,,,,,,,,,,,,,,
371,0,0.0,0.3,,,,,,,,,,,,,,,,,,
373,0,0.0,0.3,,0.01,0.05,0.97,-0,-0,-0,0.05,,,,,,,,,,
375,0,0.0,0.3,,,,,,,,,,,,,,,,,,
377,0,0.0,0.31,,,,,,,,,,,,,,,,,,
379,0,0.0,0.3,,,,,,,,,,,,,,,,,,
381,0,0.0,0.3,,,,,,,,,,,,,,,,,,
383,0,0.0,0.3,,-0.09,0.08,0.99,0,-0,-0,0.11,0,2040,0,0.0,0.0,0.0,0.0,0,0,0.0
385,0,0.0,0.3,,,,,,,,,,,,,,,,,,
387,0,0.0,0.3,,,,,,,,,,,,,,,,,,
389,0,0.0,0.3,,,,,,,,,,,,,,,,,,
391,0,0.0,0.3,,,,,,,,,,,,,,,,,,
393,0,0.0,0.31,,-0.07,0.08,1.02,1,-0,-0,0.11,,,,,,,,,,
395,0,0.01,0.3,,,,,,,,,,,,,,,,,,
397,0,0.0,0.3,,,,,,,,,,,,,,,,,,
399,0,0.0,0.3,,,,,,,,,,,,,,,,,,
401,0,0.01,0.31,,,,,,,,,,,,,,,,,,
403,0,0.0,0.3,,0.02,0.06,1.01,-0,-0,-0,0.06,0,2040,0,0.0,0.0,0.0,0.0,0,0,0.0
405,0,0.0,0.31,,,,,,,,,,,,,,,,,,
407,0,0.0,0.31,,,,,,,,,,,,,,,,,,
409,0,0.0,0.31,,,,,,,,,,,,,,,,,,
411,0,0.0,0.31,,,,,,,,,,,,,,,,,,
413,0,0.0,0.31,,-0.12,0.06,0.95,0,0,-0,0.14,,,,,,,,,,
415,0,0.01,0.3,,,,,,,,,,,,,,,,,,
417,0,0.0,0.31,,,,,,,,,,,,,,,,,,
419,0,0.0,0.31,,,,,,,,,,,,,,,,,,
421,0,0.0,0.31,,,,,,,,,,,,,,,,,,
423,0,0.0,0.31,,-0.09,0.09,1.01,1,0,-0,0.13,0,2040,0,0.0,0.0,0.0,0.0,0,0,0.0
425,0,0.0,0.31,,,,,,,,,,,,,,,,,,
427,0,0.0,0.31,,,,,,,,,,,,,,,,,,
429,0,0.01,0.31,,,,,,,,,,,,,,,,,,
431,0,0.0,0.31,,,,,,,,,,,,,,,,,,
433,0,0.0,0.31,,-0.03,0.06,1.01,-0,-0,-0,0.07,,,,,,,,,,
435,0,0.0,0.32,,,,,,,,,,,,,,,,,,
437,0,0.0,0.31,,,,,,,,,,,,,,,,,,
439,0,0.0,0.31,,,,,,,,,,,,,,,,,,
441,0,0.0,0.31,,,,,,,,,,,,,,,,,,
443,0,0.01,0.31,,-0.12,0.08,0.93,0,-0,-0,0.14,0,2040,0,0.0,0.0,0.0,0.0,0,0,0.0
445,0,0.0,0.31,,,,,,,,,,,,,,,,,,
447,0,0.0,0.31,,,,,,,,,,,,,,,,,,
449,0,0.0,0.31,,,,,,,,,,,,,,,,,,
451,0,0.0,0.31,,,,,,,,,,,,,,,,,,
453,0,0.0,0.31,,0.0,0.08,1.0,1,-0,-0,0.08,,,,,,,,,,
455,0,0.0,0.31,,,,,,,,,,,,,,,,,,
457,0,0.01,0.31,,,,,,,,,,,,,,,,,,
459,0,0.0,0.32,,,,,,,,,,,,,,,,,,
461,0,0.0,0.31,,,,,,,,,,,,,,,,,,
463,0,0.0,0.32,,-0.02,0.07,1.0,-0,0,-0,0.07,0,2040,0,0.0,0.0,0.0,0.0,0,0,0.0
465,0,0.0,0.33,,,,,,,,,,,,,,,,,,
467,0,0.0,0.32,,,,,,,,,,,,,,,,,,
469,0,0.0,0.32,,,,,,,,,,,,,,,,,,
471,0,0.0,0.32,,,,,,,,,,,,,,,,,,
473,0,0.0,0.32,,-0.13,0.08,0.92,0,-0,-0,0.15,,,,,,,,,,
475,0,0.0,0.32,,,,,,,,,,,,,,,,,,
477,0,0.0,0.32,,,,,,,,,,,,,,,,,,
479,0,0.0,0.32,,,,,,,,,,,,,,,,,,
481,0,0.0,0.32,,,,,,,,,,,,,,,,,,
483,0,0.0,0.32,,-0.04,0.06,0.95,0,-1,-0,0.08,0,2040,0,0.0,0.0,0.0,0.0,0,0,0.0
485,0,0.0,0.32,,,,,,,,,,,,,,,,,,
487,0,0.0,0.32,,,,,,,,,,,,,,,,,,
489,0,0.0,0.32,,,,,,,,,,,,,,,,,,
491,0,0.01,0.32,,,,,,,,,,,,,,,,,,
493,0,0.0,0.33,,-0.05,0.1,1.03,-0,0,-0,0.11,,,,,,,,,,
495,0,0.0,0.32,,,,,,,,,,,,,,,,,,
497,0,0.0,0.32,,,,,,,,,,,,,,,,,,
499,0,0.0,0.32,,,,,,,,,,,,,,,,,,
501,0,0.0,0.32,,,,,,,,,,,,,,,,,,
503,0,0.0,0.32,,-0.22,0.07,0.95,0,-0,-0,0.23,0,2040,0,0.0,0.0,0.0,0.0,0,0,0.0
505,0,0.0,0.32,,,,,,,,,,,,,,,,,,
507,0,0.0,0.32,,,,,,,,,,,,,,,,,,
509,0,0.0,0.32,,,,,,,,,,,,,,,,,,
511,0,0.0,0.32,,,,,,,,,,,,,,,,,,
513,0,0.0,0.32,,0.03,0.06,1.02,0,-1,-0,0.06,,,,,,,,,,
515,0,0.0,0.33,,,,,,,,,,,,,,,,,,
517,0,0.0,0.32,,,,,,,,,,,,,,,,,,
519,0,0.0,0.33,,,,,,,,,,,,,,,,,,
521,0,0.0,0.33,,,,,,,,,,,,,,,,,,
523,0,0.0,0.34,,-0.08,0.08,1.0,-0,0,-0,0.11,0,2040,0,0.0,0.0,0.0,0.0,0,0,0.0
525,0,0.0,0.33,,,,,,,,,,,,,,,,,,
527,0,0.0,0.33,,,,,,,,,,,,,,,,,,
529,0,0.0,0.33,,,,,,,,,,,,,,,,,,
531,0,0.0,0.32,,,,,,,,,,,,,,,,,,
533,0,0.0,0.33,,-0.17,0.09,0.95,0,-1,-0,0.19,,,,,,,,,,
535,0,0.0,0.33,,,,,,,,,,,,,,,,,,
537,0,0.0,0.33,,,,,,,,,,,,,,,,,,
539,0,0.01,0.33,,,,,,,,,,,,,,,,,,
541,0,0.0,0.33,,,,,,,,,,,,,,,,,,
543,0,0.0,0.33,,0.0,0.05,0.91,0,-1,-0,0.05,0,2040,0,0.0,0.0,0.0,0.0,0,0,0.0
545,0,0.0,0.33,,,,,,,,,,,,,,,,,,
547,0,0.0,0.33,,,,,,,,,,,,,,,,,,
549,0,0.0,0.33,,,,,,,,,,,,,,,,,,
551,0,0.0,0.34,,,,,,,,,,,,,,,,,,
553,0,0.0,0.34,,-0.07,0.11,1.05,-0,0,-0,0.13,,,,,,,,,,
555,0,0.0,0.33,,,,,,,,,,,,,,,,,,
557,0,0.0,0.33,,,,,,,,,,,,,,,,,,
559,0,0.0,0.33,,,,,,,,,,,,,,,,,,
561,0,0.0,0.33,,,,,,,,,,,,,,,,,,
563,0,0.0,0.33,,-0.23,0.09,1.01,0,-1,-1,0.25,0,2040,0,0.0,0.0,0.0,0.0,0,0,0.0
565,0,0.0,0.33,,,,,,,,,,,,,,,,,,
567,0,0.01,0.33,,,,,,,,,,,,,,,,,,
569,0,0.0,0.33,,,,,,,,,,,,,,,,,,
571,0,0.0,0.34,,,,,,,,,,,,,,,,,,
573,0,0.0,0.33,,0.06,0.03,1.0,0,-0,-0,0.06,,,,,,,,,,
575,0,0.0,0.34,,,,,,,,,,,,,,,,,,
577,0,0.0,0.34,,,,,,,,,,,,,,,,,,
579,0,0.0,0.34,,,,,,,,,,,,,,,,,,
581,0,0.01,0.35,,,,,,,,,,,,,,,,,,
583,0,0.0,0.34,,-0.13,0.08,1.01,-0,0,-0,0.16,0,2040,0,0.0,0.0,0.0,0.0,0,0,0.0
585,0,0.0,0.33,,,,,,,,,,,,,,,,,,
587,0,0.0,0.33,,,,,,,,,,,,,,,,,,
589,0,0.0,0.34,,,,,,,,,,,,,,,,,,
591,0,0.0,0.34,,,,,,,,,,,,,,,,,,
593,0,0.0,0.34,,-0.16,0.09,1.05,0,-1,-0,0.18,,,,,,,,,,
595,0,0.0,0.34,,,,,,,,,,,,,,,,,,
597,0,0.0,0.34,,,,,,,,,,,,,,,,,,
599,0,0.0,0.34,,,,,,,,,,,,,,,,,,
601,0,0.0,0.34,,,,,,,,,,,,,,,,,,
603,0,0.0,0.34,,0.02,0.03,0.91,0,-1,-0,0.04,0,2040,0,0.0,0.0,0.0,0.0,0,0,0.0
605,0,0.0,0.34,,,,,,,,,,,,,,,,,,
607,0,0.0,0.34,,,,,,,,,,,,,,,,,,
609,0,0.0,0.35,,,,,,,,,,,,,,,,,,
611,0,0.0,0.34,,,,,,,,,,,,,,,,,,
613,0,0.0,0.34,,-0.08,0.1,1.02,-0,0,-0,0.13,,,,,,,,,,
615,0,0.0,0.34,,,,,,,,,,,,,,,,,,
617,0,0.0,0.34,,,,,,,,,,,,,,,,,,
619,0,0.0,0.35,,,,,,,,,,,,,,,,,,
621,0,0.0,0.34,,,,,,,,,,,,,,,,,,
623,0,0.0,0.34,,-0.14,0.09,1.03,0,-1,-1,0.17,0,2040,0,0.0,0.0,0.0,0.0,0,0,0.0
625,0,0.0,0.34,,,,,,,,,,,,,,,,,,
627,0,0.0,0.35,,,,,,,,,,,,,,,,,,
629,0,0.0,0.34,,,,,,,,,,,,,,,,,,
631,0,0.0,0.35,,,,,,,,,,,,,,,,,,
633,0,0.0,0.35,,0.05,0.04,0.99,0,-0,-0,0.06,,,,,,,,,,
635,0,0.0,0.35,,,,,,,,,,,,,,,,,,
637,0,0.0,0.35,,,,,,,,,,,,,,,,,,
639,0,0.0,0.36,,,,,,,,,,,,,,,,,,
641,0,0.0,0.35,,,,,,,,,,,,,,,,,,
643,0,0.0,0.35,,-0.16,0.07,1.0,-0,0,-0,0.17,0,2040,0,0.0,0.0,0.0,0.0,0,0,0.0
645,0,0.0,0.35,,,,,,,,,,,,,,,,,,
647,0,0.0,0.35,,,,,,,,,,,,,,,,,,
649,0,0.0,0.35,,,,,,,,,,,,,,,,,,
651,0,0.0,0.35,,,,,,,,,,,,,,,,,,
653,0,0.0,0.35,,-0.13,0.09,1.04,0,-0,-0,0.16,,,,,,,,,,
655,0,0.0,0.35,,,,,,,,,,,,,,,,,,
657,0,0.0,0.35,,,,,,,,,,,,,,,,,,
659,0,0.0,0.35,,,,,,,,,,,,,,,,,,
661,0,0.0,0.35,,,,,,,,,,,,,,,,,,
663,0,0.0,0.35,,-0.01,0.06,0.98,-0,-0,-0,0.06,0,2040,0,0.0,0.0,0.0,0.0,0,0,0.0
665,0,0.0,0.35,,,,,,,,,,,,,,,,,,
667,0,0.0,0.36,,,,,,,,,,,,,,,,,,
669,0,0.0,0.35,,,,,,,,,,,,,,,,,,
671,0,0.0,0.35,,,,,,,,,,,,,,,,,,
673,0,0.0,0.35,,-0.08,0.08,0.98,0,-0,-0,0.11,,,,,,,,,,
675,0,0.0,0.35,,,,,,,,,,,,,,,,,,
677,0,0.01,0.35,,,,,,,,,,,,,,,,,,
679,0,0.0,0.35,,,,,,,,,,,,,,,,,,
681,0,0.0,0.35,,,,,,,,,,,,,,,,,,
683,0,0.0,0.35,,-0.04,0.08,1.03,1,-0,-0,0.09,0,2040,0,0.0,0.0,0.0,0.0,0,0,0.0
685,0,0.0,0.36,,,,,,,,,,,,,,,,,,
687,0,0.0,0.36,,,,,,,,,,,,,,,,,,
689,0,0.0,0.36,,,,,,,,,,,,,,,,,,
691,0,0.01,0.36,,,,,,,,,,,,,,,,,,
693,0,0.0,0.36,,-0.01,0.05,1.02,-0,-0,-0,0.05,,,,,,,,,,
695,0,0.0,0.36,,,,,,,,,,,,,,,,,,
697,0,0.0,0.36,,,,,,,,,,,,,,,,,,
699,0,0.0,0.36,,,,,,,,,,,,,,,,,,
701,0,0.0,0.36,,,,,,,,,,,,,,,,,,
703,0,0.0,0.36,,-0.13,0.06,0.95,0,0,-0,0.14,0,2040,0,0.0,0.0,0.0,0.0,0,0,0.0
705,0,0.01,0.36,,,,,,,,,,,,,,,,,,
707,0,0.0,0.36,,,,,,,,,,,,,,,,,,
709,0,0.0,0.36,,,,,,,,,,,,,,,,,,
711,0,0.0,0.36,,,,,,,,,,,,,,,,,,
713,0,0.0,0.36,,-0.08,0.09,0.99,0,-0,-0,0.12,,,,,,,,,,
715,0,0.0,0.36,,,,,,,,,,,,,,,,,,
717,0,0.0,0.36,,,,,,,,,,,,,,,,,,
719,0,0.01,0.36,,,,,,,,,,,,,,,,,,
721,0,0.0,0.36,,,,,,,,,,,,,,,,,,
723,0,0.0,0.36,,-0.03,0.06,1.03,-0,-0,-0,0.07,0,2040,0,0.0,0.0,0.0,0.0,0,0,0.0
725,0,0.0,0.37,,,,,,,,,,,,,,,,,,
727,0,0.0,0.36,,,,,,,,,,,,,,,,,,
729,0,0.0,0.36,,,,,,,,,,,,,,,,,,
731,0,0.0,0.36,,,,,,,,,,,,,,,,,,
733,0,0.0,0.36,,-0.13,0.06,0.94,0,-0,-0,0.14,,,,,,,,,,
735,0,0.0,0.36,,,,,,,,,,,,,,,,,,
737,0,0.0,0.36,,,,,,,,,,,,,,,,,,
739,0,0.0,0.37,,,,,,,,,,,,,,,,,,
741,0,0.0,0.37,,,,,,,,,,,,,,,,,,
743,0,0.0,0.37,,0.02,0.06,0.97,0,-0,-0,0.06,0,2040,0,0.0,0.0,0.0,0.0,0,0,0.0
745,0,0.0,0.36,,,,,,,,,,,,,,,,,,
747,0,0.0,0.37,,,,,,,,,,,,,,,,,,
749,0,0.0,0.37,,,,,,,,,,,,,,,,,,
751,0,0.0,0.37,,,,,,,,,,,,,,,,,,
753,0,0.01,0.38,,-0.06,0.07,1.01,-0,0,-0,0.09,,,,,,,,,,
755,0,0.0,0.37,,,,,,,,,,,,,,,,,,
757,0,0.0,0.37,,,,,,,,,,,,,,,,,,
759,0,0.0,0.37,,,,,,,,,,,,,,,,,,
761,0,0.0,0.37,,,,,,,,,,,,,,,,,,
763,0,0.0,0.37,,-0.11,0.09,0.91,0,-0,-0,0.14,0,2040,0,0.0,0.0,0.0,0.0,0,0,0.0
765,0,0.0,0.37,,,,,,,,,,,,,,,,,,
767,0,0.0,0.37,,,,,,,,,,,,,,,,,,
769,0,0.0,0.37,,,,,,,,,,,,,,,,,,
771,0,0.0,0.37,,,,,,,,,,,,,,,,,,
773,0,0.0,0.37,,-0.02,0.06,0.94,0,-1,-0,0.06,,,,,,,,,,
775,0,0.0,0.37,,,,,,,,,,,,,,,,,,
777,0,0.0,0.37,,,,,,,,,,,,,,,,,,
779,0,0.0,0.37,,,,,,,,,,,,,,,,,,
781,0,0.01,0.37,,,,,,,,,,,,,,,,,,
783,0,0.0,0.38,,-0.05,0.09,1.02,-0,0,-0,0.11,0,2040,0,0.0,0.0,0.0,0.0,0,0,0.0
785,0,0.0,0.37,,,,,,,,,,,,,,,,,,
787,0,0.0,0.37,,,,,,,,,,,,,,,,,,
789,0,0.0,0.37,,,,,,,,,,,,,,,,,,
791,0,0.0,0.37,,,,,,,,,,,,,,,,,,
793,0,0.0,0.37,,-0.22,0.08,0.97,0,-0,-0,0.23,,,,,,,,,,
795,0,0.0,0.37,,,,,,,,,,,,,,,,,,
797,0,0.0,0.37,,,,,,,,,,,,,,,,,,
799,0,0.0,0.38,,,,,,,,,,,,,,,,,,
801,0,0.01,0.38,,,,,,,,,,,,,,,,,,
803,0,0.0,0.38,,0.04,0.04,1.0,0,-1,-0,0.05,0,2040,0,0.0,0.0,0.0,0.0,0,0,0.0
805,0,0.0,0.38,,,,,,,,,,,,,,,,,,
807,0,0.0,0.38,,,,,,,,,,,,,,,,,,
809,0,0.0,0.38,,,,,,,,,,,,,,,,,,
811,0,0.0,0.39,,,,,,,,,,,,,,,,,,
813,0,0.0,0.38,,-0.11,0.09,1.0,-0,0,-0,0.14,,,,,,,,,,
815,0,0.0,0.38,,,,,,,,,,,,,,,,,,
817,0,0.0,0.38,,,,,,,,,,,,,,,,,,
819,0,0.0,0.38,,,,,,,,,,,,,,,,,,
821,0,0.0,0.38,,,,,,,,,,,,,,,,,,
823,0,0.0,0.38,,-0.16,0.09,1.02,0,-1,-0,0.19,0,2040,0,0.0,0.0,0.0,0.0,0,0,0.0
825,0,0.0,0.38,,,,,,,,,,,,,,,,,,
827,0,0.0,0.38,,,,,,,,,,,,,,,,,,
829,0,0.01,0.38,,,,,,,,,,,,,,,,,,
831,0,0.0,0.38,,,,,,,,,,,,,,,,,,
833,0,0.0,0.39,,0.02,0.04,0.9,0,-1,-0,0.05,,,,,,,,,,
835,0,0.0,0.38,,,,,,,,,,,,,,,,,,
837,0,0.0,0.38,,,,,,,,,,,,,,,,,,
839,0,0.0,0.38,,,,,,,,,,,,,,,,,,
841,0,0.0,0.4,,,,,,,,,,,,,,,,,,
843,0,0.0,0.38,,-0.08,0.11,1.02,-0,0,-0,0.14,0,2040,0,0.0,0.0,0.0,0.0,0,0,0.0
845,0,0.0,0.38,,,,,,,,,,,,,,,,,,
847,0,0.0,0.38,,,,,,,,,,,,,,,,,,
849,0,0.0,0.38,,,,,,,,,,,,,,,,,,
851,0,0.0,0.38,,,,,,,,,,,,,,,,,,
853,0,0.0,0.38,,-0.16,0.1,1.03,0,-1,-1,0.19,,,,,,,,,,
855,0,0.0,0.38,,,,,,,,,,,,,,,,,,
857,0,0.01,0.39,,,,,,,,,,,,,,,,,,
859,0,0.0,0.39,,,,,,,,,,,,,,,,,,
861,0,0.0,0.39,,,,,,,,,,,,,,,,,,
863,0,0.0,0.39,,0.07,0.03,1.0,0,-0,-0,0.08,0,2040,0,0.0,0.0,0.0,0.0,0,0,0.0
865,0,0.0,0.39,,,,,,,,,,,,,,,,,,
867,0,0.0,0.39,,,,,,,,,,,,,,,,,,
869,0,0.0,0.4,,,,,,,,,,,,,,,,,,
871,0,0.0,0.39,,,,,,,,,,,,,,,,,,
873,0,0.0,0.39,,-0.16,0.09,1.01,-0,0,-0,0.18,,,,,,,,,,
875,0,0.0,0.39,,,,,,,,,,,,,,,,,,
877,0,0.01,0.39,,,,,,,,,,,,,,,,,,
879,0,0.0,0.39,,,,,,,,,,,,,,,,,,
881,0,0.0,0.39,,,,,,,,,,,,,,,,,,
883,0,0.0,0.39,,-0.16,0.09,1.03,0,-1,-0,0.18,0,2040,0,0.0,0.0,0.0,0.0,0,0,0.0
885,0,0.0,0.39,,,,,,,,,,,,,,,,,,
887,0,0.0,0.39,,,,,,,,,,,,,,,,,,
889,0,0.0,0.39,,,,,,,,,,,,,,,,,,
891,0,0.0,0.39,,,,,,,,,,,,,,,,,,
893,0,0.0,0.39,,0.0,0.07,0.96,0,-0,-0,0.07,,,,,,,,,,
895,0,0.0,0.39,,,,,,,,,,,,,,,,,,
897,0,0.0,0.39,,,,,,,,,,,,,,,,,,
899,0,0.0,0.4,,,,,,,,,,,,,,,,,,
901,0,0.0,0.4,,,,,,,,,,,,,,,,,,
903,0,0.0,0.39,,-0.08,0.11,0.98,0,0,-1,0.14,0,2040,0,0.0,0.0,0.0,0.0,0,0,0.0
905,0,0.0,0.4,,,,,,,,,,,,,,,,,,
907,0,0.0,0.39,,,,,,,,,,,,,,,,,,
909,0,0.0,0.4,,,,,,,,,,,,,,,,,,
911,0,0.0,0.39,,,,,,,,,,,,,,,,,,
913,0,0.0,0.39,,-0.1,0.09,1.02,0,-1,-1,0.13,,,,,,,,,,
915,0,0.0,0.4,,,,,,,,,,,,,,,,,,
917,0,0.0,0.4,,,,,,,,,,,,,,,,,,
919,0,0.01,0.4,,,,,,,,,,,,,,,,,,
921,0,0.0,0.4,,,,,,,,,,,,,,,,,,
923,0,0.0,0.4,,0.01,0.07,1.01,-0,-1,-1,0.08,0,2040,0,0.0,0.0,0.0,0.0,0,0,0.0
925,0,0.0,0.4,,,,,,,,,,,,,,,,,,
927,0,0.0,0.41,,,,,,,,,,,,,,,,,,
929,0,0.0,0.4,,,,,,,,,,,,,,,,,,
931,0,0.0,0.4,,,,,,,,,,,,,,,,,,
933,0,0.0,0.4,,-0.15,0.06,0.95,-0,0,-0,0.16,,,,,,,,,,
935,0,0.0,0.4,,,,,,,,,,,,,,,,,,
937,0,0.0,0.4,,,,,,,,,,,,,,,,,,
939,0,0.01,0.4,,,,,,,,,,,,,,,,,,
941,0,0.0,0.4,,,,,,,,,,,,,,,,,,
943,0,0.0,0.4,,-0.11,0.09,1.01,0,-0,-0,0.14,0,2040,0,0.0,0.0,0.0,0.0,0,0,0.0
945,0,0.0,0.4,,,,,,,,,,,,,,,,,,
947,0,0.0,0.4,,,,,,,,,,,,,,,,,,
949,0,0.0,0.41,,,,,,,,,,,,,,,,,,
951,0,0.0,0.4,,,,,,,,,,,,,,,,,,
953,0,0.0,0.4,,-0.04,0.07,1.0,-0,-1,-0,0.08,,,,,,,,,,
955,0,0.0,0.4,,,,,,,,,,,,,,,,,,
957,0,0.0,0.41,,,,,,,,,,,,,,,,,,
959,0,0.0,0.4,,,,,,,,,,,,,,,,,,
961,0,0.0,0.41,,,,,,,,,,,,,,,,,,
963,0,0.0,0.4,,-0.1,0.06,0.94,0,-0,-1,0.11,0,2040,0,0.0,0.0,0.0,0.0,0,0,0.0
965,0,0.0,0.41,,,,,,,,,,,,,,,,,,
967,0,0.0,0.4,,,,,,,,,,,,,,,,,,
969,0,0.0,0.4,,,,,,,,,,,,,,,,,,
971,0,0.0,0.41,,,,,,,,,,,,,,,,,,
973,0,0.0,0.4,,-0.01,0.07,1.01,1,-0,-1,0.07,,,,,,,,,,
975,0,0.0,0.41,,,,,,,,,,,,,,,,,,
977,0,0.0,0.41,,,,,,,,,,,,,,,,,,
979,0,0.0,0.41,,,,,,,,,,,,,,,,,,
981,0,0.01,0.41,,,,,,,,,,,,,,,,,,
983,0,0.0,0.41,,-0.02,0.04,1.0,-0,-0,-1,0.05,0,2040,0,0.0,0.0,0.0,0.0,0,0,0.0
985,0,0.0,0.42,,,,,,,,,,,,,,,,,,
987,0,0.0,0.41,,,,,,,,,,,,,,,,,,
989,0,0.0,0.41,,,,,,,,,,,,,,,,,,
991,0,0.0,0.41,,,,,,,,,,,,,,,,,,
993,0,0.0,0.41,,-0.11,0.04,0.9,0,0,-1,0.12,,,,,,,,,,
995,0,0.01,0.41,,,,,,,,,,,,,,,,,,
997,0,0.0,0.41,,,,,,,,,,,,,,,,,,
999,0,0.0,0.41,,,,,,,,,,,,,,,,,,
1001,0,0.0,0.41,,,,,,,,,,,,,,,,,,
1003,0,0.0,0.41,,-0.05,0.04,0.95,1,-0,-1,0.07,0,2040,0,0.0,0.0,0.0,0.0,0,0,0.0
1005,0,0.0,0.41,,,,,,,,,,,,,,,,,,
1007,0,0.0,0.41,,,,,,,,,,,,,,,,,,
1009,0,0.0,0.41,,,,,,,,,,,,,,,,,,
1011,0,0.0,0.41,,,,,,,,,,,,,,,,,,
1013,0,0.0,0.42,,-0.06,0.06,1.04,-0,-0,-0,0.08,,,,,,,,,,
1015,0,0.0,0.43,,,,,,,,,,,,,,,,,,
1017,0,0.0,0.41,,,,,,,,,,,,,,,,,,
1019,0,0.0,0.41,,,,,,,,,,,,,,,,,,
1021,0,0.0,0.41,,,,,,,,,,,,,,,,,,
1023,0,0.0,0.42,,-0.19,0.04,0.92,0,-0,-0,0.19,0,2040,0,0.0,0.0,0.0,0.0,0,0,0.0
1025,0,0.0,0.41,,,,,,,,,,,,,,,,,,
1027,0,0.0,0.41,,,,,,,,,,,,,,,,,,
1029,0,0.0,0.42,,,,,,,,,,,,,,,,,,
1031,0,0.0,0.42,,,,,,,,,,,,,,,,,,
1033,0,0.0,0.42,,0.01,0.03,1.01,1,-0,-0,0.03,,,,,,,,,,
1035,0,0.0,0.42,,,,,,,,,,,,,,,,,,
1037,0,0.0,0.42,,,,,,,,,,,,,,,,,,
1039,0,0.0,0.42,,,,,,,,,,,,,,,,,,
1041,0,0.0,0.42,,,,,,,,,,,,,,,,,,
1043,0,0.0,0.43,13.26,-0.05,0.06,0.99,-0,0,0,0.08,0,2040,0,0.0,0.0,0.0,0.0,0,0,0.0
1045,0,0.0,0.41,,,,,,,,,,,,,,,,,,
1047,0,0.0,0.42,,,,,,,,,,,,,,,,,,
1049,0,0.0,0.42,,,,,,,,,,,,,,,,,,
1051,0,0.0,0.42,,,,,,,,,,,,,,,,,,
1053,0,0.0,0.42,,-0.13,0.07,0.95,0,-1,0,0.15,,,,,,,,,,
1055,0,0.0,0.42,,,,,,,,,,,,,,,,,,
1057,0,0.0,0.42,,,,,,,,,,,,,,,,,,
1059,0,0.0,0.42,,,,,,,,,,,,,,,,,,
1061,0,0.0,0.42,,,,,,,,,,,,,,,,,,
1063,0,0.0,0.42,,-0.02,0.03,0.93,0,-1,-0,0.04,0,2040,0,0.0,0.0,0.0,0.0,0,0,0.0
1065,0,0.0,0.42,,,,,,,,,,,,,,,,,,
1067,0,0.0,0.42,,,,,,,,,,,,,,,,,,
1069,0,0.0,0.42,,,,,,,,,,,,,,,,,,
1071,0,0.0,0.42,,,,,,,,,,,,,,,,,,
1073,0,0.0,0.44,,-0.06,0.1,1.07,-0,0,0,0.11,,,,,,,,,,
1075,0,0.0,0.42,,,,,,,,,,,,,,,,,,
1077,0,0.0,0.42,,,,,,,,,,,,,,,,,,
1079,0,0.0,0.42,,,,,,,,,,,,,,,,,,
1081,0,0.0,0.42,,,,,,,,,,,,,,,,,,
1083,0,0.0,0.43,,-0.22,0.07,1.01,0,-1,0,0.23,0,2040,0,0.0,0.0,0.0,0.0,0,0,0.0
1085,0,0.0,0.43,,,,,,,,,,,,,,,,,,
1087,0,0.0,0.43,,,,,,,,,,,,,,,,,,
1089,0,0.0,0.43,,,,,,,,,,,,,,,,,,
1091,0,0.01,0.43,,,,,,,,,,,,,,,,,,
1093,0,0.0,0.43,,0.04,0.04,1.04,-0,-1,0,0.06,,,,,,,,,,
1095,0,0.0,0.43,,,,,,,,,,,,,,,,,,
1097,0,0.0,0.43,,,,,,,,,,,,,,,,,,
1099,0,0.0,0.43,,,,,,,,,,,,,,,,,,
1101,0,0.0,0.44,,,,,,,,,,,,,,,,,,
1103,0,0.0,0.43,,-0.09,0.1,1.02,-0,0,0,0.13,0,2040,0,0.0,0.0,0.0,0.0,0,0,0.0
1105,0,0.01,0.43,,,,,,,,,,,,,,,,,,
1107,0,0.0,0.43,,,,,,,,,,,,,,,,,,
1109,0,0.0,0.43,,,,,,,,,,,,,,,,,,
1111,0,0.0,0.43,,,,,,,,,,,,,,,,,,
1113,0,0.0,0.43,,-0.14,0.1,1.04,0,-1,0,0.17,,,,,,,,,,
1115,0,0.0,0.43,,,,,,,,,,,,,,,,,,
1117,0,0.0,0.43,,,,,,,,,,,,,,,,,,
1119,0,0.01,0.43,,,,,,,,,,,,,,,,,,
1121,0,0.0,0.43,,,,,,,,,,,,,,,,,,
1123,0,0.0,0.43,,0.02,0.06,0.93,-0,-1,0,0.07,0,2040,0,0.0,0.0,0.0,0.0,0,0,0.0
1125,0,0.0,0.43,,,,,,,,,,,,,,,,,,
1127,0,0.0,0.43,,,,,,,,,,,,,,,,,,
1129,0,0.0,0.43,,,,,,,,,,,,,,,,,,
1131,0,0.0,0.44,,,,,,,,,,,,,,,,,,
1133,0,0.0,0.44,,-0.05,0.13,1.02,-0,0,-0,0.14,,,,,,,,,,
1135,0,0.0,0.43,,,,,,,,,,,,,,,,,,
1137,0,0.0,0.43,,,,,,,,,,,,,,,,,,
1139,0,0.0,0.43,,,,,,,,,,,,,,,,,,
1141,0,0.0,0.43,,,,,,,,,,,,,,,,,,
1143,0,0.0,0.44,,-0.15,0.13,1.03,0,-1,-0,0.2,0,2040,0,0.0,0.0,0.0,0.0,0,0,0.0
1145,0,0.0,0.43,,,,,,,,,,,,,,,,,,
1147,0,0.0,0.44,,,,,,,,,,,,,,,,,,
1149,0,0.0,0.44,,,,,,,,,,,,,,,,,,
1151,0,0.0,0.44,,,,,,,,,,,,,,,,,,
1153,0,0.0,0.44,,0.06,0.06,1.0,0,-0,-0,0.08,,,,,,,,,,
1155,0,0.0,0.44,,,,,,,,,,,,,,,,,,
1157,0,0.0,0.44,,,,,,,,,,,,,,,,,,
1159,0,0.0,0.45,,,,,,,,,,,,,,,,,,
1161,0,0.0,0.44,,,,,,,,,,,,,,,,,,
1163,0,0.0,0.44,,-0.14,0.11,1.0,-0,1,-0,0.18,0,2040,0,0.0,0.0,0.0,0.0,0,0,0.0
1165,0,0.0,0.44,,,,,,,,,,,,,,,,,,
1167,0,0.01,0.44,,,,,,,,,,,,,,,,,,
1169,0,0.0,0.44,,,,,,,,,,,,,,,,,,
1171,0,0.0,0.44,,,,,,,,,,,,,,,,,,
1173,0,0.0,0.44,,-0.15,0.12,1.02,0,-1,-1,0.19,,,,,,,,,,
1175,0,0.0,0.44,,,,,,,,,,,,,,,,,,
1177,0,0.0,0.44,,,,,,,,,,,,,,,,,,
1179,0,0.0,0.44,,,,,,,,,,,,,,,,,,
1181,0,0.0,0.44,,,,,,,,,,,,,,,,,,
1183,0,0.0,0.44,,-0.01,0.07,0.94,0,-0,-0,0.07,0,2040,0,0.0,0.0,0.0,0.0,0,0,0.0
1185,0,0.0,0.45,,,,,,,,,,,,,,,,,,
1187,0,0.0,0.44,,,,,,,,,,,,,,,,,,
1189,0,0.0,0.46,,,,,,,,,,,,,,,,,,
1191,0,0.0,0.45,,,,,,,,,,,,,,,,,,
1193,0,0.0,0.44,,-0.08,0.11,0.98,0,0,-0,0.14,,,,,,,,,,
1195,0,0.01,0.44,,,,,,,,,,,,,,,,,,
1197,0,0.0,0.44,,,,,,,,,,,,,,,,,,
1199,0,0.0,0.45,,,,,,,,,,,,,,,,,,
1201,0,0.0,0.44,,,,,,,,,,,,,,,,,,
1203,0,0.0,0.44,,-0.08,0.11,1.02,1,0,-1,0.13,0,2040,0,0.0,0.0,0.0,0.0,0,0,0.0
1205,0,0.0,0.45,,,,,,,,,,,,,,,,,,
1207,0,0.0,0.45,,,,,,,,,,,,,,,,,,
1209,0,0.0,0.45,,,,,,,,,,,,,,,,,,
1211,0,0.0,0.45,,,,,,,,,,,,,,,,,,
1213,0,0.0,0.45,,0.0,0.07,1.02,0,0,-1,0.07,,,,,,,,,,
1215,0,0.01,0.45,,,,,,,,,,,,,,,,,,
1217,0,0.0,0.46,,,,,,,,,,,,,,,,,,
1219,0,0.0,0.45,,,,,,,,,,,,,,,,,,
1221,0,0.0,0.45,,,,,,,,,,,,,,,,,,
1223,0,0.01,0.45,,-0.13,0.06,0.95,0,0,-1,0.14,0,2040,0,0.0,0.0,0.0,0.0,0,0,0.0
1225,0,0.0,0.45,,,,,,,,,,,,,,,,,,
1227,0,0.0,0.45,,,,,,,,,,,,,,,,,,
1229,0,0.0,0.45,,,,,,,,,,,,,,,,,,
1231,0,0.0,0.45,,,,,,,,,,,,,,,,,,
1233,0,0.0,0.45,,-0.11,0.08,1.01,1,0,-1,0.14,,,,,,,,,,
1235,0,0.0,0.45,,,,,,,,,,,,,,,,,,
1237,0,0.0,0.45,,,,,,,,,,,,,,,,,,
1239,0,0.0,0.45,,,,,,,,,,,,,,,,,,
1241,0,0.0,0.46,,,,,,,,,,,,,,,,,,
1243,0,0.0,0.45,,-0.04,0.05,1.01,-0,-0,-0,0.07,0,2040,0,0.0,0.0,0.0,0.0,0,0,0.0
1245,0,0.0,0.45,,,,,,,,,,,,,,,,,,
1247,0,0.0,0.47,,,,,,,,,,,,,,,,,,
1249,0,0.0,0.45,,,,,,,,,,,,,,,,,,
1251,0,0.0,0.45,,,,,,,,,,,,,,,,,,
1253,0,0.0,0.46,,-0.1,0.05,0.94,0,-0,-1,0.12,,,,,,,,,,
1255,0,0.0,0.45,,,,,,,,,,,,,,,,,,
1257,0,0.0,0.46,,,,,,,,,,,,,,,,,,
1259,0,0.0,0.45,,,,,,,,,,,,,,,,,,
1261,0,0.0,0.46,,,,,,,,,,,,,,,,,,
1263,0,0.0,0.46,,-0.02,0.07,1.01,1,0,-1,0.08,0,2040,0,0.0,0.0,0.0,0.0,0,0,0.0
1265,0,0.0,0.45,,,,,,,,,,,,,,,,,,
1267,0,0.0,0.46,,,,,,,,,,,,,,,,,,
1269,0,0.0,0.46,,,,,,,,,,,,,,,,,,
1271,0,0.0,0.46,,,,,,,,,,,,,,,,,,
1273,0,0.0,0.46,,-0.03,0.04,1.02,-0,-0,-0,0.05,,,,,,,,,,
1275,0,0.0,0.47,,,,,,,,,,,,,,,,,,
1277,0,0.01,0.46,,,,,,,,,,,,,,,,,,
1279,0,0.0,0.46,,,,,,,,,,,,,,,,,,
1281,0,0.0,0.46,,,,,,,,,,,,,,,,,,
1283,0,0.0,0.46,,-0.12,0.04,0.91,0,-0,-1,0.13,0,2040,0,0.0,0.0,0.0,0.0,0,0,0.0
1285,0,0.0,0.46,,,,,,,,,,,,,,,,,,
1287,0,0.0,0.46,,,,,,,,,,,,,,,,,,
1289,0,0.0,0.46,,,,,,,,,,,,,,,,,,
1291,0,0.01,0.46,,,,,,,,,,,,,,,,,,
1293,0,0.0,0.46,,-0.06,0.05,0.97,0,-0,-1,0.08,,,,,,,,,,
1295,0,0.0,0.46,,,,,,,,,,,,,,,,,,
1297,0,0.0,0.46,,,,,,,,,,,,,,,,,,
1299,0,0.0,0.46,,,,,,,,,,,,,,,,,,
1301,0,0.0,0.46,,,,,,,,,,,,,,,,,,
1303,0,0.0,0.46,,-0.07,0.08,1.04,-0,-0,-0,0.11,0,2040,0,0.0,0.0,0.0,0.0,0,0,0.0
1305,0,0.0,0.47,,,,,,,,,,,,,,,,,,
1307,0,0.0,0.46,,,,,,,,,,,,,,,,,,
1309,0,0.0,0.46,,,,,,,,,,,,,,,,,,
1311,0,0.0,0.46,,,,,,,,,,,,,,,,,,
1313,0,0.0,0.46,,-0.2,0.04,0.93,0,-1,-0,0.21,,,,,,,,,,
1315,0,0.0,0.46,,,,,,,,,,,,,,,,,,
1317,0,0.0,0.47,,,,,,,,,,,,,,,,,,
1319,0,0.0,0.46,,,,,,,,,,,,,,,,,,
1321,0,0.0,0.46,,,,,,,,,,,,,,,,,,
1323,0,0.0,0.47,,0.0,0.04,1.02,0,-1,-0,0.04,0,2040,0,0.0,0.0,0.0,0.0,0,0,0.0
1325,0,0.0,0.46,,,,,,,,,,,,,,,,,,
1327,0,0.0,0.46,,,,,,,,,,,,,,,,,,
1329,0,0.0,0.47,,,,,,,,,,,,,,,,,,
1331,0,0.0,0.46,,,,,,,,,,,,,,,,,,
1333,0,0.0,0.48,,-0.06,0.08,0.99,-0,-0,-0,0.1,,,,,,,,,,
1335,0,0.0,0.47,,,,,,,,,,,,,,,,,,
1337,0,0.0,0.47,,,,,,,,,,,,,,,,,,
1339,0,0.01,0.47,,,,,,,,,,,,,,,,,,
1341,0,0.0,0.47,,,,,,,,,,,,,,,,,,
1343,0,0.0,0.47,,-0.13,0.09,0.95,0,-1,-0,0.16,0,2040,0,0.0,0.0,0.0,0.0,0,0,0.0
1345,0,0.0,0.47,,,,,,,,,,,,,,,,,,
1347,0,0.0,0.47,,,,,,,,,,,,,,,,,,
1349,0,0.0,0.47,,,,,,,,,,,,,,,,,,
1351,0,0.0,0.47,,,,,,,,,,,,,,,,,,
1353,0,0.01,0.47,,-0.02,0.06,0.93,0,-1,-0,0.06,,,,,,,,,,
1355,0,0.0,0.47,,,,,,,,,,,,,,,,,,
1357,0,0.0,0.47,,,,,,,,,,,,,,,,,,
1359,0,0.0,0.47,,,,,,,,,,,,,,,,,,
1361,0,0.0,0.47,,,,,,,,,,,,,,,,,,
1363,0,0.0,0.48,,-0.06,0.11,1.04,-0,0,-0,0.13,0,2040,0,0.0,0.0,0.0,0.0,0,0,0.0
1365,0,0.0,0.47,,,,,,,,,,,,,,,,,,
1367,0,0.01,0.47,,,,,,,,,,,,,,,,,,
1369,0,0.0,0.47,,,,,,,,,,,,,,,,,,
1371,0,0.0,0.47,,,,,,,,,,,,,,,,,,
1373,0,0.0,0.47,,-0.22,0.08,0.97,0,-0,-0,0.23,,,,,,,,,,
1375,0,0.0,0.48,,,,,,,,,,,,,,,,,,
1377,0,0.0,0.47,,,,,,,,,,,,,,,,,,
1379,0,0.0,0.47,,,,,,,,,,,,,,,,,,
1381,0,0.01,0.47,,,,,,,,,,,,,,,,,,
1383,0,0.0,0.48,,0.02,0.05,1.01,0,-0,-1,0.05,0,2040,0,0.0,0.0,0.0,0.0,0,0,0.0
1385,0,0.0,0.48,,,,,,,,,,,,,,,,,,
1387,0,0.0,0.47,,,,,,,,,,,,,,,,,,
1389,0,0.0,0.48,,,,,,,,,,,,,,,,,,
1391,0,0.0,0.48,,,,,,,,,,,,,,,,,,
1393,0,0.0,0.48,,-0.13,0.1,0.98,-0,1,0,0.16,,,,,,,,,,
1395,0,0.0,0.48,,,,,,,,,,,,,,,,,,
1397,0,0.0,0.48,,,,,,,,,,,,,,,,,,
1399,0,0.0,0.48,,,,,,,,,,,,,,,,,,
1401,0,0.0,0.48,,,,,,,,,,,,,,,,,,
1403,0,0.0,0.47,,-0.18,0.11,1.0,0,-1,-0,0.21,0,2040,0,0.0,0.0,0.0,0.0,0,0,0.0
1405,0,0.0,0.48,,,,,,,,,,,,,,,,,,
1407,0,0.0,0.48,,,,,,,,,,,,,,,,,,
1409,0,0.0,0.48,,,,,,,,,,,,,,,,,,
1411,0,0.0,0.48,,,,,,,,,,,,,,,,,,
1413,0,0.0,0.48,,-0.01,0.04,0.87,0,-1,-0,0.04,,,,,,,,,,
1415,0,0.0,0.48,,,,,,,,,,,,,,,,,,
1417,0,0.0,0.48,,,,,,,,,,,,,,,,,,
1419,0,0.0,0.48,,,,,,,,,,,,,,,,,,
1421,0,0.0,0.49,,,,,,,,,,,,,,,,,,
1423,0,0.0,0.48,,-0.09,0.11,1.01,-0,0,-0,0.14,0,2040,0,0.0,0.0,0.0,0.0,0,0,0.0
1425,0,0.0,0.48,,,,,,,,,,,,,,,,,,
1427,0,0.0,0.48,,,,,,,,,,,,,,,,,,
1429,0,0.01,0.48,,,,,,,,,,,,,,,,,,
1431,0,0.0,0.48,,,,,,,,,,,,,,,,,,
1433,0,0.0,0.48,,-0.19,0.1,1.03,0,-1,-1,0.22,,,,,,,,,,
1435,0,0.0,0.48,,,,,,,,,,,,,,,,,,
1437,0,0.0,0.48,,,,,,,,,,,,,,,,,,
1439,0,0.0,0.48,,,,,,,,,,,,,,,,,,
1441,0,0.0,0.49,,,,,,,,,,,,,,,,,,
1443,0,0.01,0.49,,0.03,0.03,0.99,0,-0,-0,0.04,0,2040,0,0.0,0.0,0.0,0.0,0,0,0.0
1445,0,0.0,0.48,,,,,,,,,,,,,,,,,,
1447,0,0.0,0.49,,,,,,,,,,,,,,,,,,
1449,0,0.0,0.49,,,,,,,,,,,,,,,,,,
1451,0,0.0,0.49,,,,,,,,,,,,,,,,,,
1453,0,0.0,0.48,,-0.14,0.06,1.0,0,0,-0,0.15,,,,,,,,,,
1455,0,0.0,0.48,,,,,,,,,,,,,,,,,,
1457,0,0.0,0.49,,,,,,,,,,,,,,,,,,
1459,0,0.0,0.48,,,,,,,,,,,,,,,,,,
1461,0,0.0,0.49,,,,,,,,,,,,,,,,,,
1463,0,0.0,0.49,,-0.16,0.09,1.04,0,-1,-0,0.18,0,2040,0,0.0,0.0,0.0,0.0,0,0,0.0
1465,0,0.0,0.48,,,,,,,,,,,,,,,,,,
1467,0,0.0,0.49,,,,,,,,,,,,,,,,,,
1469,0,0.0,0.48,,,,,,,,,,,,,,,,,,
1471,0,0.0,0.48,,,,,,,,,,,,,,,,,,
1473,0,0.0,0.48,,-0.04,0.05,0.97,0,-1,-0,0.06,,,,,,,,,,
1475,0,0.0,0.48,,,,,,,,,,,,,,,,,,
1477,0,0.01,0.48,,,,,,,,,,,,,,,,,,
1479,0,0.0,0.49,,,,,,,,,,,,,,,,,,
1481,0,0.0,0.48,,,,,,,,,,,,,,,,,,
1483,0,0.0,0.48,,-0.07,0.08,0.98,0,0,-0,0.1,0,1980,0,0.0,0.0,0.0,0.0,0,0,0.0
1485,0,0.0,0.48,,,,,,,,,,,,,,,,,,
1487,0,0.0,0.48,,,,,,,,,,,,,,,,,,
1489,0,0.0,0.48,,,,,,,,,,,,,,,,,,
1491,0,0.0,0.48,,,,,,,,,,,,,,,,,,
1493,0,0.0,0.47,,-0.11,0.1,1.04,0,-0,-0,0.15,,,,,,,,,,
1495,0,0.0,0.48,,,,,,,,,,,,,,,,,,
1497,0,0.0,0.47,,,,,,,,,,,,,,,,,,
1499,0,0.0,0.48,,,,,,,,,,,,,,,,,,
1501,0,0.0,0.47,,,,,,,,,,,,,,,,,,
1503,0,0.0,0.47,,-0.02,0.06,1.01,0,-0,-0,0.07,0,1980,0,0.0,0.0,0.0,0.0,0,0,0.0
1505,0,0.0,0.48,,,,,,,,,,,,,,,,,,
1507,0,0.0,0.48,,,,,,,,,,,,,,,,,,
1509,0,0.0,0.48,,,,,,,,,,,,,,,,,,
1511,0,0.0,0.47,,,,,,,,,,,,,,,,,,
1513,0,0.0,0.47,,-0.12,0.04,0.95,0,0,-0,0.12,,,,,,,,,,
1515,0,0.0,0.47,,,,,,,,,,,,,,,,,,
1517,0,0.0,0.47,,,,,,,,,,,,,,,,,,
1519,0,0.0,0.47,,,,,,,,,,,,,,,,,,
1521,0,0.0,0.47,,,,,,,,,,,,,,,,,,
1523,0,0.0,0.47,,-0.15,0.09,1.06,0,0,-0,0.18,0,2040,0,0.0,0.0,0.0,0.0,0,0,0.0
1525,0,0.0,0.47,,,,,,,,,,,,,,,,,,
1527,0,0.0,0.47,,,,,,,,,,,,,,,,,,
1529,0,0.0,0.47,,,,,,,,,,,,,,,,,,
1531,0,0.01,0.47,,,,,,,,,,,,,,,,,,
1533,0,0.0,0.47,,-0.07,0.06,0.98,-0,-0,-0,0.1,,,,,,,,,,
1535,0,0.0,0.47,,,,,,,,,,,,,,,,,,
1537,0,0.0,0.48,,,,,,,,,,,,,,,,,,
1539,0,0.0,0.47,,,,,,,,,,,,,,,,,,
1541,0,0.0,0.47,,,,,,,,,,,,,,,,,,
1543,0,0.0,0.47,,-0.08,0.07,0.92,0,0,-0,0.1,0,1980,0,0.0,0.0,0.0,0.0,0,0,0.0
1545,0,0.0,0.47,,,,,,,,,,,,,,,,,,
1547,0,0.0,0.47,,,,,,,,,,,,,,,,,,
1549,0,0.0,0.47,,,,,,,,,,,,,,,,,,
1551,0,0.0,0.47,,,,,,,,,,,,,,,,,,
1553,0,0.01,0.47,,-0.09,0.11,1.05,1,0,-1,0.14,,,,,,,,,,
1555,0,0.0,0.47,,,,,,,,,,,,,,,,,,
1557,0,0.0,0.47,,,,,,,,,,,,,,,,,,
1559,0,0.0,0.47,,,,,,,,,,,,,,,,,,
1561,0,0.0,0.47,,,,,,,,,,,,,,,,,,
1563,0,0.0,0.47,,-0.07,0.05,1.0,0,-1,-0,0.09,0,1980,0,0.0,0.0,0.0,0.0,0,0,0.0
1565,0,0.0,0.47,,,,,,,,,,,,,,,,,,
1567,0,0.0,0.48,,,,,,,,,,,,,,,,,,
1569,0,0.0,0.47,,,,,,,,,,,,,,,,,,
1571,0,0.0,0.47,,,,,,,,,,,,,,,,,,
1573,0,0.0,0.47,,-0.11,0.05,0.9,-0,0,-1,0.12,,,,,,,,,,
1575,0,0.0,0.47,,,,,,,,,,,,,,,,,,
1577,0,0.0,0.47,,,,,,,,,,,,,,,,,,
1579,0,0.0,0.47,,,,,,,,,,,,,,,,,,
1581,0,0.0,0.47,,,,,,,,,,,,,,,,,,
1583,0,0.0,0.47,,-0.14,0.09,1.02,0,1,-1,0.17,0,2040,0,0.0,0.0,0.0,0.0,0,0,0.0
1585,0,0.0,0.47,,,,,,,,,,,,,,,,,,
1587,0,0.0,0.47,,,,,,,,,,,,,,,,,,
1589,0,0.0,0.46,,,,,,,,,,,,,,,,,,
1591,0,0.0,0.46,,,,,,,,,,,,,,,,,,
1593,0,0.0,0.47,,-0.08,0.06,1.04,-0,-0,-0,0.1,,,,,,,,,,
1595,0,0.0,0.48,,,,,,,,,,,,,,,,,,
1597,0,0.0,0.47,,,,,,,,,,,,,,,,,,
1599,0,0.0,0.47,,,,,,,,,,,,,,,,,,
1601,0,0.0,0.47,,,,,,,,,,,,,,,,,,
1603,0,0.0,0.46,,-0.15,0.06,0.95,0,0,-1,0.17,0,1980,0,0.0,0.0,0.0,0.0,0,0,0.0
1605,0,0.0,0.47,,,,,,,,,,,,,,,,,,
1607,0,0.0,0.46,,,,,,,,,,,,,,,,,,
1609,0,0.0,0.46,,,,,,,,,,,,,,,,,,
1611,0,0.0,0.46,,,,,,,,,,,,,,,,,,
1613,0,0.0,0.46,,-0.13,0.1,1.05,0,1,-1,0.16,,,,,,,,,,
1615,0,0.0,0.46,,,,,,,,,,,,,,,,,,
1617,0,0.0,0.46,,,,,,,,,,,,,,,,,,
1619,0,0.0,0.46,,,,,,,,,,,,,,,,,,
1621,0,0.0,0.46,,,,,,,,,,,,,,,,,,
1623,0,0.0,0.46,,-0.02,0.04,0.97,0,-0,-1,0.05,0,1980,0,0.0,0.0,0.0,0.0,0,0,0.0
1625,0,0.0,0.48,,,,,,,,,,,,,,,,,,
1627,0,0.0,0.47,,,,,,,,,,,,,,,,,,
1629,0,0.0,0.46,,,,,,,,,,,,,,,,,,
1631,0,0.0,0.46,,,,,,,,,,,,,,,,,,
1633,0,0.0,0.46,,-0.13,0.08,0.88,-0,1,-1,0.15,,,,,,,,,,
1635,0,0.0,0.46,,,,,,,,,,,,,,,,,,
1637,0,0.0,0.46,,,,,,,,,,,,,,,,,,
1639,0,0.0,0.46,,,,,,,,,,,,,,,,,,
1641,0,0.0,0.46,,,,,,,,,,,,,,,,,,
1643,0,0.0,0.46,,-0.2,0.06,0.99,0,0,-1,0.21,0,2040,0,0.0,0.0,0.0,0.0,0,0,0.0
1645,0,0.0,0.46,,,,,,,,,,,,,,,,,,
1647,0,0.0,0.46,,,,,,,,,,,,,,,,,,
1649,0,0.0,0.46,,,,,,,,,,,,,,,,,,
1651,0,0.0,0.46,,,,,,,,,,,,,,,,,,
1653,0,0.0,0.46,,0.0,0.07,0.99,0,-0,-0,0.07,,,,,,,,,,
1655,0,0.0,0.47,,,,,,,,,,,,,,,,,,
1657,0,0.01,0.46,,,,,,,,,,,,,,,,,,
1659,0,0.0,0.46,,,,,,,,,,,,,,,,,,
1661,0,0.0,0.46,,,,,,,,,,,,,,,,,,
1663,0,0.0,0.46,,-0.19,0.09,0.89,-0,0,-1,0.21,0,1980,0,0.0,0.0,0.0,0.0,0,0,0.0
1665,0,0.0,0.46,,,,,,,,,,,,,,,,,,
1667,0,0.0,0.46,,,,,,,,,,,,,,,,,,
1669,0,0.0,0.46,,,,,,,,,,,,,,,,,,
1671,0,0.0,0.46,,,,,,,,,,,,,,,,,,
1673,0,0.0,0.46,,-0.16,0.05,1.06,1,-0,-0,0.16,,,,,,,,,,
1675,0,0.0,0.46,,,,,,,,,,,,,,,,,,
1677,0,0.01,0.46,,,,,,,,,,,,,,,,,,
1679,0,0.0,0.46,,,,,,,,,,,,,,,,,,
1681,0,0.0,0.47,,,,,,,,,,,,,,,,,,
1683,0,0.0,0.47,,0.05,0.03,0.91,-0,-0,-1,0.06,0,2040,0,0.0,0.0,0.0,0.0,0,0,0.0
1685,0,0.0,0.47,,,,,,,,,,,,,,,,,,
1687,0,0.0,0.47,,,,,,,,,,,,,,,,,,
1689,0,0.0,0.47,,,,,,,,,,,,,,,,,,
1691,0,0.01,0.47,,,,,,,,,,,,,,,,,,
1693,0,0.0,0.47,,-0.19,0.13,0.93,-0,1,-1,0.23,,,,,,,,,,
1695,0,0.0,0.47,,,,,,,,,,,,,,,,,,
1697,0,0.0,0.47,,,,,,,,,,,,,,,,,,
1699,0,0.0,0.47,,,,,,,,,,,,,,,,,,
1701,0,0.0,0.47,,,,,,,,,,,,,,,,,,
1703,0,0.0,0.47,,-0.17,0.04,0.96,1,-0,-0,0.17,0,2040,0,0.0,0.0,0.0,0.0,0,0,0.0
1705,0,0.01,0.47,,,,,,,,,,,,,,,,,,
1707,0,0.0,0.47,,,,,,,,,,,,,,,,,,
1709,0,0.0,0.47,,,,,,,,,,,,,,,,,,
1711,0,0.0,0.47,,,,,,,,,,,,,,,,,,
1713,0,0.0,0.49,,0.03,0.1,0.99,-0,1,-1,0.1,,,,,,,,,,
1715,0,0.0,0.48,,,,,,,,,,,,,,,,,,
1717,0,0.0,0.48,,,,,,,,,,,,,,,,,,
1719,0,0.01,0.48,,,,,,,,,,,,,,,,,,
1721,0,0.0,0.47,,,,,,,,,,,,,,,,,,
1723,0,0.0,0.48,,-0.32,0.08,0.95,-0,1,-1,0.33,0,1980,0,0.0,0.0,0.0,0.0,0,0,0.0
1725,0,0.0,0.48,,,,,,,,,,,,,,,,,,
1727,0,0.0,0.48,,,,,,,,,,,,,,,,,,
1729,0,0.0,0.47,,,,,,,,,,,,,,,,,,
1731,0,0.0,0.48,,,,,,,,,,,,,,,,,,
1733,0,0.0,0.48,,-0.1,0.02,1.04,1,-1,-0,0.1,,,,,,,,,,
1735,0,0.01,0.48,,,,,,,,,,,,,,,,,,
1737,0,0.0,0.48,,,,,,,,,,,,,,,,,,
1739,0,0.0,0.48,,,,,,,,,,,,,,,,,,
1741,0,0.0,0.48,,,,,,,,,,,,,,,,,,
1743,0,0.0,0.5,,0.04,0.07,0.91,-0,0,-0,0.08,0,2040,0,0.0,0.0,0.0,0.0,0,0,0.0
1745,0,0.0,0.48,,,,,,,,,,,,,,,,,,
1747,0,0.0,0.49,,,,,,,,,,,,,,,,,,
1749,0,0.0,0.48,,,,,,,,,,,,,,,,,,
1751,0,0.0,0.49,,,,,,,,,,,,,,,,,,
1753,0,0.01,0.49,,-0.23,0.15,0.97,0,0,-1,0.28,,,,,,,,,,
1755,0,0.0,0.49,,,,,,,,,,,,,,,,,,
1757,0,0.0,0.49,,,,,,,,,,,,,,,,,,
1759,0,0.0,0.48,,,,,,,,,,,,,,,,,,
1761,0,0.0,0.49,,,,,,,,,,,,,,,,,,
1763,0,0.0,0.48,,-0.1,0.03,0.91,1,-1,-1,0.1,0,2040,0,0.0,0.0,0.0,0.0,0,0,0.0
1765,0,0.0,0.48,,,,,,,,,,,,,,,,,,
1767,0,0.0,0.49,,,,,,,,,,,,,,,,,,
1769,0,0.0,0.49,,,,,,,,,,,,,,,,,,
1771,0,0.0,0.49,,,,,,,,,,,,,,,,,,
1773,0,0.0,0.49,,0.01,0.09,1.01,-0,1,-1,0.1,,,,,,,,,,
1775,0,0.0,0.49,,,,,,,,,,,,,,,,,,
1777,0,0.0,0.49,,,,,,,,,,,,,,,,,,
1779,0,0.0,0.49,,,,,,,,,,,,,,,,,,
1781,0,0.0,0.49,,,,,,,,,,,,,,,,,,
1783,0,0.0,0.49,,-0.37,0.11,1.02,0,1,-1,0.39,0,1980,0,0.0,0.0,0.0,0.0,0,0,0.0
1785,0,0.0,0.49,,,,,,,,,,,,,,,,,,
1787,0,0.0,0.49,,,,,,,,,,,,,,,,,,
1789,0,0.0,0.49,,,,,,,,,,,,,,,,,,
1791,0,0.0,0.49,,,,,,,,,,,,,,,,,,
1793,0,0.0,0.49,,-0.07,0.02,1.02,1,-1,-1,0.07,,,,,,,,,,
1795,0,0.0,0.49,,,,,,,,,,,,,,,,,,
1797,0,0.0,0.49,,,,,,,,,,,,,,,,,,
1799,0,0.0,0.49,,,,,,,,,,,,,,,,,,
1801,0,0.0,0.5,,,,,,,,,,,,,,,,,,
1803,0,0.0,0.5,,-0.01,0.09,0.9,-0,1,-1,0.09,0,2040,0,0.0,0.0,0.0,0.0,0,0,0.0
1805,0,0.01,0.5,,,,,,,,,,,,,,,,,,
1807,0,0.0,0.49,,,,,,,,,,,,,,,,,,
1809,0,0.0,0.5,,,,,,,,,,,,,,,,,,
1811,0,0.0,0.5,,,,,,,,,,,,,,,,,,
1813,0,0.0,0.49,,-0.28,0.14,1.03,0,-0,-1,0.31,,,,,,,,,,
1815,0,0.0,0.5,,,,,,,,,,,,,,,,,,
1817,0,0.0,0.5,,,,,,,,,,,,,,,,,,
1819,0,0.0,0.49,,,,,,,,,,,,,,,,,,
1821,0,0.0,0.49,,,,,,,,,,,,,,,,,,
1823,0,0.0,0.49,,-0.05,-0.01,0.89,1,-1,-1,0.05,0,2040,0,0.0,0.0,0.0,0.0,0,0,0.0
1825,0,0.0,0.5,,,,,,,,,,,,,,,,,,
1827,0,0.0,0.5,,,,,,,,,,,,,,,,,,
1829,0,0.0,0.5,,,,,,,,,,,,,,,,,,
1831,0,0.0,0.51,,,,,,,,,,,,,,,,,,
1833,0,0.0,0.5,,0.01,0.08,1.01,-0,0,-1,0.08,,,,,,,,,,
1835,0,0.0,0.5,,,,,,,,,,,,,,,,,,
1837,0,0.0,0.5,,,,,,,,,,,,,,,,,,
1839,0,0.0,0.5,,,,,,,,,,,,,,,,,,
1841,0,0.0,0.5,,,,,,,,,,,,,,,,,,
1843,0,0.0,0.5,,-0.35,0.12,1.07,-0,0,-1,0.37,0,1980,0,0.0,0.0,0.0,0.0,0,0,0.0
1845,0,0.0,0.5,,,,,,,,,,,,,,,,,,
1847,0,0.0,0.5,,,,,,,,,,,,,,,,,,
1849,0,0.0,0.5,,,,,,,,,,,,,,,,,,
1851,0,0.0,0.5,,,,,,,,,,,,,,,,,,
1853,0,0.0,0.5,,0.01,-0.01,0.99,0,-1,-1,0.02,,,,,,,,,,
1855,0,0.0,0.5,,,,,,,,,,,,,,,,,,
1857,0,0.0,0.5,,,,,,,,,,,,,,,,,,
1859,0,0.0,0.5,,,,,,,,,,,,,,,,,,
1861,0,0.0,0.51,,,,,,,,,,,,,,,,,,
1863,0,0.0,0.5,,-0.05,0.06,0.93,-0,0,-1,0.08,0,2040,0,0.0,0.0,0.0,0.0,0,0,0.0
1865,0,0.0,0.5,,,,,,,,,,,,,,,,,,
1867,0,0.0,0.51,,,,,,,,,,,,,,,,,,
1869,0,0.0,0.5,,,,,,,,,,,,,,,,,,
1871,0,0.0,0.5,,,,,,,,,,,,,,,,,,
1873,0,0.0,0.51,,-0.3,0.11,1.09,0,-1,-1,0.32,,,,,,,,,,
1875,0,0.0,0.5,,,,,,,,,,,,,,,,,,
1877,0,0.0,0.5,,,,,,,,,,,,,,,,,,
1879,0,0.0,0.5,,,,,,,,,,,,,,,,,,
1881,0,0.0,0.5,,,,,,,,,,,,,,,,,,
1883,0,0.0,0.5,,0.05,-0.03,0.88,0,-2,-0,0.06,0,2040,0,0.0,0.0,0.0,0.0,0,0,0.0
1885,0,0.0,0.5,,,,,,,,,,,,,,,,,,
1887,0,0.0,0.51,,,,,,,,,,,,,,,,,,
1889,0,0.0,0.52,,,,,,,,,,,,,,,,,,
1891,0,0.01,0.51,,,,,,,,,,,,,,,,,,
1893,0,0.0,0.51,,0.02,0.06,0.98,-0,0,-0,0.06,,,,,,,,,,
1895,0,0.0,0.51,,,,,,,,,,,,,,,,,,
1897,0,0.0,0.5,,,,,,,,,,,,,,,,,,
1899,0,0.0,0.51,,,,,,,,,,,,,,,,,,
1901,0,0.0,0.51,,,,,,,,,,,,,,,,,,
1903,0,0.0,0.51,,-0.25,0.11,1.12,0,-1,-1,0.27,0,1980,0,0.0,0.0,0.0,0.0,0,0,0.0
1905,0,0.01,0.51,,,,,,,,,,,,,,,,,,
1907,0,0.0,0.51,,,,,,,,,,,,,,,,,,
1909,0,0.0,0.51,,,,,,,,,,,,,,,,,,
1911,0,0.0,0.51,,,,,,,,,,,,,,,,,,
1913,0,0.0,0.51,,0.1,0.0,0.95,0,-2,-0,0.1,,,,,,,,,,
1915,0,0.0,0.51,,,,,,,,,,,,,,,,,,
1917,0,0.0,0.51,,,,,,,,,,,,,,,,,,
1919,0,0.0,0.53,,,,,,,,,,,,,,,,,,
1921,0,0.0,0.52,,,,,,,,,,,,,,,,,,
1923,0,0.0,0.52,,-0.1,0.05,1.02,-0,-0,-0,0.11,0,2040,0,0.0,0.0,0.0,0.0,0,0,0.0
1925,0,0.0,0.51,,,,,,,,,,,,,,,,,,
1927,0,0.0,0.52,,,,,,,,,,,,,,,,,,
1929,0,0.0,0.51,,,,,,,,,,,,,,,,,,
1931,0,0.0,0.51,,,,,,,,,,,,,,,,,,
1933,0,0.01,0.51,,-0.27,0.11,1.1,0,-1,-0,0.29,,,,,,,,,,
1935,0,0.0,0.51,,,,,,,,,,,,,,,,,,
1937,0,0.0,0.51,,,,,,,,,,,,,,,,,,
1939,0,0.0,0.51,,,,,,,,,,,,,,,,,,
1941,0,0.0,0.51,,,,,,,,,,,,,,,,,,
1943,0,0.0,0.51,,0.08,-0.0,0.89,0,-2,0,0.08,0,2040,0,0.0,0.0,0.0,0.0,0,0,0.0
1945,0,0.0,0.51,,,,,,,,,,,,,,,,,,
1947,0,0.0,0.51,,,,,,,,,,,,,,,,,,
1949,0,0.0,0.52,,,,,,,,,,,,,,,,,,
1951,0,0.0,0.52,,,,,,,,,,,,,,,,,,
1953,0,0.0,0.52,,-0.02,0.1,0.95,0,-0,-0,0.1,,,,,,,,,,
1955,0,0.0,0.52,,,,,,,,,,,,,,,,,,
1957,0,0.0,0.52,,,,,,,,,,,,,,,,,,
1959,0,0.0,0.52,,,,,,,,,,,,,,,,,,
1961,0,0.0,0.52,,,,,,,,,,,,,,,,,,
1963,0,0.0,0.52,,-0.21,0.11,1.08,1,-1,-0,0.23,0,1980,0,0.0,0.0,0.0,0.0,0,0,0.0
1965,0,0.0,0.52,,,,,,,,,,,,,,,,,,
1967,0,0.0,0.52,,,,,,,,,,,,,,,,,,
1969,0,0.0,0.52,,,,,,,,,,,,,,,,,,
1971,0,0.0,0.52,,,,,,,,,,,,,,,,,,
1973,0,0.0,0.52,,0.11,0.05,0.93,1,-2,-0,0.12,,,,,,,,,,
1975,0,0.0,0.52,,,,,,,,,,,,,,,,,,
1977,0,0.0,0.53,,,,,,,,,,,,,,,,,,
1979,0,0.0,0.52,,,,,,,,,,,,,,,,,,
1981,0,0.0,0.52,,,,,,,,,,,,,,,,,,
1983,0,0.0,0.52,,-0.08,0.09,0.97,-0,1,-1,0.12,2,2040,0,0.0,0.0,0.0,0.0,0,0,0.0
1985,0,0.0,0.52,,,,,,,,,,,,,,,,,,
1987,0,0.0,0.51,,,,,,,,,,,,,,,,,,
1989,0,0.0,0.51,,,,,,,,,,,,,,,,,,
1991,0,0.0,0.51,,,,,,,,,,,,,,,,,,
1993,0,0.0,0.51,,-0.25,0.13,1.09,1,0,-0,0.28,,,,,,,,,,
1995,0,0.01,0.51,,,,,,,,,,,,,,,,,,
1997,0,0.0,0.51,,,,,,,,,,,,,,,,,,
1999,0,0.0,0.51,,,,,,,,,,,,,,,,,,
2001,0,0.0,0.51,,,,,,,,,,,,,,,,,,
2003,0,0.0,0.51,,0.05,0.07,0.94,0,-1,-0,0.08,2,2040,0,0.0,0.0,0.0,0.0,0,0,0.0
2005,0,0.0,0.51,,,,,,,,,,,,,,,,,,
2007,0,0.0,0.52,,,,,,,,,,,,,,,,,,
2009,0,0.0,0.51,,,,,,,,,,,,,,,,,,
2011,0,0.0,0.51,,,,,,,,,,,,,,,,,,
2013,0,0.0,0.51,,-0.09,0.09,0.93,-0,1,-1,0.12,,,,,,,,,,
2015,0,0.0,0.51,,,,,,,,,,,,,,,,,,
2017,0,0.0,0.51,,,,,,,,,,,,,,,,,,
2019,0,0.0,0.51,,,,,,,,,,,,,,,,,,
2021,0,0.0,0.5,,,,,,,,,,,,,,,,,,
2023,0,0.0,0.5,,-0.2,0.1,1.07,1,1,-1,0.22,2,2040,0,0.0,0.0,0.0,0.0,0,0,0.0
2025,0,0.0,0.51,,,,,,,,,,,,,,,,,,
2027,0,0.0,0.51,,,,,,,,,,,,,,,,,,
2029,0,0.0,0.51,,,,,,,,,,,,,,,,,,
2031,0,0.0,0.51,,,,,,,,,,,,,,,,,,
2033,0,0.0,0.51,,0.06,0.05,0.96,0,0,-1,0.08,,,,,,,,,,
2035,0,0.0,0.51,,,,,,,,,,,,,,,,,,
2037,0,0.0,0.51,,,,,,,,,,,,,,,,,,
2039,0,0.0,0.51,,,,,,,,,,,,,,,,,,
2041,0,0.0,0.51,,,,,,,,,,,,,,,,,,
2043,0,0.0,0.51,13.12,-0.13,0.1,0.92,-0,2,-1,0.16,2,2040,0,0.0,0.0,0.0,0.0,0,0,0.0
2045,0,0.0,0.51,,,,,,,,,,,,,,,,,,
2047,0,0.0,0.51,,,,,,,,,,,,,,,,,,
2049,0,0.0,0.5,,,,,,,,,,,,,,,,,,
2051,0,0.0,0.5,,,,,,,,,,,,,,,,,,
2053,0,0.0,0.5,,-0.26,0.1,1.01,1,1,-1,0.28,,,,,,,,,,
2055,0,0.0,0.5,,,,,,,,,,,,,,,,,,
2057,0,0.0,0.5,,,,,,,,,,,,,,,,,,
2059,0,0.0,0.5,,,,,,,,,,,,,,,,,,
2061,0,0.0,0.5,,,,,,,,,,,,,,,,,,
2063,0,0.0,0.5,,-0.03,0.04,1.0,0,1,-1,0.05,2,2040,0,0.0,0.0,0.0,0.0,0,0,0.0
2065,0,0.0,0.51,,,,,,,,,,,,,,,,,,
2067,0,0.0,0.5,,,,,,,,,,,,,,,,,,
2069,0,0.0,0.5,,,,,,,,,,,,,,,,,,
2071,0,0.01,0.5,,,,,,,,,,,,,,,,,,
2073,0,0.0,0.5,,-0.25,0.1,0.94,-0,2,-1,0.26,,,,,,,,,,
2075,0,0.0,0.5,,,,,,,,,,,,,,,,,,
2077,0,0.0,0.5,,,,,,,,,,,,,,,,,,
2079,0,0.0,0.5,,,,,,,,,,,,,,,,,,
2081,0,0.0,0.5,,,,,,,,,,,,,,,,,,
2083,0,0.0,0.5,,-0.26,0.07,1.06,1,2,-1,0.27,2,1980,0,0.0,0.0,0.0,0.0,0,0,0.0
2085,0,0.0,0.5,,,,,,,,,,,,,,,,,,
2087,0,0.0,0.5,,,,,,,,,,,,,,,,,,
2089,0,0.0,0.5,,,,,,,,,,,,,,,,,,
2091,0,0.01,0.5,,,,,,,,,,,,,,,,,,
2093,0,0.0,0.5,,-0.02,0.05,0.89,-0,2,-1,0.05,,,,,,,,,,
2095,0,0.0,0.5,,,,,,,,,,,,,,,,,,
2097,0,0.0,0.5,,,,,,,,,,,,,,,,,,
2099,0,0.0,0.5,,,,,,,,,,,,,,,,,,
2101,0,0.0,0.5,,,,,,,,,,,,,,,,,,
2103,0,0.0,0.5,,-0.24,0.15,0.87,0,2,-1,0.28,2,2040,0,0.0,0.0,0.0,0.0,0,0,0.0
2105,0,0.0,0.5,,,,,,,,,,,,,,,,,,
2107,0,0.0,0.5,,,,,,,,,,,,,,,,,,
2109,0,0.0,0.51,,,,,,,,,,,,,,,,,,
2111,0,0.0,0.51,,,,,,,,,,,,,,,,,,
2113,0,0.0,0.51,,-0.21,0.03,0.88,1,0,-1,0.21,,,,,,,,,,
2115,0,0.0,0.51,,,,,,,,,,,,,,,,,,
2117,0,0.0,0.51,,,,,,,,,,,,,,,,,,
2119,0,0.01,0.51,,,,,,,,,,,,,,,,,,
2121,0,0.0,0.51,,,,,,,,,,,,,,,,,,
2123,0,0.0,0.52,,0.02,0.05,0.91,0,-0,-1,0.06,2,1980,0,0.0,0.0,0.0,0.0,0,0,0.0
2125,0,0.0,0.51,,,,,,,,,,,,,,,,,,
2127,0,0.0,0.51,,,,,,,,,,,,,,,,,,
2129,0,0.0,0.51,,,,,,,,,,,,,,,,,,
2131,0,0.0,0.51,,,,,,,,,,,,,,,,,,
2133,0,0.0,0.51,,-0.3,0.1,0.9,-0,-0,-1,0.32,,,,,,,,,,
2135,0,0.0,0.51,,,,,,,,,,,,,,,,,,
2137,0,0.0,0.51,,,,,,,,,,,,,,,,,,
2139,0,0.0,0.51,,,,,,,,,,,,,,,,,,
2141,0,0.0,0.51,,,,,,,,,,,,,,,,,,
2143,0,0.0,0.51,,-0.13,0.03,1.05,1,-1,-1,0.14,2,1980,0,0.0,0.0,0.0,0.0,0,0,0.0
2145,0,0.0,0.51,,,,,,,,,,,,,,,,,,
2147,0,0.0,0.52,,,,,,,,,,,,,,,,,,
2149,0,0.0,0.52,,,,,,,,,,,,,,,,,,
2151,0,0.0,0.52,,,,,,,,,,,,,,,,,,
2153,0,0.0,0.53,,0.01,0.05,0.97,0,-1,-1,0.05,,,,,,,,,,
2155,0,0.0,0.52,,,,,,,,,,,,,,,,,,
2157,0,0.0,0.52,,,,,,,,,,,,,,,,,,
2159,0,0.0,0.52,,,,,,,,,,,,,,,,,,
2161,0,0.0,0.52,,,,,,,,,,,,,,,,,,
2163,0,0.0,0.52,,-0.26,0.1,0.97,0,-1,-1,0.27,2,2040,0,0.0,0.0,0.0,0.0,0,0,0.0
2165,0,0.0,0.52,,,,,,,,,,,,,,,,,,
2167,0,0.0,0.52,,,,,,,,,,,,,,,,,,
2169,0,0.0,0.52,,,,,,,,,,,,,,,,,,
2171,0,0.0,0.52,,,,,,,,,,,,,,,,,,
2173,0,0.0,0.52,,-0.11,-0.0,0.93,1,-2,-0,0.11,,,,,,,,,,
2175,0,0.0,0.52,,,,,,,,,,,,,,,,,,
2177,0,0.0,0.52,,,,,,,,,,,,,,,,,,
2179,0,0.0,0.52,,,,,,,,,,,,,,,,,,
2181,0,0.0,0.52,,,,,,,,,,,,,,,,,,
2183,0,0.0,0.53,,0.02,0.08,0.98,0,-0,-1,0.08,2,1980,0,0.0,0.0,0.0,0.0,0,0,0.0
2185,0,0.0,0.53,,,,,,,,,,,,,,,,,,
2187,0,0.0,0.52,,,,,,,,,,,,,,,,,,
2189,0,0.0,0.52,,,,,,,,,,,,,,,,,,
2191,0,0.0,0.53,,,,,,,,,,,,,,,,,,
2193,0,0.0,0.52,,-0.33,0.1,0.98,0,-0,-1,0.34,,,,,,,,,,
2195,0,0.0,0.52,,,,,,,,,,,,,,,,,,
2197,0,0.0,0.52,,,,,,,,,,,,,,,,,,
2199,0,0.0,0.53,,,,,,,,,,,,,,,,,,
2201,0,0.0,0.53,,,,,,,,,,,,,,,,,,
2203,0,0.0,0.53,,-0.05,0.02,1.03,1,-1,-1,0.05,2,1980,0,0.0,0.0,0.0,0.0,0,0,0.0
2205,0,0.0,0.53,,,,,,,,,,,,,,,,,,
2207,0,0.0,0.53,,,,,,,,,,,,,,,,,,
2209,0,0.0,0.53,,,,,,,,,,,,,,,,,,
2211,0,0.0,0.54,,,,,,,,,,,,,,,,,,
2213,0,0.0,0.53,,-0.02,0.04,0.94,0,-0,-1,0.04,,,,,,,,,,
2215,0,0.0,0.53,,,,,,,,,,,,,,,,,,
2217,0,0.0,0.53,,,,,,,,,,,,,,,,,,
2219,0,0.0,0.53,,,,,,,,,,,,,,,,,,
2221,0,0.0,0.53,,,,,,,,,,,,,,,,,,
2223,0,0.0,0.53,,-0.28,0.1,0.99,0,-1,-1,0.29,2,2040,0,0.0,0.0,0.0,0.0,0,0,0.0
2225,0,0.0,0.53,,,,,,,,,,,,,,,,,,
2227,0,0.0,0.53,,,,,,,,,,,,,,,,,,
2229,0,0.0,0.53,,,,,,,,,,,,,,,,,,
2231,0,0.0,0.53,,,,,,,,,,,,,,,,,,
2233,0,0.0,0.53,,-0.07,-0.0,0.93,1,-1,-1,0.07,,,,,,,,,,
2235,0,0.0,0.53,,,,,,,,,,,,,,,,,,
2237,0,0.0,0.53,,,,,,,,,,,,,,,,,,
2239,0,0.0,0.53,,,,,,,,,,,,,,,,,,
2241,0,0.0,0.54,,,,,,,,,,,,,,,,,,
2243,0,0.0,0.54,,-0.04,0.06,1.0,0,0,-1,0.07,2,1980,0,0.0,0.0,0.0,0.0,0,0,0.0
2245,0,0.0,0.53,,,,,,,,,,,,,,,,,,
2247,0,0.0,0.53,,,,,,,,,,,,,,,,,,
2249,0,0.0,0.53,,,,,,,,,,,,,,,,,,
2251,0,0.0,0.53,,,,,,,,,,,,,,,,,,
2253,0,0.0,0.53,,-0.41,0.12,1.07,0,-0,-1,0.42,,,,,,,,,,
2255,0,0.0,0.53,,,,,,,,,,,,,,,,,,
2257,0,0.0,0.52,,,,,,,,,,,,,,,,,,
2259,0,0.0,0.52,,,,,,,,,,,,,,,,,,
2261,0,0.0,0.53,,,,,,,,,,,,,,,,,,
2263,0,0.0,0.52,,-0.02,0.0,0.99,1,-1,-0,0.02,5,1980,0,0.0,0.0,0.0,0.0,0,0,0.0
2265,0,0.0,0.53,,,,,,,,,,,,,,,,,,
2267,0,0.0,0.53,,,,,,,,,,,,,,,,,,
2269,0,0.0,0.52,,,,,,,,,,,,,,,,,,
2271,0,0.0,0.54,,,,,,,,,,,,,,,,,,
2273,0,0.0,0.53,,-0.03,0.04,0.89,-0,0,-0,0.06,,,,,,,,,,
2275,0,0.0,0.53,,,,,,,,,,,,,,,,,,
2277,0,0.0,0.53,,,,,,,,,,,,,,,,,,
2279,0,0.0,0.52,,,,,,,,,,,,,,,,,,
2281,0,0.0,0.53,,,,,,,,,,,,,,,,,,
2283,0,0.0,0.52,,-0.26,0.13,1.03,0,-1,-0,0.3,5,2040,0,0.0,0.0,0.0,0.0,0,0,0.0
2285,0,0.0,0.52,,,,,,,,,,,,,,,,,,
2287,0,0.0,0.53,,,,,,,,,,,,,,,,,,
2289,0,0.0,0.52,,,,,,,,,,,,,,,,,,
2291,0,0.01,0.52,,,,,,,,,,,,,,,,,,
2293,0,0.0,0.52,,0.02,0.0,0.88,0,-2,-0,0.02,,,,,,,,,,
2295,0,0.0,0.52,,,,,,,,,,,,,,,,,,
2297,0,0.0,0.52,,,,,,,,,,,,,,,,,,
2299,0,0.0,0.53,,,,,,,,,,,,,,,,,,
2301,0,0.0,0.52,,,,,,,,,,,,,,,,,,
2303,0,0.0,0.52,,-0.02,0.07,1.05,-1,1,-1,0.07,5,2040,0,0.0,0.0,0.0,0.0,0,0,0.0
2305,0,0.0,0.52,,,,,,,,,,,,,,,,,,
2307,0,0.0,0.52,,,,,,,,,,,,,,,,,,
2309,0,0.0,0.52,,,,,,,,,,,,,,,,,,
2311,0,0.0,0.52,,,,,,,,,,,,,,,,,,
2313,0,0.0,0.52,,-0.38,0.14,1.15,0,-0,-1,0.4,,,,,,,,,,
2315,0,0.0,0.52,,,,,,,,,,,,,,,,,,
2317,0,0.0,0.52,,,,,,,,,,,,,,,,,,
2319,0,0.0,0.52,,,,,,,,,,,,,,,,,,
2321,0,0.0,0.52,,,,,,,,,,,,,,,,,,
2323,0,0.0,0.52,,-0.01,0.01,1.03,0,-0,-0,0.02,5,2040,0,0.0,0.0,0.0,0.0,0,0,0.0
2325,0,0.0,0.52,,,,,,,,,,,,,,,,,,
2327,0,0.0,0.52,,,,,,,,,,,,,,,,,,
2329,0,0.0,0.54,,,,,,,,,,,,,,,,,,
2331,0,0.0,0.52,,,,,,,,,,,,,,,,,,
2333,0,0.0,0.52,,-0.14,0.08,0.99,-0,2,-0,0.16,,,,,,,,,,
2335,0,0.0,0.52,,,,,,,,,,,,,,,,,,
2337,0,0.0,0.52,,,,,,,,,,,,,,,,,,
2339,0,0.0,0.52,,,,,,,,,,,,,,,,,,
2341,0,0.0,0.52,,,,,,,,,,,,,,,,,,
2343,0,0.0,0.52,,-0.32,0.15,1.06,0,1,-0,0.35,5,2040,0,0.0,0.0,0.0,0.0,0,0,0.0
2345,0,0.0,0.52,,,,,,,,,,,,,,,,,,
2347,0,0.0,0.52,,,,,,,,,,,,,,,,,,
2349,0,0.0,0.52,,,,,,,,,,,,,,,,,,
2351,0,0.0,0.52,,,,,,,,,,,,,,,,,,
2353,0,0.0,0.53,,0.06,0.03,0.83,0,-0,-0,0.07,,,,,,,,,,
2355,0,0.0,0.53,,,,,,,,,,,,,,,,,,
2357,0,0.0,0.53,,,,,,,,,,,,,,,,,,
2359,0,0.0,0.53,,,,,,,,,,,,,,,,,,
2361,0,0.0,0.53,,,,,,,,,,,,,,,,,,
2363,0,0.0,0.53,,-0.02,0.1,0.88,-0,1,-1,0.1,5,1980,0,0.0,0.0,0.0,0.0,0,0,0.0
2365,0,0.0,0.53,,,,,,,,,,,,,,,,,,
2367,0,0.01,0.53,,,,,,,,,,,,,,,,,,
2369,0,0.0,0.53,,,,,,,,,,,,,,,,,,
2371,0,0.0,0.53,,,,,,,,,,,,,,,,,,
2373,0,0.0,0.53,,-0.22,0.13,1.06,1,0,-1,0.26,,,,,,,,,,
2375,0,0.0,0.53,,,,,,,,,,,,,,,,,,
2377,0,0.0,0.53,,,,,,,,,,,,,,,,,,
2379,0,0.0,0.53,,,,,,,,,,,,,,,,,,
2381,0,0.0,0.53,,,,,,,,,,,,,,,,,,
2383,0,0.0,0.53,,0.05,0.01,0.98,1,-0,-1,0.05,5,1980,0,0.0,0.0,0.0,0.0,0,0,0.0
2385,0,0.0,0.54,,,,,,,,,,,,,,,,,,
2387,0,0.0,0.55,,,,,,,,,,,,,,,,,,
2389,0,0.0,0.54,,,,,,,,,,,,,,,,,,
2391,0,0.0,0.54,,,,,,,,,,,,,,,,,,
2393,0,0.0,0.54,,-0.21,0.07,1.03,0,1,-1,0.22,,,,,,,,,,
2395,0,0.0,0.53,,,,,,,,,,,,,,,,,,
2397,0,0.0,0.54,,,,,,,,,,,,,,,,,,
2399,0,0.0,0.54,,,,,,,,,,,,,,,,,,
2401,0,0.0,0.53,,,,,,,,,,,,,,,,,,
2403,0,0.0,0.54,,-0.31,0.12,1.12,1,0,-0,0.33,5,2040,0,0.0,0.0,0.0,0.0,0,0,0.0
2405,0,0.0,0.54,,,,,,,,,,,,,,,,,,
2407,0,0.0,0.54,,,,,,,,,,,,,,,,,,
2409,0,0.0,0.54,,,,,,,,,,,,,,,,,,
2411,0,0.0,0.54,,,,,,,,,,,,,,,,,,
2413,0,0.0,0.54,,0.03,0.04,0.93,1,-1,-0,0.05,,,,,,,,,,
2415,0,0.0,0.54,,,,,,,,,,,,,,,,,,
2417,0,0.0,0.55,,,,,,,,,,,,,,,,,,
2419,0,0.0,0.54,,,,,,,,,,,,,,,,,,
2421,0,0.0,0.54,,,,,,,,,,,,,,,,,,
2423,0,0.0,0.54,,-0.12,0.07,0.87,1,0,-0,0.14,5,1980,0,0.0,0.0,0.0,0.0,0,0,0.0
2425,0,0.0,0.54,,,,,,,,,,,,,,,,,,
2427,0,0.0,0.54,,,,,,,,,,,,,,,,,,
2429,0,0.0,0.54,,,,,,,,,,,,,,,,,,
2431,0,0.0,0.54,,,,,,,,,,,,,,,,,,
2433,0,0.0,0.54,,-0.11,0.1,0.95,1,-1,-0,0.15,,,,,,,,,,
2435,0,0.0,0.54,,,,,,,,,,,,,,,,,,
2437,0,0.0,0.54,,,,,,,,,,,,,,,,,,
2439,0,0.0,0.54,,,,,,,,,,,,,,,,,,
2441,0,0.0,0.55,,,,,,,,,,,,,,,,,,
2443,0,0.0,0.55,,0.18,0.05,0.85,0,-2,-1,0.19,5,1980,0,0.0,0.0,0.0,0.0,0,0,0.0
2445,0,0.0,0.56,,,,,,,,,,,,,,,,,,
2447,0,0.0,0.54,,,,,,,,,,,,,,,,,,
2449,0,0.0,0.54,,,,,,,,,,,,,,,,,,
2451,0,0.0,0.54,,,,,,,,,,,,,,,,,,
2453,0,0.0,0.54,,-0.09,0.11,0.91,-0,-1,-1,0.14,,,,,,,,,,
2455,0,0.0,0.54,,,,,,,,,,,,,,,,,,
2457,0,0.0,0.54,,,,,,,,,,,,,,,,,,
2459,0,0.0,0.53,,,,,,,,,,,,,,,,,,
2461,0,0.0,0.54,,,,,,,,,,,,,,,,,,
2463,0,0.0,0.53,,-0.17,0.06,1.1,1,-2,-1,0.18,10,2040,0,0.0,0.0,0.0,0.0,0,0,0.0
2465,0,0.0,0.53,,,,,,,,,,,,,,,,,,
2467,0,0.0,0.53,,,,,,,,,,,,,,,,,,
2469,0,0.0,0.54,,,,,,,,,,,,,,,,,,
2471,0,0.0,0.53,,,,,,,,,,,,,,,,,,
2473,0,0.0,0.53,,0.06,0.01,1.1,0,-1,0,0.06,,,,,,,,,,
2475,0,0.0,0.54,,,,,,,,,,,,,,,,,,
2477,0,0.0,0.54,,,,,,,,,,,,,,,,,,
2479,0,0.0,0.53,,,,,,,,,,,,,,,,,,
2481,0,0.0,0.53,,,,,,,,,,,,,,,,,,
2483,0,0.0,0.53,,-0.26,0.07,1.05,-0,-0,0,0.27,10,1980,0,0.0,0.0,0.0,0.0,0,0,0.0
2485,0,0.0,0.53,,,,,,,,,,,,,,,,,,
2487,0,0.0,0.53,,,,,,,,,,,,,,,,,,
2489,0,0.0,0.53,,,,,,,,,,,,,,,,,,
2491,0,0.0,0.53,,,,,,,,,,,,,,,,,,
2493,0,0.0,0.53,,-0.17,0.06,1.15,1,-0,0,0.18,,,,,,,,,,
2495,0,0.0,0.53,,,,,,,,,,,,,,,,,,
2497,0,0.0,0.53,,,,,,,,,,,,,,,,,,
2499,0,0.0,0.53,,,,,,,,,,,,,,,,,,
2501,0,0.0,0.53,,,,,,,,,,,,,,,,,,
2503,0,0.0,0.53,,0.13,0.04,0.88,0,-0,0,0.13,10,1980,0,0.0,0.0,0.0,0.0,0,0,0.0
2505,0,0.0,0.54,,,,,,,,,,,,,,,,,,
2507,0,0.0,0.53,,,,,,,,,,,,,,,,,,
2509,0,0.0,0.54,,,,,,,,,,,,,,,,,,
2511,0,0.0,0.53,,,,,,,,,,,,,,,,,,
2513,0,0.0,0.53,,-0.13,0.11,0.83,0,0,-1,0.18,,,,,,,,,,
2515,0,0.0,0.53,,,,,,,,,,,,,,,,,,
2517,0,0.0,0.53,,,,,,,,,,,,,,,,,,
2519,0,0.0,0.53,,,,,,,,,,,,,,,,,,
2521,0,0.0,0.54,,,,,,,,,,,,,,,,,,
2523,0,0.0,0.54,,-0.1,0.03,0.87,1,-1,-1,0.1,10,2040,0,0.0,0.0,0.0,0.0,0,0,0.0
2525,0,0.0,0.54,,,,,,,,,,,,,,,,,,
2527,0,0.0,0.54,,,,,,,,,,,,,,,,,,
2529,0,0.0,0.54,,,,,,,,,,,,,,,,,,
2531,0,0.0,0.54,,,,,,,,,,,,,,,,,,
2533,0,0.01,0.55,,0.18,0.06,0.85,-0,-1,-1,0.19,,,,,,,,,,
2535,0,0.0,0.54,,,,,,,,,,,,,,,,,,
2537,0,0.0,0.54,,,,,,,,,,,,,,,,,,
2539,0,0.0,0.54,,,,,,,,,,,,,,,,,,
2541,0,0.0,0.54,,,,,,,,,,,,,,,,,,
2543,0,0.0,0.54,,-0.21,0.11,0.91,0,-0,-1,0.24,10,2040,0,0.0,0.0,0.0,0.0,0,0,0.0
2545,0,0.0,0.54,,,,,,,,,,,,,,,,,,
2547,0,0.0,0.54,,,,,,,,,,,,,,,,,,
2549,0,0.0,0.54,,,,,,,,,,,,,,,,,,
2551,0,0.0,0.54,,,,,,,,,,,,,,,,,,
2553,0,0.0,0.54,,-0.11,0.02,1.11,1,-2,-0,0.11,,,,,,,,,,
2555,0,0.0,0.54,,,,,,,,,,,,,,,,,,
2557,0,0.0,0.54,,,,,,,,,,,,,,,,,,
2559,0,0.0,0.54,,,,,,,,,,,,,,,,,,
2561,0,0.0,0.55,,,,,,,,,,,,,,,,,,
2563,0,0.0,0.55,,0.09,0.01,1.0,0,-1,0,0.09,10,2040,0,0.0,0.0,0.0,0.0,0,0,0.0
2565,0,0.0,0.55,,,,,,,,,,,,,,,,,,
2567,0,0.0,0.55,,,,,,,,,,,,,,,,,,
2569,0,0.0,0.55,,,,,,,,,,,,,,,,,,
2571,0,0.0,0.55,,,,,,,,,,,,,,,,,,
2573,0,0.0,0.55,,-0.15,0.11,1.02,1,-1,0,0.18,,,,,,,,,,
2575,0,0.0,0.55,,,,,,,,,,,,,,,,,,
2577,0,0.0,0.55,,,,,,,,,,,,,,,,,,
2579,0,0.0,0.55,,,,,,,,,,,,,,,,,,
2581,0,0.01,0.55,,,,,,,,,,,,,,,,,,
2583,0,0.0,0.55,,0.01,0.03,0.91,1,-2,1,0.04,10,2040,0,0.0,0.0,0.0,0.0,0,0,0.0
2585,0,0.0,0.55,,,,,,,,,,,,,,,,,,
2587,0,0.0,0.55,,,,,,,,,,,,,,,,,,
2589,0,0.0,0.55,,,,,,,,,,,,,,,,,,
2591,0,0.0,0.56,,,,,,,,,,,,,,,,,,
2593,0,0.0,0.55,,0.17,0.13,0.99,0,0,0,0.22,,,,,,,,,,
2595,0,0.01,0.55,,,,,,,,,,,,,,,,,,
2597,0,0.0,0.55,,,,,,,,,,,,,,,,,,
2599,0,0.0,0.55,,,,,,,,,,,,,,,,,,
2601,0,0.0,0.55,,,,,,,,,,,,,,,,,,
2603,0,0.0,0.55,,-0.24,0.15,1.07,0,0,-1,0.28,10,2040,0,0.0,0.0,0.0,0.0,0,0,0.0
2605,0,0.0,0.55,,,,,,,,,,,,,,,,,,
2607,0,0.0,0.55,,,,,,,,,,,,,,,,,,
2609,0,0.01,0.55,,,,,,,,,,,,,,,,,,
2611,0,0.0,0.55,,,,,,,,,,,,,,,,,,
2613,0,0.0,0.55,,-0.04,0.03,1.07,1,0,-1,0.05,,,,,,,,,,
2615,0,0.0,0.55,,,,,,,,,,,,,,,,,,
2617,0,0.0,0.55,,,,,,,,,,,,,,,,,,
2619,0,0.0,0.55,,,,,,,,,,,,,,,,,,
2621,0,0.0,0.55,,,,,,,,,,,,,,,,,,
2623,0,0.0,0.55,,-0.07,0.08,1.06,0,2,-1,0.1,12,2040,0,0.0,0.0,0.0,0.0,0,0,0.0
2625,0,0.0,0.55,,,,,,,,,,,,,,,,,,
2627,0,0.0,0.55,,,,,,,,,,,,,,,,,,
2629,0,0.0,0.55,,,,,,,,,,,,,,,,,,
2631,0,0.0,0.54,,,,,,,,,,,,,,,,,,
2633,0,0.0,0.55,,-0.36,0.15,1.1,0,2,-1,0.39,,,,,,,,,,
2635,0,0.0,0.54,,,,,,,,,,,,,,,,,,
2637,0,0.0,0.54,,,,,,,,,,,,,,,,,,
2639,0,0.0,0.54,,,,,,,,,,,,,,,,,,
2641,0,0.0,0.54,,,,,,,,,,,,,,,,,,
2643,0,0.0,0.54,,-0.08,0.02,0.87,1,0,-1,0.08,12,2040,0,0.0,0.0,0.0,0.0,0,0,0.0
2645,0,0.0,0.54,,,,,,,,,,,,,,,,,,
2647,0,0.0,0.54,,,,,,,,,,,,,,,,,,
2649,0,0.0,0.55,,,,,,,,,,,,,,,,,,
2651,0,0.0,0.54,,,,,,,,,,,,,,,,,,
2653,0,0.0,0.54,,0.0,0.11,0.87,0,1,-1,0.11,,,,,,,,,,
2655,0,0.0,0.54,,,,,,,,,,,,,,,,,,
2657,0,0.0,0.54,,,,,,,,,,,,,,,,,,
2659,0,0.0,0.54,,,,,,,,,,,,,,,,,,
2661,0,0.0,0.54,,,,,,,,,,,,,,,,,,
2663,0,0.0,0.54,,-0.25,0.16,0.96,0,-0,-1,0.3,12,1980,0,0.0,0.0,0.0,0.0,0,0,0.0
2665,0,0.0,0.54,,,,,,,,,,,,,,,,,,
2667,0,0.0,0.54,,,,,,,,,,,,,,,,,,
2669,0,0.0,0.54,,,,,,,,,,,,,,,,,,
2671,0,0.0,0.54,,,,,,,,,,,,,,,,,,
2673,0,0.0,0.54,,0.12,0.03,0.83,-0,-1,-1,0.13,,,,,,,,,,
2675,0,0.0,0.54,,,,,,,,,,,,,,,,,,
2677,0,0.0,0.54,,,,,,,,,,,,,,,,,,
2679,0,0.0,0.55,,,,,,,,,,,,,,,,,,
2681,0,0.0,0.54,,,,,,,,,,,,,,,,,,
2683,0,0.0,0.54,,-0.02,0.1,0.89,-1,-0,-1,0.1,12,2040,0,0.0,0.0,0.0,0.0,0,0,0.0
2685,0,0.0,0.54,,,,,,,,,,,,,,,,,,
2687,0,0.0,0.54,,,,,,,,,,,,,,,,,,
2689,0,0.0,0.54,,,,,,,,,,,,,,,,,,
2691,0,0.01,0.54,,,,,,,,,,,,,,,,,,
2693,0,0.0,0.54,,-0.26,0.14,1.13,-0,-1,-1,0.3,,,,,,,,,,
2695,0,0.0,0.54,,,,,,,,,,,,,,,,,,
2697,0,0.0,0.54,,,,,,,,,,,,,,,,,,
2699,0,0.0,0.54,,,,,,,,,,,,,,,,,,
2701,0,0.0,0.54,,,,,,,,,,,,,,,,,,
2703,0,0.0,0.55,,0.03,-0.01,1.04,-0,-1,-1,0.03,12,2040,0,0.0,0.0,0.0,0.0,0,0,0.0
2705,0,0.0,0.55,,,,,,,,,,,,,,,,,,
2707,0,0.0,0.55,,,,,,,,,,,,,,,,,,
2709,0,0.0,0.55,,,,,,,,,,,,,,,,,,
2711,0,0.0,0.55,,,,,,,,,,,,,,,,,,
2713,0,0.0,0.55,,-0.13,0.07,1.14,-1,1,-1,0.15,,,,,,,,,,
2715,0,0.0,0.55,,,,,,,,,,,,,,,,,,
2717,0,0.0,0.55,,,,,,,,,,,,,,,,,,
2719,0,0.01,0.55,,,,,,,,,,,,,,,,,,
2721,0,0.0,0.55,,,,,,,,,,,,,,,,,,
2723,0,0.0,0.55,,-0.32,0.09,1.2,0,1,-0,0.33,12,1980,0,0.0,0.0,0.0,0.0,0,0,0.0
2725,0,0.0,0.55,,,,,,,,,,,,,,,,,,
2727,0,0.0,0.55,,,,,,,,,,,,,,,,,,
2729,0,0.0,0.55,,,,,,,,,,,,,,,,,,
2731,0,0.0,0.55,,,,,,,,,,,,,,,,,,
2733,0,0.01,0.56,,0.06,0.02,0.99,0,0,-1,0.07,,,,,,,,,,
2735,0,0.0,0.56,,,,,,,,,,,,,,,,,,
2737,0,0.0,0.57,,,,,,,,,,,,,,,,,,
2739,0,0.0,0.56,,,,,,,,,,,,,,,,,,
2741,0,0.0,0.56,,,,,,,,,,,,,,,,,,
2743,0,0.0,0.56,,-0.14,0.09,0.89,0,1,-1,0.17,12,2040,0,0.0,0.0,0.0,0.0,0,0,0.0
2745,0,0.0,0.56,,,,,,,,,,,,,,,,,,
2747,0,0.0,0.56,,,,,,,,,,,,,,,,,,
2749,0,0.0,0.56,,,,,,,,,,,,,,,,,,
2751,0,0.0,0.56,,,,,,,,,,,,,,,,,,
2753,0,0.0,0.56,,-0.21,0.11,0.99,1,0,-1,0.24,,,,,,,,,,
2755,0,0.0,0.56,,,,,,,,,,,,,,,,,,
2757,0,0.0,0.56,,,,,,,,,,,,,,,,,,
2759,0,0.0,0.56,,,,,,,,,,,,,,,,,,
2761,0,0.0,0.56,,,,,,,,,,,,,,,,,,
2763,0,0.0,0.56,,0.17,-0.01,0.82,0,-0,-1,0.17,12,2040,0,0.0,0.0,0.0,0.0,0,0,0.0
2765,0,0.0,0.56,,,,,,,,,,,,,,,,,,
2767,0,0.01,0.57,,,,,,,,,,,,,,,,,,
2769,0,0.0,0.56,,,,,,,,,,,,,,,,,,
2771,0,0.0,0.56,,,,,,,,,,,,,,,,,,
2773,0,0.0,0.56,,0.0,0.09,0.91,-0,1,-1,0.09,,,,,,,,,,
2775,0,0.0,0.56,,,,,,,,,,,,,,,,,,
2777,0,0.0,0.56,,,,,,,,,,,,,,,,,,
2779,0,0.0,0.56,,,,,,,,,,,,,,,,,,
2781,0,0.0,0.56,,,,,,,,,,,,,,,,,,
2783,0,0.0,0.56,,-0.16,0.12,1.08,1,0,-0,0.2,12,1980,0,0.0,0.0,0.0,0.0,0,0,0.0
2785,0,0.0,0.56,,,,,,,,,,,,,,,,,,
2787,0,0.0,0.56,,,,,,,,,,,,,,,,,,
2789,0,0.0,0.56,,,,,,,,,,,,,,,,,,
2791,0,0.0,0.57,,,,,,,,,,,,,,,,,,
2793,0,0.0,0.57,,0.05,0.01,1.04,1,0,-0,0.05,,,,,,,,,,
2795,0,0.0,0.57,,,,,,,,,,,,,,,,,,
2797,0,0.0,0.57,,,,,,,,,,,,,,,,,,
2799,0,0.0,0.57,,,,,,,,,,,,,,,,,,
2801,0,0.0,0.56,,,,,,,,,,,,,,,,,,
2803,0,0.0,0.57,,-0.21,0.05,1.02,0,1,-0,0.22,12,2040,0,0.0,0.0,0.0,0.0,0,0,0.0
2805,0,0.0,0.57,,,,,,,,,,,,,,,,,,
2807,0,0.0,0.56,,,,,,,,,,,,,,,,,,
2809,0,0.0,0.56,,,,,,,,,,,,,,,,,,
2811,0,0.0,0.57,,,,,,,,,,,,,,,,,,
2813,0,0.0,0.57,,-0.23,0.09,1.06,1,-0,0,0.25,,,,,,,,,,
2815,0,0.0,0.57,,,,,,,,,,,,,,,,,,
2817,0,0.0,0.57,,,,,,,,,,,,,,,,,,
2819,0,0.0,0.57,,,,,,,,,,,,,,,,,,
2821,0,0.0,0.57,,,,,,,,,,,,,,,,,,
2823,0,0.0,0.57,,0.09,0.02,0.9,1,-1,0,0.09,12,2040,0,0.0,0.0,0.0,0.0,0,0,0.0
2825,0,0.0,0.58,,,,,,,,,,,,,,,,,,
2827,0,0.0,0.57,,,,,,,,,,,,,,,,,,
2829,0,0.0,0.57,,,,,,,,,,,,,,,,,,
2831,0,0.0,0.57,,,,,,,,,,,,,,,,,,
2833,0,0.0,0.57,,-0.1,0.12,0.84,0,-1,-0,0.15,,,,,,,,,,
2835,0,0.0,0.57,,,,,,,,,,,,,,,,,,
2837,0,0.0,0.57,,,,,,,,,,,,,,,,,,
2839,0,0.0,0.56,,,,,,,,,,,,,,,,,,
2841,0,0.0,0.56,,,,,,,,,,,,,,,,,,
2843,0,0.0,0.56,,-0.03,0.1,0.98,1,-1,-1,0.11,12,2040,0,0.0,0.0,0.0,0.0,0,0,0.0
2845,0,0.0,0.56,,,,,,,,,,,,,,,,,,
2847,0,0.0,0.56,,,,,,,,,,,,,,,,,,
2849,0,0.0,0.56,,,,,,,,,,,,,,,,,,
2851,0,0.0,0.56,,,,,,,,,,,,,,,,,,
2853,0,0.0,0.57,,0.15,0.03,0.92,-0,-2,-1,0.16,,,,,,,,,,
2855,0,0.0,0.56,,,,,,,,,,,,,,,,,,
2857,0,0.0,0.56,,,,,,,,,,,,,,,,,,
2859,0,0.0,0.56,,,,,,,,,,,,,,,,,,
2861,0,0.0,0.56,,,,,,,,,,,,,,,,,,
2863,0,0.0,0.56,,-0.11,0.09,0.97,-0,-1,-1,0.15,12,2100,0,0.0,0.0,0.0,0.0,0,0,0.0
2865,0,0.0,0.56,,,,,,,,,,,,,,,,,,
2867,0,0.0,0.56,,,,,,,,,,,,,,,,,,
2869,0,0.0,0.56,,,,,,,,,,,,,,,,,,
2871,0,0.0,0.56,,,,,,,,,,,,,,,,,,
2873,0,0.0,0.56,,-0.1,0.03,1.07,0,-2,-0,0.11,,,,,,,,,,
2875,0,0.0,0.56,,,,,,,,,,,,,,,,,,
2877,0,0.0,0.56,,,,,,,,,,,,,,,,,,
2879,0,0.0,0.56,,,,,,,,,,,,,,,,,,
2881,0,0.0,0.56,,,,,,,,,,,,,,,,,,
2883,0,0.0,0.57,,0.07,0.07,1.06,-0,-1,0,0.09,12,2040,0,0.0,0.0,0.0,0.0,0,0,0.0
2885,0,0.0,0.56,,,,,,,,,,,,,,,,,,
2887,0,0.0,0.56,,,,,,,,,,,,,,,,,,
2889,0,0.0,0.56,,,,,,,,,,,,,,,,,,
2891,0,0.0,0.55,,,,,,,,,,,,,,,,,,
2893,0,0.0,0.55,,-0.21,0.09,1.02,-0,-1,0,0.23,,,,,,,,,,
2895,0,0.0,0.56,,,,,,,,,,,,,,,,,,
2897,0,0.0,0.55,,,,,,,,,,,,,,,,,,
2899,0,0.0,0.55,,,,,,,,,,,,,,,,,,
2901,0,0.0,0.55,,,,,,,,,,,,,,,,,,
2903,0,0.0,0.55,,0.02,0.01,1.04,0,-2,0,0.02,12,2040,0,0.0,0.0,0.0,0.0,0,0,0.0
2905,0,0.01,0.56,,,,,,,,,,,,,,,,,,
2907,0,0.0,0.55,,,,,,,,,,,,,,,,,,
2909,0,0.0,0.56,,,,,,,,,,,,,,,,,,
2911,0,0.0,0.57,,,,,,,,,,,,,,,,,,
2913,0,0.0,0.55,,0.1,0.05,0.94,-0,-1,0,0.12,,,,,,,,,,
2915,0,0.0,0.56,,,,,,,,,,,,,,,,,,
2917,0,0.0,0.56,,,,,,,,,,,,,,,,,,
2919,0,0.0,0.56,,,,,,,,,,,,,,,,,,
2921,0,0.0,0.56,,,,,,,,,,,,,,,,,,
2923,0,0.0,0.56,,-0.08,0.12,0.97,-0,-2,-0,0.14,12,2100,0,0.0,0.0,0.0,0.0,0,0,0.0
2925,0,0.0,0.56,,,,,,,,,,,,,,,,,,
2927,0,0.0,0.56,,,,,,,,,,,,,,,,,,
2929,0,0.0,0.56,,,,,,,,,,,,,,,,,,
2931,0,0.0,0.56,,,,,,,,,,,,,,,,,,
2933,0,0.01,0.56,,0.11,0.02,0.9,0,-2,-0,0.12,,,,,,,,,,
2935,0,0.0,0.56,,,,,,,,,,,,,,,,,,
2937,0,0.0,0.56,,,,,,,,,,,,,,,,,,
2939,0,0.0,0.57,,,,,,,,,,,,,,,,,,
2941,0,0.0,0.57,,,,,,,,,,,,,,,,,,
2943,0,0.0,0.57,,0.11,0.08,1.05,-0,0,-0,0.13,12,2040,0,0.0,0.0,0.0,0.0,0,0,0.0
2945,0,0.0,0.56,,,,,,,,,,,,,,,,,,
2947,0,0.0,0.57,,,,,,,,,,,,,,,,,,
2949,0,0.0,0.57,,,,,,,,,,,,,,,,,,
2951,0,0.0,0.57,,,,,,,,,,,,,,,,,,
2953,0,0.0,0.57,,-0.28,0.1,1.19,0,1,-1,0.3,,,,,,,,,,
2955,0,0.0,0.57,,,,,,,,,,,,,,,,,,
2957,0,0.0,0.57,,,,,,,,,,,,,,,,,,
2959,0,0.0,0.57,,,,,,,,,,,,,,,,,,
2961,0,0.0,0.57,,,,,,,,,,,,,,,,,,
2963,0,0.0,0.57,,-0.06,-0.01,1.11,1,1,-0,0.06,12,2040,0,0.0,0.0,0.0,0.0,0,0,0.0
2965,0,0.0,0.57,,,,,,,,,,,,,,,,,,
2967,0,0.0,0.57,,,,,,,,,,,,,,,,,,
2969,0,0.0,0.58,,,,,,,,,,,,,,,,,,
2971,0,0.0,0.57,,,,,,,,,,,,,,,,,,
2973,0,0.0,0.57,,-0.15,0.07,1.05,0,3,-0,0.17,,,,,,,,,,
2975,0,0.0,0.57,,,,,,,,,,,,,,,,,,
2977,0,0.0,0.57,,,,,,,,,,,,,,,,,,
2979,0,0.0,0.57,,,,,,,,,,,,,,,,,,
2981,0,0.01,0.57,,,,,,,,,,,,,,,,,,
2983,0,0.0,0.57,,-0.24,0.14,1.01,1,2,-1,0.28,12,2100,0,0.0,0.0,0.0,0.0,0,0,0.0
2985,0,0.0,0.57,,,,,,,,,,,,,,,,,,
2987,0,0.0,0.57,,,,,,,,,,,,,,,,,,
2989,0,0.0,0.57,,,,,,,,,,,,,,,,,,
2991,0,0.0,0.58,,,,,,,,,,,,,,,,,,
2993,0,0.0,0.58,,0.03,0.03,0.81,1,1,-1,0.04,,,,,,,,,,
2995,0,0.0,0.58,,,,,,,,,,,,,,,,,,
2997,0,0.0,0.59,,,,,,,,,,,,,,,,,,
2999,0,0.0,0.58,,,,,,,,,,,,,,,,,,
3001,0,0.0,0.57,,,,,,,,,,,,,,,,,,
3003,0,0.0,0.58,,-0.01,0.1,0.8,0,2,-1,0.1,12,2040,0,0.0,0.0,0.0,0.0,0,0,0.0
3005,0,0.0,0.58,,,,,,,,,,,,,,,,,,
3007,0,0.0,0.58,,,,,,,,,,,,,,,,,,
3009,0,0.01,0.58,,,,,,,,,,,,,,,,,,
3011,0,0.0,0.58,,,,,,,,,,,,,,,,,,
3013,0,0.0,0.58,,-0.16,0.15,0.94,0,1,-1,0.22,,,,,,,,,,
3015,0,0.01,0.57,,,,,,,,,,,,,,,,,,
3017,0,0.0,0.57,,,,,,,,,,,,,,,,,,
3019,0,0.0,0.57,,,,,,,,,,,,,,,,,,
3021,0,0.0,0.57,,,,,,,,,,,,,,,,,,
3023,0,0.01,0.57,,0.03,0.06,0.92,0,-0,-1,0.07,10,2040,0,0.0,0.0,0.0,0.0,0,0,0.0
3025,0,0.0,0.57,,,,,,,,,,,,,,,,,,
3027,0,0.0,0.57,,,,,,,,,,,,,,,,,,
3029,0,0.0,0.57,,,,,,,,,,,,,,,,,,
3031,0,0.0,0.57,,,,,,,,,,,,,,,,,,
3033,0,0.0,0.57,,-0.16,0.1,1.0,-0,1,-1,0.19,,,,,,,,,,
3035,0,0.0,0.57,,,,,,,,,,,,,,,,,,
3037,0,0.0,0.57,,,,,,,,,,,,,,,,,,
3039,0,0.0,0.57,,,,,,,,,,,,,,,,,,
3041,0,0.0,0.57,,,,,,,,,,,,,,,,,,
3043,0,0.01,0.57,13.16,-0.29,0.12,1.16,0,1,-1,0.31,10,2040,0,0.0,0.0,0.0,0.0,0,0,0.0
3045,0,0.0,0.57,,,,,,,,,,,,,,,,,,
3047,0,0.0,0.57,,,,,,,,,,,,,,,,,,
3049,0,0.0,0.56,,,,,,,,,,,,,,,,,,
3051,0,0.0,0.57,,,,,,,,,,,,,,,,,,
3053,0,0.0,0.57,,-0.04,0.03,1.07,-0,-0,-0,0.05,,,,,,,,,,
3055,0,0.0,0.58,,,,,,,,,,,,,,,,,,
3057,0,0.0,0.57,,,,,,,,,,,,,,,,,,
3059,0,0.0,0.56,,,,,,,,,,,,,,,,,,
3061,0,0.0,0.57,,,,,,,,,,,,,,,,,,
3063,0,0.0,0.56,,-0.18,0.07,0.97,-1,1,-0,0.2,10,1980,0,0.0,0.0,0.0,0.0,0,0,0.0
3065,0,0.0,0.56,,,,,,,,,,,,,,,,,,
3067,0,0.0,0.56,,,,,,,,,,,,,,,,,,
3069,0,0.0,0.56,,,,,,,,,,,,,,,,,,
