"Interval"|"ms"|0|0|1,"Utc"|"ms"|0|0|1,"Analog4"|"Volts"|0.0|5.0|500,"Analog5"|"Volts"|0.0|5.0|500,"Battery"|"Volts"|0.0|20.0|1,"AccelX"|"G"|-3.0|3.0|200,"AccelY"|"G"|-3.0|3.0|200,"AccelZ"|"G"|-3.0|3.0|200,"Yaw"|"Deg/Sec"|-120|120|200,"Pitch"|"Deg/Sec"|-120|120|200,"Roll"|"Deg/Sec"|-120|120|200,"Gsum"|"G"|0.0|3.0|200,"RPM2"|"rpm"|0|8000|50,"RPM3"|"rpm"|0|8000|50,"GPIO1"|""|0.0|1.0|50,"Latitude"|"Degrees"|-180.0|180.0|50,"Longitude"|"Degrees"|-180.0|180.0|50,"Speed"|"mph"|0.0|150.0|50,"Altitude"|"ft"|0.0|4000.0|50,"GPSSats"|""|0|20|50,"GPSQual"|""|0|5|50,"GPSDOP"|""|0.0|20.0|50
143,0,0.0,0.28,,-0.06,0.09,0.96,-0,1,-0,0.11,0,2100,0,0.0,0.0,0.0,0.0,0,0,0.0
145,0,0.0,0.28,,,,,,,,,,,,,,,,,,
147,0,0.0,0.28,,,,,,,,,,,,,,,,,,
149,0,0.0,0.28,,,,,,,,,,,,,,,,,,
151,0,0.0,0.28,,,,,,,,,,,,,,,,,,
153,0,0.0,0.27,,-0.22,0.11,1.02,0,-1,-0,0.25,,,,,,,,,,
155,0,0.0,0.27,,,,,,,,,,,,,,,,,,
157,0,0.0,0.28,,,,,,,,,,,,,,,,,,
159,0,0.0,0.27,,,,,,,,,,,,,,,,,,
161,0,0.0,0.27,,,,,,,,,,,,,,,,,,
163,0,0.0,0.27,,0.04,0.01,0.84,0,-1,-0,0.05,0,2100,0,0.0,0.0,0.0,0.0,0,0,0.0
165,0,0.0,0.28,,,,,,,,,,,,,,,,,,
167,0,0.0,0.28,,,,,,,,,,,,,,,,,,
169,0,0.0,0.29,,,,,,,,,,,,,,,,,,
171,0,0.0,0.28,,,,,,,,,,,,,,,,,,
173,0,0.0,0.28,,-0.07,0.11,1.01,-0,0,-0,0.13,,,,,,,,,,
175,0,0.0,0.28,,,,,,,,,,,,,,,,,,
177,0,0.0,0.28,,,,,,,,,,,,,,,,,,
179,0,0.0,0.28,,,,,,,,,,,,,,,,,,
181,0,0.0,0.28,,,,,,,,,,,,,,,,,,
183,0,0.0,0.28,,-0.22,0.09,1.05,1,-1,-0,0.23,0,2040,0,0.0,0.0,0.0,0.0,0,0,0.0
185,0,0.0,0.28,,,,,,,,,,,,,,,,,,
187,0,0.0,0.28,,,,,,,,,,,,,,,,,,
189,0,0.0,0.28,,,,,,,,,,,,,,,,,,
191,0,0.0,0.28,,,,,,,,,,,,,,,,,,
193,0,0.0,0.28,,0.13,0.03,0.93,0,-0,-0,0.13,,,,,,,,,,
195,0,0.0,0.28,,,,,,,,,,,,,,,,,,
197,0,0.0,0.28,,,,,,,,,,,,,,,,,,
199,0,0.0,0.29,,,,,,,,,,,,,,,,,,
201,0,0.0,0.29,,,,,,,,,,,,,,,,,,
203,0,0.0,0.28,,-0.19,0.09,0.99,-0,0,-0,0.21,0,2100,0,0.0,0.0,0.0,0.0,0,0,0.0
205,0,0.0,0.28,,,,,,,,,,,,,,,,,,
207,0,0.0,0.28,,,,,,,,,,,,,,,,,,
209,0,0.0,0.28,,,,,,,,,,,,,,,,,,
211,0,0.0,0.28,,,,,,,,,,,,,,,,,,
213,0,0.0,0.28,,-0.19,0.08,1.05,1,-1,-0,0.21,,,,,,,,,,
215,0,0.0,0.28,,,,,,,,,,,,,,,,,,
217,0,0.0,0.28,,,,,,,,,,,,,,,,,,
219,0,0.0,0.29,,,,,,,,,,,,,,,,,,
221,0,0.0,0.28,,,,,,,,,,,,,,,,,,
223,0,0.0,0.28,,0.05,0.03,0.94,-0,-1,-0,0.06,0,2100,0,0.0,0.0,0.0,0.0,0,0,0.0
225,0,0.0,0.29,,,,,,,,,,,,,,,,,,
227,0,0.0,0.3,,,,,,,,,,,,,,,,,,
229,0,0.0,0.28,,,,,,,,,,,,,,,,,,
231,0,0.0,0.29,,,,,,,,,,,,,,,,,,
233,0,0.0,0.29,,-0.13,0.09,0.98,-0,-0,-0,0.16,,,,,,,,,,
235,0,0.0,0.29,,,,,,,,,,,,,,,,,,
237,0,0.0,0.29,,,,,,,,,,,,,,,,,,
239,0,0.0,0.29,,,,,,,,,,,,,,,,,,
241,0,0.0,0.29,,,,,,,,,,,,,,,,,,
243,0,0.0,0.29,,-0.07,0.08,1.03,1,-0,-0,0.1,0,2040,0,0.0,0.0,0.0,0.0,0,0,0.0
245,0,0.0,0.29,,,,,,,,,,,,,,,,,,
247,0,0.0,0.29,,,,,,,,,,,,,,,,,,
249,0,0.0,0.29,,,,,,,,,,,,,,,,,,
251,0,0.0,0.29,,,,,,,,,,,,,,,,,,
253,0,0.0,0.29,,0.08,0.04,0.96,-0,-1,-0,0.09,,,,,,,,,,
255,0,0.0,0.3,,,,,,,,,,,,,,,,,,
257,0,0.0,0.29,,,,,,,,,,,,,,,,,,
259,0,0.0,0.29,,,,,,,,,,,,,,,,,,
261,0,0.0,0.3,,,,,,,,,,,,,,,,,,
263,0,0.0,0.29,,-0.2,0.1,0.96,0,0,-0,0.22,0,2100,0,0.0,0.0,0.0,0.0,0,0,0.0
265,0,0.0,0.29,,,,,,,,,,,,,,,,,,
267,0,0.0,0.3,,,,,,,,,,,,,,,,,,
269,0,0.0,0.29,,,,,,,,,,,,,,,,,,
271,0,0.0,0.29,,,,,,,,,,,,,,,,,,
273,0,0.0,0.29,,-0.06,0.06,1.0,1,-1,-0,0.09,,,,,,,,,,
275,0,0.0,0.29,,,,,,,,,,,,,,,,,,
277,0,0.0,0.29,,,,,,,,,,,,,,,,,,
279,0,0.0,0.3,,,,,,,,,,,,,,,,,,
281,0,0.0,0.29,,,,,,,,,,,,,,,,,,
283,0,0.0,0.29,,0.05,0.07,1.02,-0,0,-0,0.08,0,2040,0,0.0,0.0,0.0,0.0,0,0,0.0
285,0,0.0,0.3,,,,,,,,,,,,,,,,,,
287,0,0.0,0.3,,,,,,,,,,,,,,,,,,
289,0,0.0,0.3,,,,,,,,,,,,,,,,,,
291,0,0.0,0.29,,,,,,,,,,,,,,,,,,
293,0,0.0,0.3,,-0.26,0.1,0.96,0,-0,-0,0.28,,,,,,,,,,
295,0,0.0,0.3,,,,,,,,,,,,,,,,,,
297,0,0.0,0.3,,,,,,,,,,,,,,,,,,
299,0,0.0,0.3,,,,,,,,,,,,,,,,,,
301,0,0.0,0.3,,,,,,,,,,,,,,,,,,
303,0,0.0,0.3,,0.03,0.04,1.02,1,-1,-0,0.05,0,2040,0,0.0,0.0,0.0,0.0,0,0,0.0
305,0,0.0,0.3,,,,,,,,,,,,,,,,,,
307,0,0.0,0.3,,,,,,,,,,,,,,,,,,
309,0,0.0,0.3,,,,,,,,,,,,,,,,,,
311,0,0.0,0.3,,,,,,,,,,,,,,,,,,
313,0,0.0,0.31,,0.03,0.07,0.96,-0,0,-0,0.07,,,,,,,,,,
315,0,0.0,0.3,,,,,,,,,,,,,,,,,,
317,0,0.0,0.3,,,,,,,,,,,,,,,,,,
319,0,0.0,0.3,,,,,,,,,,,,,,,,,,
321,0,0.0,0.3,,,,,,,,,,,,,,,,,,
323,0,0.0,0.3,,-0.21,0.12,0.97,0,-1,-0,0.24,0,2100,0,0.0,0.0,0.0,0.0,0,0,0.0
325,0,0.0,0.3,,,,,,,,,,,,,,,,,,
327,0,0.0,0.3,,,,,,,,,,,,,,,,,,
329,0,0.0,0.3,,,,,,,,,,,,,,,,,,
331,0,0.0,0.3,,,,,,,,,,,,,,,,,,
333,0,0.0,0.3,,0.06,0.02,0.9,0,-1,-0,0.06,,,,,,,,,,
335,0,0.0,0.3,,,,,,,,,,,,,,,,,,
337,0,0.0,0.31,,,,,,,,,,,,,,,,,,
339,0,0.0,0.3,,,,,,,,,,,,,,,,,,
341,0,0.0,0.32,,,,,,,,,,,,,,,,,,
343,0,0.0,0.31,,-0.01,0.1,1.01,-0,0,-0,0.1,0,2040,0,0.0,0.0,0.0,0.0,0,0,0.0
345,0,0.0,0.3,,,,,,,,,,,,,,,,,,
347,0,0.0,0.31,,,,,,,,,,,,,,,,,,
349,0,0.0,0.31,,,,,,,,,,,,,,,,,,
351,0,0.0,0.31,,,,,,,,,,,,,,,,,,
353,0,0.0,0.31,,-0.28,0.12,1.03,0,-1,-0,0.3,,,,,,,,,,
355,0,0.0,0.31,,,,,,,,,,,,,,,,,,
357,0,0.0,0.31,,,,,,,,,,,,,,,,,,
359,0,0.0,0.31,,,,,,,,,,,,,,,,,,
361,0,0.0,0.31,,,,,,,,,,,,,,,,,,
363,0,0.0,0.31,,0.16,0.01,0.96,0,-1,-0,0.16,0,2040,0,0.0,0.0,0.0,0.0,0,0,0.0
365,0,0.0,0.31,,,,,,,,,,,,,,,,,,
367,0,0.0,0.31,,,,,,,,,,,,,,,,,,
369,0,0.0,0.32,,,,,,,,,,,,,,,,,,
371,0,0.0,0.32,,,,,,,,,,,,,,,,,,
373,0,0.0,0.31,,-0.11,0.07,0.96,-0,1,-0,0.13,,,,,,,,,,
375,0,0.0,0.31,,,,,,,,,,,,,,,,,,
377,0,0.0,0.31,,,,,,,,,,,,,,,,,,
379,0,0.0,0.31,,,,,,,,,,,,,,,,,,
381,0,0.0,0.31,,,,,,,,,,,,,,,,,,
383,0,0.0,0.31,,-0.19,0.1,1.05,0,-1,-0,0.22,0,2100,0,0.0,0.0,0.0,0.0,0,0,0.0
385,0,0.0,0.31,,,,,,,,,,,,,,,,,,
387,0,0.0,0.31,,,,,,,,,,,,,,,,,,
389,0,0.0,0.31,,,,,,,,,,,,,,,,,,
391,0,0.0,0.31,,,,,,,,,,,,,,,,,,
393,0,0.0,0.32,,0.08,0.03,0.88,0,-1,-0,0.08,,,,,,,,,,
395,0,0.0,0.32,,,,,,,,,,,,,,,,,,
397,0,0.0,0.31,,,,,,,,,,,,,,,,,,
399,0,0.0,0.33,,,,,,,,,,,,,,,,,,
401,0,0.0,0.32,,,,,,,,,,,,,,,,,,
403,0,0.0,0.32,,-0.09,0.08,1.0,-0,0,-0,0.12,0,2040,0,0.0,0.0,0.0,0.0,0,0,0.0
405,0,0.0,0.32,,,,,,,,,,,,,,,,,,
407,0,0.0,0.32,,,,,,,,,,,,,,,,,,
409,0,0.0,0.32,,,,,,,,,,,,,,,,,,
411,0,0.0,0.32,,,,,,,,,,,,,,,,,,
413,0,0.0,0.32,,-0.13,0.08,1.05,1,-1,-0,0.16,,,,,,,,,,
415,0,0.0,0.32,,,,,,,,,,,,,,,,,,
417,0,0.0,0.32,,,,,,,,,,,,,,,,,,
419,0,0.0,0.32,,,,,,,,,,,,,,,,,,
421,0,0.0,0.32,,,,,,,,,,,,,,,,,,
423,0,0.0,0.32,,0.14,0.05,0.95,-0,-1,-0,0.15,0,2040,0,0.0,0.0,0.0,0.0,0,0,0.0
425,0,0.0,0.32,,,,,,,,,,,,,,,,,,
427,0,0.0,0.34,,,,,,,,,,,,,,,,,,
429,0,0.0,0.33,,,,,,,,,,,,,,,,,,
431,0,0.0,0.32,,,,,,,,,,,,,,,,,,
433,0,0.0,0.33,,-0.19,0.07,1.01,-0,0,-0,0.21,,,,,,,,,,
435,0,0.0,0.32,,,,,,,,,,,,,,,,,,
437,0,0.0,0.32,,,,,,,,,,,,,,,,,,
439,0,0.0,0.32,,,,,,,,,,,,,,,,,,
441,0,0.0,0.32,,,,,,,,,,,,,,,,,,
443,0,0.0,0.32,,-0.13,0.1,1.04,0,-1,-0,0.16,0,2100,0,0.0,0.0,0.0,0.0,0,0,0.0
445,0,0.0,0.32,,,,,,,,,,,,,,,,,,
447,0,0.0,0.32,,,,,,,,,,,,,,,,,,
449,0,0.0,0.32,,,,,,,,,,,,,,,,,,
451,0,0.0,0.33,,,,,,,,,,,,,,,,,,
453,0,0.0,0.32,,0.08,0.05,0.99,0,-0,-0,0.1,,,,,,,,,,
455,0,0.0,0.33,,,,,,,,,,,,,,,,,,
457,0,0.0,0.33,,,,,,,,,,,,,,,,,,
459,0,0.0,0.33,,,,,,,,,,,,,,,,,,
461,0,0.0,0.33,,,,,,,,,,,,,,,,,,
463,0,0.0,0.33,,-0.2,0.08,0.99,0,0,-0,0.22,0,2040,0,0.0,0.0,0.0,0.0,0,0,0.0
465,0,0.0,0.33,,,,,,,,,,,,,,,,,,
467,0,0.0,0.33,,,,,,,,,,,,,,,,,,
469,0,0.0,0.33,,,,,,,,,,,,,,,,,,
471,0,0.0,0.33,,,,,,,,,,,,,,,,,,
473,0,0.0,0.33,,-0.0,0.05,1.04,1,-1,-0,0.05,,,,,,,,,,
475,0,0.0,0.33,,,,,,,,,,,,,,,,,,
477,0,0.0,0.33,,,,,,,,,,,,,,,,,,
479,0,0.0,0.33,,,,,,,,,,,,,,,,,,
481,0,0.0,0.33,,,,,,,,,,,,,,,,,,
483,0,0.0,0.35,,0.07,0.05,0.99,-0,0,-0,0.08,0,2100,0,0.0,0.0,0.0,0.0,0,0,0.0
485,0,0.0,0.34,,,,,,,,,,,,,,,,,,
487,0,0.0,0.33,,,,,,,,,,,,,,,,,,
489,0,0.0,0.34,,,,,,,,,,,,,,,,,,
491,0,0.0,0.33,,,,,,,,,,,,,,,,,,
493,0,0.0,0.33,,-0.22,0.11,1.0,0,-0,-0,0.24,,,,,,,,,,
495,0,0.0,0.33,,,,,,,,,,,,,,,,,,
497,0,0.0,0.33,,,,,,,,,,,,,,,,,,
499,0,0.0,0.33,,,,,,,,,,,,,,,,,,
501,0,0.0,0.33,,,,,,,,,,,,,,,,,,
503,0,0.0,0.34,,0.02,0.05,0.92,1,-1,-0,0.06,0,2100,0,0.0,0.0,0.0,0.0,0,0,0.0
505,0,0.0,0.34,,,,,,,,,,,,,,,,,,
507,0,0.0,0.34,,,,,,,,,,,,,,,,,,
509,0,0.0,0.34,,,,,,,,,,,,,,,,,,
511,0,0.0,0.35,,,,,,,,,,,,,,,,,,
513,0,0.0,0.34,,0.01,0.07,1.01,-0,1,-0,0.08,,,,,,,,,,
515,0,0.0,0.34,,,,,,,,,,,,,,,,,,
517,0,0.0,0.33,,,,,,,,,,,,,,,,,,
519,0,0.0,0.34,,,,,,,,,,,,,,,,,,
521,0,0.0,0.34,,,,,,,,,,,,,,,,,,
523,0,0.0,0.34,,-0.34,0.11,1.07,0,-1,-0,0.35,0,2040,0,0.0,0.0,0.0,0.0,0,0,0.0
525,0,0.0,0.34,,,,,,,,,,,,,,,,,,
527,0,0.0,0.34,,,,,,,,,,,,,,,,,,
529,0,0.0,0.34,,,,,,,,,,,,,,,,,,
531,0,0.0,0.34,,,,,,,,,,,,,,,,,,
533,0,0.0,0.34,,0.12,0.04,0.96,0,-1,-0,0.12,,,,,,,,,,
535,0,0.0,0.34,,,,,,,,,,,,,,,,,,
537,0,0.0,0.34,,,,,,,,,,,,,,,,,,
539,0,0.0,0.35,,,,,,,,,,,,,,,,,,
541,0,0.0,0.35,,,,,,,,,,,,,,,,,,
543,0,0.0,0.35,,-0.08,0.06,0.95,-0,1,-0,0.1,0,2100,0,0.0,0.0,0.0,0.0,0,0,0.0
545,0,0.0,0.34,,,,,,,,,,,,,,,,,,
547,0,0.0,0.34,,,,,,,,,,,,,,,,,,
549,0,0.0,0.34,,,,,,,,,,,,,,,,,,
551,0,0.0,0.34,,,,,,,,,,,,,,,,,,
553,0,0.0,0.34,,-0.24,0.1,1.06,0,-1,-0,0.26,,,,,,,,,,
555,0,0.0,0.35,,,,,,,,,,,,,,,,,,
557,0,0.0,0.34,,,,,,,,,,,,,,,,,,
559,0,0.0,0.35,,,,,,,,,,,,,,,,,,
561,0,0.0,0.34,,,,,,,,,,,,,,,,,,
563,0,0.0,0.34,,0.06,0.04,0.85,0,-1,-0,0.07,0,2100,0,0.0,0.0,0.0,0.0,0,0,0.0
565,0,0.0,0.35,,,,,,,,,,,,,,,,,,
567,0,0.0,0.35,,,,,,,,,,,,,,,,,,
569,0,0.0,0.36,,,,,,,,,,,,,,,,,,
571,0,0.0,0.35,,,,,,,,,,,,,,,,,,
573,0,0.0,0.35,,-0.08,0.09,0.99,-0,-0,-0,0.12,,,,,,,,,,
575,0,0.0,0.35,,,,,,,,,,,,,,,,,,
577,0,0.0,0.34,,,,,,,,,,,,,,,,,,
579,0,0.0,0.35,,,,,,,,,,,,,,,,,,
581,0,0.0,0.35,,,,,,,,,,,,,,,,,,
583,0,0.0,0.35,,-0.19,0.09,1.06,1,-1,-0,0.21,0,2040,0,0.0,0.0,0.0,0.0,0,0,0.0
585,0,0.0,0.35,,,,,,,,,,,,,,,,,,
587,0,0.0,0.35,,,,,,,,,,,,,,,,,,
589,0,0.0,0.35,,,,,,,,,,,,,,,,,,
591,0,0.0,0.35,,,,,,,,,,,,,,,,,,
593,0,0.0,0.35,,0.12,0.05,0.94,0,-1,-0,0.13,,,,,,,,,,
595,0,0.0,0.35,,,,,,,,,,,,,,,,,,
597,0,0.0,0.37,,,,,,,,,,,,,,,,,,
599,0,0.0,0.36,,,,,,,,,,,,,,,,,,
601,0,0.0,0.36,,,,,,,,,,,,,,,,,,
603,0,0.0,0.36,,-0.2,0.07,1.0,-0,0,-0,0.21,0,2100,0,0.0,0.0,0.0,0.0,0,0,0.0
605,0,0.0,0.36,,,,,,,,,,,,,,,,,,
607,0,0.0,0.35,,,,,,,,,,,,,,,,,,
609,0,0.0,0.35,,,,,,,,,,,,,,,,,,
611,0,0.0,0.36,,,,,,,,,,,,,,,,,,
613,0,0.0,0.36,,-0.16,0.1,1.05,1,-1,-0,0.19,,,,,,,,,,
615,0,0.0,0.35,,,,,,,,,,,,,,,,,,
617,0,0.0,0.35,,,,,,,,,,,,,,,,,,
619,0,0.0,0.36,,,,,,,,,,,,,,,,,,
621,0,0.0,0.35,,,,,,,,,,,,,,,,,,
623,0,0.0,0.35,,0.06,0.05,0.98,0,-1,-0,0.08,0,2100,0,0.0,0.0,0.0,0.0,0,0,0.0
625,0,0.0,0.37,,,,,,,,,,,,,,,,,,
627,0,0.0,0.36,,,,,,,,,,,,,,,,,,
629,0,0.0,0.36,,,,,,,,,,,,,,,,,,
631,0,0.0,0.36,,,,,,,,,,,,,,,,,,
633,0,0.0,0.36,,-0.18,0.09,0.97,-0,0,-0,0.2,,,,,,,,,,
635,0,0.0,0.36,,,,,,,,,,,,,,,,,,
637,0,0.0,0.36,,,,,,,,,,,,,,,,,,
639,0,0.0,0.36,,,,,,,,,,,,,,,,,,
641,0,0.0,0.36,,,,,,,,,,,,,,,,,,
643,0,0.0,0.36,,-0.03,0.08,1.01,1,-1,-0,0.08,0,2040,0,0.0,0.0,0.0,0.0,0,0,0.0
645,0,0.0,0.36,,,,,,,,,,,,,,,,,,
647,0,0.0,0.36,,,,,,,,,,,,,,,,,,
649,0,0.0,0.36,,,,,,,,,,,,,,,,,,
651,0,0.0,0.37,,,,,,,,,,,,,,,,,,
653,0,0.0,0.38,,0.08,0.05,0.96,-0,0,-0,0.1,,,,,,,,,,
655,0,0.0,0.37,,,,,,,,,,,,,,,,,,
657,0,0.0,0.37,,,,,,,,,,,,,,,,,,
659,0,0.0,0.36,,,,,,,,,,,,,,,,,,
661,0,0.0,0.37,,,,,,,,,,,,,,,,,,
663,0,0.0,0.36,,-0.21,0.1,0.99,0,-0,-0,0.23,0,2100,0,0.0,0.0,0.0,0.0,0,0,0.0
665,0,0.0,0.37,,,,,,,,,,,,,,,,,,
667,0,0.0,0.36,,,,,,,,,,,,,,,,,,
669,0,0.0,0.36,,,,,,,,,,,,,,,,,,
671,0,0.0,0.37,,,,,,,,,,,,,,,,,,
673,0,0.0,0.36,,-0.02,0.06,0.96,0,-1,-0,0.06,,,,,,,,,,
675,0,0.0,0.37,,,,,,,,,,,,,,,,,,
677,0,0.0,0.37,,,,,,,,,,,,,,,,,,
679,0,0.0,0.37,,,,,,,,,,,,,,,,,,
681,0,0.0,0.37,,,,,,,,,,,,,,,,,,
683,0,0.0,0.37,,0.02,0.07,1.0,-0,1,-0,0.07,0,2040,0,0.0,0.0,0.0,0.0,0,0,0.0
685,0,0.0,0.37,,,,,,,,,,,,,,,,,,
687,0,0.0,0.37,,,,,,,,,,,,,,,,,,
689,0,0.0,0.37,,,,,,,,,,,,,,,,,,
691,0,0.0,0.37,,,,,,,,,,,,,,,,,,
693,0,0.0,0.37,,-0.35,0.1,1.05,0,-0,-0,0.36,,,,,,,,,,
695,0,0.0,0.37,,,,,,,,,,,,,,,,,,
697,0,0.0,0.37,,,,,,,,,,,,,,,,,,
699,0,0.0,0.37,,,,,,,,,,,,,,,,,,
701,0,0.0,0.37,,,,,,,,,,,,,,,,,,
703,0,0.0,0.37,,0.09,0.05,0.98,0,-1,-0,0.1,0,2040,0,0.0,0.0,0.0,0.0,0,0,0.0
705,0,0.0,0.37,,,,,,,,,,,,,,,,,,
707,0,0.0,0.37,,,,,,,,,,,,,,,,,,
709,0,0.0,0.38,,,,,,,,,,,,,,,,,,
711,0,0.0,0.39,,,,,,,,,,,,,,,,,,
713,0,0.0,0.37,,-0.05,0.06,0.97,-0,1,-0,0.08,,,,,,,,,,
715,0,0.0,0.38,,,,,,,,,,,,,,,,,,
717,0,0.0,0.38,,,,,,,,,,,,,,,,,,
719,0,0.0,0.38,,,,,,,,,,,,,,,,,,
721,0,0.0,0.37,,,,,,,,,,,,,,,,,,
723,0,0.0,0.38,,-0.24,0.12,1.06,0,-1,-0,0.27,0,2100,0,0.0,0.0,0.0,0.0,0,0,0.0
725,0,0.0,0.38,,,,,,,,,,,,,,,,,,
727,0,0.0,0.38,,,,,,,,,,,,,,,,,,
729,0,0.01,0.38,,,,,,,,,,,,,,,,,,
731,0,0.0,0.37,,,,,,,,,,,,,,,,,,
733,0,0.0,0.38,,0.06,0.02,0.87,0,-1,-0,0.06,,,,,,,,,,
735,0,0.0,0.38,,,,,,,,,,,,,,,,,,
737,0,0.0,0.38,,,,,,,,,,,,,,,,,,
739,0,0.0,0.39,,,,,,,,,,,,,,,,,,
741,0,0.0,0.38,,,,,,,,,,,,,,,,,,
743,0,0.0,0.38,,-0.06,0.09,0.99,-0,0,-0,0.11,0,2040,0,0.0,0.0,0.0,0.0,0,0,0.0
745,0,0.0,0.38,,,,,,,,,,,,,,,,,,
747,0,0.0,0.38,,,,,,,,,,,,,,,,,,
749,0,0.0,0.38,,,,,,,,,,,,,,,,,,
751,0,0.0,0.38,,,,,,,,,,,,,,,,,,
753,0,0.0,0.38,,-0.22,0.11,1.07,0,-1,-0,0.25,,,,,,,,,,
755,0,0.0,0.38,,,,,,,,,,,,,,,,,,
757,0,0.0,0.38,,,,,,,,,,,,,,,,,,
759,0,0.0,0.38,,,,,,,,,,,,,,,,,,
761,0,0.0,0.38,,,,,,,,,,,,,,,,,,
763,0,0.0,0.38,,0.15,0.05,0.9,0,-1,-0,0.16,0,2040,0,0.0,0.0,0.0,0.0,0,0,0.0
765,0,0.0,0.39,,,,,,,,,,,,,,,,,,
767,0,0.0,0.39,,,,,,,,,,,,,,,,,,
769,0,0.0,0.39,,,,,,,,,,,,,,,,,,
771,0,0.0,0.39,,,,,,,,,,,,,,,,,,
773,0,0.0,0.39,,-0.18,0.07,0.98,-0,0,-1,0.2,,,,,,,,,,
775,0,0.0,0.38,,,,,,,,,,,,,,,,,,
777,0,0.0,0.39,,,,,,,,,,,,,,,,,,
779,0,0.0,0.39,,,,,,,,,,,,,,,,,,
781,0,0.0,0.39,,,,,,,,,,,,,,,,,,
783,0,0.0,0.39,,-0.16,0.11,1.05,0,-1,-0,0.19,0,2100,0,0.0,0.0,0.0,0.0,0,0,0.0
785,0,0.0,0.39,,,,,,,,,,,,,,,,,,
787,0,0.0,0.39,,,,,,,,,,,,,,,,,,
789,0,0.0,0.39,,,,,,,,,,,,,,,,,,
791,0,0.0,0.39,,,,,,,,,,,,,,,,,,
793,0,0.0,0.39,,0.05,0.06,0.97,0,-1,-0,0.08,,,,,,,,,,
795,0,0.0,0.39,,,,,,,,,,,,,,,,,,
797,0,0.0,0.4,,,,,,,,,,,,,,,,,,
799,0,0.0,0.39,,,,,,,,,,,,,,,,,,
801,0,0.0,0.39,,,,,,,,,,,,,,,,,,
803,0,0.0,0.39,,-0.15,0.08,0.96,-0,0,-0,0.17,0,2040,0,0.0,0.0,0.0,0.0,0,0,0.0
805,0,0.0,0.39,,,,,,,,,,,,,,,,,,
807,0,0.0,0.39,,,,,,,,,,,,,,,,,,
809,0,0.0,0.39,,,,,,,,,,,,,,,,,,
811,0,0.0,0.39,,,,,,,,,,,,,,,,,,
813,0,0.0,0.39,,-0.02,0.08,0.99,1,-0,-0,0.08,,,,,,,,,,
815,0,0.0,0.39,,,,,,,,,,,,,,,,,,
817,0,0.0,0.39,,,,,,,,,,,,,,,,,,
819,0,0.0,0.39,,,,,,,,,,,,,,,,,,
821,0,0.0,0.4,,,,,,,,,,,,,,,,,,
823,0,0.0,0.39,,0.07,0.05,0.96,-0,-0,-0,0.08,0,2040,0,0.0,0.0,0.0,0.0,0,0,0.0
825,0,0.0,0.41,,,,,,,,,,,,,,,,,,
827,0,0.0,0.4,,,,,,,,,,,,,,,,,,
829,0,0.0,0.4,,,,,,,,,,,,,,,,,,
831,0,0.0,0.4,,,,,,,,,,,,,,,,,,
833,0,0.0,0.4,,-0.21,0.1,0.97,-0,0,-0,0.24,,,,,,,,,,
835,0,0.0,0.4,,,,,,,,,,,,,,,,,,
837,0,0.0,0.4,,,,,,,,,,,,,,,,,,
839,0,0.0,0.4,,,,,,,,,,,,,,,,,,
841,0,0.0,0.4,,,,,,,,,,,,,,,,,,
843,0,0.0,0.4,,-0.03,0.06,0.93,1,-1,-0,0.07,0,2100,0,0.0,0.0,0.0,0.0,0,0,0.0
845,0,0.0,0.4,,,,,,,,,,,,,,,,,,
847,0,0.0,0.4,,,,,,,,,,,,,,,,,,
849,0,0.0,0.4,,,,,,,,,,,,,,,,,,
851,0,0.0,0.4,,,,,,,,,,,,,,,,,,
853,0,0.0,0.41,,0.02,0.07,1.0,-0,0,-0,0.07,,,,,,,,,,
855,0,0.0,0.4,,,,,,,,,,,,,,,,,,
857,0,0.0,0.4,,,,,,,,,,,,,,,,,,
859,0,0.0,0.4,,,,,,,,,,,,,,,,,,
861,0,0.0,0.4,,,,,,,,,,,,,,,,,,
863,0,0.0,0.4,,-0.35,0.1,1.05,0,0,-0,0.36,0,2040,0,0.0,0.0,0.0,0.0,0,0,0.0
865,0,0.0,0.4,,,,,,,,,,,,,,,,,,
867,0,0.0,0.4,,,,,,,,,,,,,,,,,,
869,0,0.0,0.4,,,,,,,,,,,,,,,,,,
871,0,0.0,0.4,,,,,,,,,,,,,,,,,,
873,0,0.0,0.4,,0.09,0.06,1.0,0,-1,-1,0.1,,,,,,,,,,
875,0,0.0,0.41,,,,,,,,,,,,,,,,,,
877,0,0.0,0.41,,,,,,,,,,,,,,,,,,
879,0,0.0,0.41,,,,,,,,,,,,,,,,,,
881,0,0.0,0.42,,,,,,,,,,,,,,,,,,
883,0,0.0,0.41,,-0.05,0.06,0.96,-0,1,-0,0.07,0,2100,0,0.0,0.0,0.0,0.0,0,0,0.0
885,0,0.0,0.41,,,,,,,,,,,,,,,,,,
887,0,0.0,0.41,,,,,,,,,,,,,,,,,,
889,0,0.0,0.41,,,,,,,,,,,,,,,,,,
891,0,0.0,0.41,,,,,,,,,,,,,,,,,,
893,0,0.0,0.41,,-0.24,0.11,1.04,0,-1,-1,0.26,,,,,,,,,,
895,0,0.0,0.41,,,,,,,,,,,,,,,,,,
897,0,0.0,0.41,,,,,,,,,,,,,,,,,,
899,0,0.0,0.41,,,,,,,,,,,,,,,,,,
901,0,0.0,0.41,,,,,,,,,,,,,,,,,,
903,0,0.0,0.41,,0.06,0.03,0.84,0,-1,-0,0.06,0,2100,0,0.0,0.0,0.0,0.0,0,0,0.0
905,0,0.0,0.41,,,,,,,,,,,,,,,,,,
907,0,0.0,0.41,,,,,,,,,,,,,,,,,,
909,0,0.0,0.41,,,,,,,,,,,,,,,,,,
911,0,0.0,0.41,,,,,,,,,,,,,,,,,,
913,0,0.0,0.41,,-0.07,0.09,1.01,-0,1,-1,0.12,,,,,,,,,,
915,0,0.0,0.41,,,,,,,,,,,,,,,,,,
917,0,0.0,0.41,,,,,,,,,,,,,,,,,,
919,0,0.0,0.41,,,,,,,,,,,,,,,,,,
921,0,0.0,0.41,,,,,,,,,,,,,,,,,,
923,0,0.0,0.41,,-0.2,0.11,1.08,0,-1,-1,0.23,0,2040,0,0.0,0.0,0.0,0.0,0,0,0.0
925,0,0.0,0.41,,,,,,,,,,,,,,,,,,
927,0,0.0,0.41,,,,,,,,,,,,,,,,,,
929,0,0.0,0.41,,,,,,,,,,,,,,,,,,
931,0,0.0,0.41,,,,,,,,,,,,,,,,,,
933,0,0.0,0.42,,0.13,0.05,0.93,0,-0,-0,0.14,,,,,,,,,,
935,0,0.0,0.42,,,,,,,,,,,,,,,,,,
937,0,0.0,0.42,,,,,,,,,,,,,,,,,,
939,0,0.0,0.43,,,,,,,,,,,,,,,,,,
941,0,0.0,0.42,,,,,,,,,,,,,,,,,,
943,0,0.0,0.42,,-0.22,0.06,1.03,-0,0,-0,0.23,0,2100,0,0.0,0.0,0.0,0.0,0,0,0.0
945,0,0.0,0.42,,,,,,,,,,,,,,,,,,
947,0,0.0,0.42,,,,,,,,,,,,,,,,,,
949,0,0.0,0.42,,,,,,,,,,,,,,,,,,
951,0,0.0,0.42,,,,,,,,,,,,,,,,,,
953,0,0.0,0.42,,-0.18,0.1,1.05,0,-1,-0,0.21,,,,,,,,,,
955,0,0.0,0.42,,,,,,,,,,,,,,,,,,
957,0,0.0,0.42,,,,,,,,,,,,,,,,,,
959,0,0.0,0.42,,,,,,,,,,,,,,,,,,
961,0,0.0,0.42,,,,,,,,,,,,,,,,,,
963,0,0.0,0.42,,0.06,0.05,0.95,0,-1,-0,0.08,0,2100,0,0.0,0.0,0.0,0.0,0,0,0.0
965,0,0.0,0.42,,,,,,,,,,,,,,,,,,
967,0,0.0,0.43,,,,,,,,,,,,,,,,,,
969,0,0.0,0.42,,,,,,,,,,,,,,,,,,
971,0,0.0,0.42,,,,,,,,,,,,,,,,,,
973,0,0.0,0.42,,-0.17,0.08,0.98,-0,0,-0,0.18,,,,,,,,,,
975,0,0.0,0.42,,,,,,,,,,,,,,,,,,
977,0,0.0,0.42,,,,,,,,,,,,,,,,,,
979,0,0.0,0.42,,,,,,,,,,,,,,,,,,
981,0,0.0,0.42,,,,,,,,,,,,,,,,,,
983,0,0.0,0.42,,-0.06,0.09,1.02,1,-0,-0,0.11,0,2040,0,0.0,0.0,0.0,0.0,0,0,0.0
985,0,0.0,0.42,,,,,,,,,,,,,,,,,,
987,0,0.0,0.42,,,,,,,,,,,,,,,,,,
989,0,0.0,0.43,,,,,,,,,,,,,,,,,,
991,0,0.0,0.43,,,,,,,,,,,,,,,,,,
993,0,0.0,0.43,,0.08,0.03,0.98,-0,-0,-0,0.08,,,,,,,,,,
995,0,0.0,0.44,,,,,,,,,,,,,,,,,,
997,0,0.0,0.43,,,,,,,,,,,,,,,,,,
999,0,0.0,0.43,,,,,,,,,,,,,,,,,,
1001,0,0.0,0.43,,,,,,,,,,,,,,,,,,
1003,0,0.0,0.43,,-0.21,0.09,0.98,-0,1,-1,0.23,0,2100,0,0.0,0.0,0.0,0.0,0,0,0.0
1005,0,0.0,0.43,,,,,,,,,,,,,,,,,,
1007,0,0.0,0.43,,,,,,,,,,,,,,,,,,
1009,0,0.0,0.43,,,,,,,,,,,,,,,,,,
1011,0,0.0,0.43,,,,,,,,,,,,,,,,,,
1013,0,0.0,0.43,,-0.06,0.07,0.99,1,-0,-0,0.09,,,,,,,,,,
1015,0,0.0,0.43,,,,,,,,,,,,,,,,,,
1017,0,0.0,0.43,,,,,,,,,,,,,,,,,,
1019,0,0.0,0.43,,,,,,,,,,,,,,,,,,
1021,0,0.0,0.43,,,,,,,,,,,,,,,,,,
1023,0,0.0,0.44,,0.03,0.06,0.98,-0,0,-0,0.07,0,2040,0,0.0,0.0,0.0,0.0,0,0,0.0
1025,0,0.0,0.43,,,,,,,,,,,,,,,,,,
1027,0,0.0,0.43,,,,,,,,,,,,,,,,,,
1029,0,0.0,0.43,,,,,,,,,,,,,,,,,,
1031,0,0.0,0.43,,,,,,,,,,,,,,,,,,
1033,0,0.0,0.43,,-0.34,0.1,1.02,0,0,-0,0.35,,,,,,,,,,
1035,0,0.0,0.43,,,,,,,,,,,,,,,,,,
1037,0,0.0,0.43,,,,,,,,,,,,,,,,,,
1039,0,0.0,0.43,,,,,,,,,,,,,,,,,,
1041,0,0.0,0.43,,,,,,,,,,,,,,,,,,
1043,0,0.0,0.43,13.42,0.03,0.06,1.02,0,-1,-0,0.07,0,2040,0,0.0,0.0,0.0,0.0,0,0,0.0
1045,0,0.0,0.44,,,,,,,,,,,,,,,,,,
1047,0,0.0,0.44,,,,,,,,,,,,,,,,,,
1049,0,0.0,0.44,,,,,,,,,,,,,,,,,,
1051,0,0.0,0.45,,,,,,,,,,,,,,,,,,
1053,0,0.0,0.44,,-0.04,0.04,0.97,-0,1,-0,0.06,,,,,,,,,,
1055,0,0.0,0.44,,,,,,,,,,,,,,,,,,
1057,0,0.0,0.44,,,,,,,,,,,,,,,,,,
1059,0,0.0,0.44,,,,,,,,,,,,,,,,,,
1061,0,0.0,0.44,,,,,,,,,,,,,,,,,,
1063,0,0.0,0.43,,-0.24,0.11,1.02,0,-1,-0,0.27,0,2100,0,0.0,0.0,0.0,0.0,0,0,0.0
1065,0,0.01,0.44,,,,,,,,,,,,,,,,,,
1067,0,0.0,0.44,,,,,,,,,,,,,,,,,,
1069,0,0.0,0.44,,,,,,,,,,,,,,,,,,
1071,0,0.0,0.44,,,,,,,,,,,,,,,,,,
1073,0,0.0,0.44,,0.05,0.02,0.84,0,-1,-0,0.06,,,,,,,,,,
1075,0,0.0,0.44,,,,,,,,,,,,,,,,,,
1077,0,0.0,0.44,,,,,,,,,,,,,,,,,,
1079,0,0.0,0.44,,,,,,,,,,,,,,,,,,
1081,0,0.0,0.45,,,,,,,,,,,,,,,,,,
1083,0,0.0,0.44,,-0.07,0.09,1.01,-0,0,-0,0.11,0,2040,0,0.0,0.0,0.0,0.0,0,0,0.0
1085,0,0.0,0.44,,,,,,,,,,,,,,,,,,
1087,0,0.0,0.44,,,,,,,,,,,,,,,,,,
1089,0,0.0,0.44,,,,,,,,,,,,,,,,,,
1091,0,0.0,0.44,,,,,,,,,,,,,,,,,,
1093,0,0.0,0.44,,-0.26,0.11,1.07,0,-1,-0,0.29,,,,,,,,,,
1095,0,0.0,0.44,,,,,,,,,,,,,,,,,,
1097,0,0.0,0.44,,,,,,,,,,,,,,,,,,
1099,0,0.0,0.44,,,,,,,,,,,,,,,,,,
1101,0,0.0,0.44,,,,,,,,,,,,,,,,,,
1103,0,0.0,0.45,,0.14,0.03,0.93,0,-1,-0,0.14,0,2040,0,0.0,0.0,0.0,0.0,0,0,0.0
1105,0,0.0,0.45,,,,,,,,,,,,,,,,,,
1107,0,0.0,0.45,,,,,,,,,,,,,,,,,,
1109,0,0.0,0.46,,,,,,,,,,,,,,,,,,
1111,0,0.0,0.45,,,,,,,,,,,,,,,,,,
1113,0,0.0,0.45,,-0.18,0.07,0.97,-0,0,-0,0.19,,,,,,,,,,
1115,0,0.0,0.45,,,,,,,,,,,,,,,,,,
1117,0,0.0,0.45,,,,,,,,,,,,,,,,,,
1119,0,0.0,0.44,,,,,,,,,,,,,,,,,,
1121,0,0.0,0.44,,,,,,,,,,,,,,,,,,
1123,0,0.0,0.44,,-0.21,0.11,1.07,0,-1,-0,0.24,0,2100,0,0.0,0.0,0.0,0.0,0,0,0.0
1125,0,0.0,0.44,,,,,,,,,,,,,,,,,,
1127,0,0.0,0.44,,,,,,,,,,,,,,,,,,
1129,0,0.0,0.44,,,,,,,,,,,,,,,,,,
1131,0,0.0,0.44,,,,,,,,,,,,,,,,,,
1133,0,0.0,0.44,,0.06,0.04,0.91,0,-1,-1,0.07,,,,,,,,,,
1135,0,0.0,0.44,,,,,,,,,,,,,,,,,,
1137,0,0.0,0.45,,,,,,,,,,,,,,,,,,
1139,0,0.0,0.43,,,,,,,,,,,,,,,,,,
1141,0,0.0,0.44,,,,,,,,,,,,,,,,,,
1143,0,0.0,0.44,,-0.13,0.09,0.98,-0,-0,-0,0.15,0,2040,0,0.0,0.0,0.0,0.0,0,0,0.0
1145,0,0.0,0.43,,,,,,,,,,,,,,,,,,
1147,0,0.0,0.43,,,,,,,,,,,,,,,,,,
1149,0,0.0,0.43,,,,,,,,,,,,,,,,,,
1151,0,0.0,0.43,,,,,,,,,,,,,,,,,,
1153,0,0.0,0.43,,-0.09,0.09,1.05,1,-1,-0,0.13,,,,,,,,,,
1155,0,0.0,0.44,,,,,,,,,,,,,,,,,,
1157,0,0.0,0.44,,,,,,,,,,,,,,,,,,
1159,0,0.0,0.44,,,,,,,,,,,,,,,,,,
1161,0,0.0,0.43,,,,,,,,,,,,,,,,,,
1163,0,0.0,0.43,,0.11,0.03,0.96,0,-1,-0,0.11,0,2040,0,0.0,0.0,0.0,0.0,0,0,0.0
1165,0,0.0,0.44,,,,,,,,,,,,,,,,,,
1167,0,0.0,0.44,,,,,,,,,,,,,,,,,,
1169,0,0.0,0.44,,,,,,,,,,,,,,,,,,
1171,0,0.0,0.44,,,,,,,,,,,,,,,,,,
1173,0,0.0,0.43,,-0.19,0.1,0.94,-0,0,-0,0.21,,,,,,,,,,
1175,0,0.0,0.43,,,,,,,,,,,,,,,,,,
1177,0,0.0,0.43,,,,,,,,,,,,,,,,,,
1179,0,0.0,0.43,,,,,,,,,,,,,,,,,,
1181,0,0.0,0.43,,,,,,,,,,,,,,,,,,
1183,0,0.0,0.43,,-0.09,0.09,1.03,1,-1,-0,0.13,0,2100,0,0.0,0.0,0.0,0.0,0,0,0.0
1185,0,0.0,0.43,,,,,,,,,,,,,,,,,,
1187,0,0.0,0.43,,,,,,,,,,,,,,,,,,
1189,0,0.0,0.43,,,,,,,,,,,,,,,,,,
1191,0,0.0,0.43,,,,,,,,,,,,,,,,,,
1193,0,0.0,0.43,,0.06,0.05,1.0,-0,-0,-1,0.08,,,,,,,,,,
1195,0,0.0,0.44,,,,,,,,,,,,,,,,,,
1197,0,0.0,0.43,,,,,,,,,,,,,,,,,,
1199,0,0.0,0.43,,,,,,,,,,,,,,,,,,
1201,0,0.0,0.43,,,,,,,,,,,,,,,,,,
1203,0,0.0,0.43,,-0.27,0.09,0.97,0,0,-0,0.28,0,2040,0,0.0,0.0,0.0,0.0,0,0,0.0
1205,0,0.0,0.43,,,,,,,,,,,,,,,,,,
1207,0,0.0,0.43,,,,,,,,,,,,,,,,,,
1209,0,0.0,0.43,,,,,,,,,,,,,,,,,,
1211,0,0.0,0.43,,,,,,,,,,,,,,,,,,
1213,0,0.0,0.43,,0.02,0.07,1.04,1,-1,-0,0.07,,,,,,,,,,
1215,0,0.0,0.43,,,,,,,,,,,,,,,,,,
1217,0,0.0,0.43,,,,,,,,,,,,,,,,,,
1219,0,0.0,0.43,,,,,,,,,,,,,,,,,,
1221,0,0.0,0.43,,,,,,,,,,,,,,,,,,
1223,0,0.0,0.45,,0.03,0.06,0.95,-0,0,-0,0.07,0,2100,0,0.0,0.0,0.0,0.0,0,0,0.0
1225,0,0.0,0.43,,,,,,,,,,,,,,,,,,
1227,0,0.0,0.43,,,,,,,,,,,,,,,,,,
1229,0,0.0,0.43,,,,,,,,,,,,,,,,,,
1231,0,0.0,0.43,,,,,,,,,,,,,,,,,,
1233,0,0.0,0.43,,-0.22,0.11,0.97,0,-0,-1,0.24,,,,,,,,,,
1235,0,0.0,0.43,,,,,,,,,,,,,,,,,,
1237,0,0.0,0.43,,,,,,,,,,,,,,,,,,
1239,0,0.0,0.43,,,,,,,,,,,,,,,,,,
1241,0,0.0,0.43,,,,,,,,,,,,,,,,,,
1243,0,0.0,0.43,,0.03,0.02,0.9,1,-1,-0,0.04,0,2100,0,0.0,0.0,0.0,0.0,0,0,0.0
1245,0,0.0,0.43,,,,,,,,,,,,,,,,,,
1247,0,0.0,0.43,,,,,,,,,,,,,,,,,,
1249,0,0.0,0.43,,,,,,,,,,,,,,,,,,
1251,0,0.0,0.44,,,,,,,,,,,,,,,,,,
1253,0,0.0,0.43,,-0.02,0.08,1.02,-0,1,-1,0.08,,,,,,,,,,
1255,0,0.0,0.43,,,,,,,,,,,,,,,,,,
1257,0,0.0,0.43,,,,,,,,,,,,,,,,,,
1259,0,0.0,0.43,,,,,,,,,,,,,,,,,,
1261,0,0.0,0.43,,,,,,,,,,,,,,,,,,
1263,0,0.0,0.43,,-0.28,0.1,1.06,0,-1,-0,0.3,0,2040,0,0.0,0.0,0.0,0.0,0,0,0.0
1265,0,0.0,0.43,,,,,,,,,,,,,,,,,,
1267,0,0.0,0.43,,,,,,,,,,,,,,,,,,
1269,0,0.0,0.43,,,,,,,,,,,,,,,,,,
1271,0,0.0,0.43,,,,,,,,,,,,,,,,,,
1273,0,0.0,0.43,,0.13,0.04,0.94,0,-1,-0,0.14,,,,,,,,,,
1275,0,0.0,0.43,,,,,,,,,,,,,,,,,,
1277,0,0.0,0.43,,,,,,,,,,,,,,,,,,
1279,0,0.0,0.44,,,,,,,,,,,,,,,,,,
1281,0,0.0,0.43,,,,,,,,,,,,,,,,,,
1283,0,0.0,0.43,,-0.13,0.07,0.96,-0,1,-0,0.14,0,2100,0,0.0,0.0,0.0,0.0,0,0,0.0
1285,0,0.0,0.43,,,,,,,,,,,,,,,,,,
1287,0,0.0,0.43,,,,,,,,,,,,,,,,,,
1289,0,0.0,0.42,,,,,,,,,,,,,,,,,,
1291,0,0.0,0.43,,,,,,,,,,,,,,,,,,
1293,0,0.0,0.42,,-0.22,0.1,1.07,0,-1,-0,0.24,,,,,,,,,,
1295,0,0.0,0.43,,,,,,,,,,,,,,,,,,
1297,0,0.0,0.43,,,,,,,,,,,,,,,,,,
1299,0,0.0,0.43,,,,,,,,,,,,,,,,,,
1301,0,0.0,0.43,,,,,,,,,,,,,,,,,,
1303,0,0.0,0.43,,0.07,0.04,0.89,0,-1,-0,0.08,0,2100,0,0.0,0.0,0.0,0.0,0,0,0.0
1305,0,0.0,0.43,,,,,,,,,,,,,,,,,,
1307,0,0.0,0.43,,,,,,,,,,,,,,,,,,
1309,0,0.0,0.44,,,,,,,,,,,,,,,,,,
1311,0,0.0,0.42,,,,,,,,,,,,,,,,,,
1313,0,0.0,0.42,,-0.09,0.1,1.02,-0,-0,-0,0.13,,,,,,,,,,
1315,0,0.0,0.43,,,,,,,,,,,,,,,,,,
1317,0,0.0,0.42,,,,,,,,,,,,,,,,,,
1319,0,0.0,0.42,,,,,,,,,,,,,,,,,,
1321,0,0.0,0.42,,,,,,,,,,,,,,,,,,
1323,0,0.0,0.42,,-0.11,0.08,1.05,1,-1,-0,0.14,0,2040,0,0.0,0.0,0.0,0.0,0,0,0.0
1325,0,0.0,0.42,,,,,,,,,,,,,,,,,,
1327,0,0.0,0.42,,,,,,,,,,,,,,,,,,
1329,0,0.0,0.43,,,,,,,,,,,,,,,,,,
1331,0,0.0,0.43,,,,,,,,,,,,,,,,,,
1333,0,0.0,0.43,,0.1,0.04,0.98,0,-1,-1,0.11,,,,,,,,,,
1335,0,0.0,0.43,,,,,,,,,,,,,,,,,,
1337,0,0.0,0.44,,,,,,,,,,,,,,,,,,
1339,0,0.0,0.43,,,,,,,,,,,,,,,,,,
1341,0,0.0,0.43,,,,,,,,,,,,,,,,,,
1343,0,0.0,0.43,,-0.18,0.08,0.99,-0,0,-0,0.2,0,2100,0,0.0,0.0,0.0,0.0,0,0,0.0
1345,0,0.0,0.42,,,,,,,,,,,,,,,,,,
1347,0,0.0,0.42,,,,,,,,,,,,,,,,,,
1349,0,0.0,0.42,,,,,,,,,,,,,,,,,,
1351,0,0.0,0.42,,,,,,,,,,,,,,,,,,
1353,0,0.0,0.42,,-0.12,0.09,1.08,0,-0,-0,0.15,,,,,,,,,,
1355,0,0.0,0.43,,,,,,,,,,,,,,,,,,
1357,0,0.0,0.42,,,,,,,,,,,,,,,,,,
1359,0,0.0,0.42,,,,,,,,,,,,,,,,,,
1361,0,0.0,0.42,,,,,,,,,,,,,,,,,,
1363,0,0.0,0.42,,0.05,0.06,1.01,-0,-0,-1,0.08,0,2100,0,0.0,0.0,0.0,0.0,0,0,0.0
1365,0,0.0,0.43,,,,,,,,,,,,,,,,,,
1367,0,0.0,0.42,,,,,,,,,,,,,,,,,,
1369,0,0.0,0.42,,,,,,,,,,,,,,,,,,
1371,0,0.0,0.42,,,,,,,,,,,,,,,,,,
1373,0,0.0,0.42,,-0.22,0.08,0.97,-0,1,-0,0.24,,,,,,,,,,
1375,0,0.0,0.42,,,,,,,,,,,,,,,,,,
1377,0,0.0,0.42,,,,,,,,,,,,,,,,,,
1379,0,0.0,0.42,,,,,,,,,,,,,,,,,,
1381,0,0.0,0.42,,,,,,,,,,,,,,,,,,
1383,0,0.0,0.42,,-0.05,0.08,1.05,0,0,-0,0.09,0,2040,0,0.0,0.0,0.0,0.0,0,0,0.0
1385,0,0.0,0.42,,,,,,,,,,,,,,,,,,
1387,0,0.0,0.42,,,,,,,,,,,,,,,,,,
1389,0,0.0,0.42,,,,,,,,,,,,,,,,,,
1391,0,0.0,0.42,,,,,,,,,,,,,,,,,,
1393,0,0.0,0.44,,0.02,0.07,0.96,-0,1,-0,0.07,,,,,,,,,,
1395,0,0.0,0.42,,,,,,,,,,,,,,,,,,
1397,0,0.0,0.42,,,,,,,,,,,,,,,,,,
1399,0,0.0,0.43,,,,,,,,,,,,,,,,,,
1401,0,0.0,0.42,,,,,,,,,,,,,,,,,,
1403,0,0.0,0.42,,-0.22,0.11,0.97,0,1,-1,0.25,0,2100,0,0.0,0.0,0.0,0.0,0,0,0.0
1405,0,0.0,0.42,,,,,,,,,,,,,,,,,,
1407,0,0.0,0.42,,,,,,,,,,,,,,,,,,
1409,0,0.0,0.42,,,,,,,,,,,,,,,,,,
1411,0,0.0,0.42,,,,,,,,,,,,,,,,,,
1413,0,0.0,0.42,,-0.04,0.03,0.9,1,0,-0,0.05,,,,,,,,,,
1415,0,0.0,0.42,,,,,,,,,,,,,,,,,,
1417,0,0.0,0.42,,,,,,,,,,,,,,,,,,
1419,0,0.0,0.42,,,,,,,,,,,,,,,,,,
1421,0,0.0,0.42,,,,,,,,,,,,,,,,,,
1423,0,0.0,0.42,,-0.06,0.08,1.01,-0,1,-1,0.1,0,2040,0,0.0,0.0,0.0,0.0,0,0,0.0
1425,0,0.0,0.42,,,,,,,,,,,,,,,,,,
1427,0,0.0,0.42,,,,,,,,,,,,,,,,,,
1429,0,0.0,0.42,,,,,,,,,,,,,,,,,,
1431,0,0.0,0.42,,,,,,,,,,,,,,,,,,
1433,0,0.0,0.42,,-0.35,0.1,1.03,0,-0,-1,0.36,,,,,,,,,,
1435,0,0.0,0.42,,,,,,,,,,,,,,,,,,
1437,0,0.0,0.42,,,,,,,,,,,,,,,,,,
1439,0,0.0,0.42,,,,,,,,,,,,,,,,,,
1441,0,0.0,0.42,,,,,,,,,,,,,,,,,,
1443,0,0.0,0.42,,0.04,0.02,0.96,1,0,-1,0.04,0,2040,0,0.0,0.0,0.0,0.0,0,0,0.0
1445,0,0.0,0.42,,,,,,,,,,,,,,,,,,
1447,0,0.0,0.42,,,,,,,,,,,,,,,,,,
1449,0,0.0,0.42,,,,,,,,,,,,,,,,,,
1451,0,0.0,0.42,,,,,,,,,,,,,,,,,,
1453,0,0.0,0.42,,-0.17,0.08,0.96,-0,1,-0,0.18,,,,,,,,,,
1455,0,0.0,0.42,,,,,,,,,,,,,,,,,,
1457,0,0.0,0.42,,,,,,,,,,,,,,,,,,
1459,0,0.0,0.42,,,,,,,,,,,,,,,,,,
1461,0,0.0,0.42,,,,,,,,,,,,,,,,,,
1463,0,0.0,0.42,,-0.26,0.12,1.02,0,-0,-1,0.28,0,2100,0,0.0,0.0,0.0,0.0,0,0,0.0
1465,0,0.0,0.42,,,,,,,,,,,,,,,,,,
1467,0,0.0,0.42,,,,,,,,,,,,,,,,,,
1469,0,0.0,0.42,,,,,,,,,,,,,,,,,,
1471,0,0.0,0.42,,,,,,,,,,,,,,,,,,
1473,0,0.0,0.42,,-0.02,0.04,0.87,0,-0,-1,0.04,,,,,,,,,,
1475,0,0.0,0.42,,,,,,,,,,,,,,,,,,
1477,0,0.0,0.42,,,,,,,,,,,,,,,,,,
1479,0,0.0,0.43,,,,,,,,,,,,,,,,,,
1481,0,0.0,0.42,,,,,,,,,,,,,,,,,,
1483,0,0.0,0.42,,-0.13,0.09,1.02,0,1,-1,0.16,0,2040,0,0.0,0.0,0.0,0.0,0,0,0.0
1485,0,0.0,0.42,,,,,,,,,,,,,,,,,,
1487,0,0.0,0.42,,,,,,,,,,,,,,,,,,
1489,0,0.0,0.42,,,,,,,,,,,,,,,,,,
1491,0,0.0,0.42,,,,,,,,,,,,,,,,,,
1493,0,0.0,0.42,,-0.2,0.1,1.04,1,0,-1,0.22,,,,,,,,,,
1495,0,0.0,0.42,,,,,,,,,,,,,,,,,,
1497,0,0.0,0.42,,,,,,,,,,,,,,,,,,
1499,0,0.0,0.42,,,,,,,,,,,,,,,,,,
1501,0,0.0,0.42,,,,,,,,,,,,,,,,,,
1503,0,0.0,0.42,,0.02,0.05,0.94,0,0,-1,0.05,0,2040,0,0.0,0.0,0.0,0.0,0,0,0.0
1505,0,0.0,0.42,,,,,,,,,,,,,,,,,,
1507,0,0.0,0.43,,,,,,,,,,,,,,,,,,
1509,0,0.0,0.42,,,,,,,,,,,,,,,,,,
1511,0,0.0,0.42,,,,,,,,,,,,,,,,,,
1513,0,0.0,0.42,,-0.23,0.08,0.99,0,1,-1,0.25,,,,,,,,,,
1515,0,0.0,0.42,,,,,,,,,,,,,,,,,,
1517,0,0.0,0.42,,,,,,,,,,,,,,,,,,
1519,0,0.0,0.42,,,,,,,,,,,,,,,,,,
1521,0,0.0,0.42,,,,,,,,,,,,,,,,,,
1523,0,0.0,0.42,,-0.22,0.1,1.06,1,0,-1,0.24,0,2100,0,0.0,0.0,0.0,0.0,0,0,0.0
1525,0,0.0,0.42,,,,,,,,,,,,,,,,,,
1527,0,0.0,0.42,,,,,,,,,,,,,,,,,,
1529,0,0.0,0.43,,,,,,,,,,,,,,,,,,
1531,0,0.0,0.43,,,,,,,,,,,,,,,,,,
1533,0,0.0,0.43,,-0.05,0.04,0.99,0,0,-1,0.06,,,,,,,,,,
1535,0,0.0,0.44,,,,,,,,,,,,,,,,,,
1537,0,0.0,0.43,,,,,,,,,,,,,,,,,,
1539,0,0.0,0.43,,,,,,,,,,,,,,,,,,
1541,0,0.0,0.43,,,,,,,,,,,,,,,,,,
1543,0,0.0,0.43,,-0.28,0.09,0.99,0,1,-1,0.29,0,2040,0,0.0,0.0,0.0,0.0,0,0,0.0
1545,0,0.0,0.43,,,,,,,,,,,,,,,,,,
1547,0,0.0,0.43,,,,,,,,,,,,,,,,,,
1549,0,0.0,0.43,,,,,,,,,,,,,,,,,,
1551,0,0.0,0.43,,,,,,,,,,,,,,,,,,
1553,0,0.0,0.43,,-0.15,0.07,1.06,1,1,-1,0.16,,,,,,,,,,
1555,0,0.0,0.44,,,,,,,,,,,,,,,,,,
1557,0,0.0,0.44,,,,,,,,,,,,,,,,,,
1559,0,0.0,0.44,,,,,,,,,,,,,,,,,,
1561,0,0.0,0.44,,,,,,,,,,,,,,,,,,
1563,0,0.0,0.45,,-0.03,0.07,0.99,0,1,-1,0.08,0,2100,0,0.0,0.0,0.0,0.0,0,0,0.0
1565,0,0.0,0.44,,,,,,,,,,,,,,,,,,
1567,0,0.0,0.44,,,,,,,,,,,,,,,,,,
1569,0,0.0,0.44,,,,,,,,,,,,,,,,,,
1571,0,0.0,0.44,,,,,,,,,,,,,,,,,,
1573,0,0.0,0.44,,-0.32,0.12,0.98,0,2,-1,0.35,,,,,,,,,,
1575,0,0.0,0.44,,,,,,,,,,,,,,,,,,
1577,0,0.0,0.44,,,,,,,,,,,,,,,,,,
1579,0,0.0,0.44,,,,,,,,,,,,,,,,,,
1581,0,0.0,0.44,,,,,,,,,,,,,,,,,,
1583,0,0.0,0.44,,-0.2,0.02,0.97,1,1,-1,0.2,0,2100,0,0.0,0.0,0.0,0.0,0,0,0.0
1585,0,0.0,0.44,,,,,,,,,,,,,,,,,,
1587,0,0.0,0.44,,,,,,,,,,,,,,,,,,
1589,0,0.0,0.44,,,,,,,,,,,,,,,,,,
1591,0,0.0,0.44,,,,,,,,,,,,,,,,,,
1593,0,0.0,0.46,,-0.1,0.09,1.0,0,2,-2,0.14,,,,,,,,,,
1595,0,0.0,0.44,,,,,,,,,,,,,,,,,,
1597,0,0.0,0.44,,,,,,,,,,,,,,,,,,
1599,0,0.0,0.44,,,,,,,,,,,,,,,,,,
1601,0,0.0,0.44,,,,,,,,,,,,,,,,,,
1603,0,0.0,0.44,,-0.45,0.1,0.99,0,2,-2,0.46,0,2040,0,0.0,0.0,0.0,0.0,0,0,0.0
1605,0,0.0,0.44,,,,,,,,,,,,,,,,,,
1607,0,0.01,0.45,,,,,,,,,,,,,,,,,,
1609,0,0.0,0.44,,,,,,,,,,,,,,,,,,
1611,0,0.0,0.45,,,,,,,,,,,,,,,,,,
1613,0,0.0,0.45,,-0.09,0.02,0.97,1,1,-2,0.09,,,,,,,,,,
1615,0,0.0,0.45,,,,,,,,,,,,,,,,,,
1617,0,0.0,0.45,,,,,,,,,,,,,,,,,,
1619,0,0.0,0.45,,,,,,,,,,,,,,,,,,
1621,0,0.0,0.46,,,,,,,,,,,,,,,,,,
1623,0,0.0,0.46,,-0.17,0.06,0.95,0,2,-2,0.18,0,2100,0,0.0,0.0,0.0,0.0,0,0,0.0
1625,0,0.0,0.45,,,,,,,,,,,,,,,,,,
1627,0,0.0,0.45,,,,,,,,,,,,,,,,,,
1629,0,0.0,0.45,,,,,,,,,,,,,,,,,,
1631,0,0.0,0.45,,,,,,,,,,,,,,,,,,
1633,0,0.0,0.45,,-0.37,0.12,0.99,1,1,-2,0.39,,,,,,,,,,
1635,0,0.0,0.45,,,,,,,,,,,,,,,,,,
1637,0,0.0,0.45,,,,,,,,,,,,,,,,,,
1639,0,0.0,0.45,,,,,,,,,,,,,,,,,,
1641,0,0.0,0.45,,,,,,,,,,,,,,,,,,
1643,0,0.0,0.45,,-0.11,-0.01,0.82,1,-0,-1,0.12,0,2100,0,0.0,0.0,0.0,0.0,0,0,0.0
1645,0,0.0,0.45,,,,,,,,,,,,,,,,,,
1647,0,0.0,0.45,,,,,,,,,,,,,,,,,,
1649,0,0.0,0.45,,,,,,,,,,,,,,,,,,
1651,0,0.0,0.47,,,,,,,,,,,,,,,,,,
1653,0,0.0,0.46,,-0.19,0.08,1.0,0,1,-1,0.21,,,,,,,,,,
1655,0,0.0,0.46,,,,,,,,,,,,,,,,,,
1657,0,0.0,0.46,,,,,,,,,,,,,,,,,,
1659,0,0.0,0.46,,,,,,,,,,,,,,,,,,
1661,0,0.0,0.46,,,,,,,,,,,,,,,,,,
1663,0,0.0,0.46,,-0.36,0.11,1.03,0,-1,-1,0.37,0,2040,0,0.0,0.0,0.0,0.0,0,0,0.0
1665,0,0.0,0.46,,,,,,,,,,,,,,,,,,
1667,0,0.0,0.46,,,,,,,,,,,,,,,,,,
1669,0,0.0,0.46,,,,,,,,,,,,,,,,,,
1671,0,0.0,0.46,,,,,,,,,,,,,,,,,,
1673,0,0.0,0.46,,-0.01,0.02,0.95,1,-0,-1,0.02,,,,,,,,,,
1675,0,0.0,0.46,,,,,,,,,,,,,,,,,,
1677,0,0.0,0.47,,,,,,,,,,,,,,,,,,
1679,0,0.0,0.48,,,,,,,,,,,,,,,,,,
1681,0,0.0,0.47,,,,,,,,,,,,,,,,,,
1683,0,0.0,0.46,,-0.31,0.03,1.0,0,1,-1,0.31,0,2100,0,0.0,0.0,0.0,0.0,0,0,0.0
1685,0,0.0,0.46,,,,,,,,,,,,,,,,,,
1687,0,0.0,0.46,,,,,,,,,,,,,,,,,,
1689,0,0.0,0.46,,,,,,,,,,,,,,,,,,
1691,0,0.0,0.46,,,,,,,,,,,,,,,,,,
1693,0,0.0,0.46,,-0.33,0.09,1.07,1,-1,-1,0.35,,,,,,,,,,
1695,0,0.0,0.46,,,,,,,,,,,,,,,,,,
1697,0,0.0,0.46,,,,,,,,,,,,,,,,,,
1699,0,0.0,0.45,,,,,,,,,,,,,,,,,,
1701,0,0.0,0.45,,,,,,,,,,,,,,,,,,
1703,0,0.0,0.46,,-0.05,0.01,0.92,0,-1,-1,0.05,2,2100,0,0.0,0.0,0.0,0.0,0,0,0.0
1705,0,0.0,0.46,,,,,,,,,,,,,,,,,,
1707,0,0.0,0.47,,,,,,,,,,,,,,,,,,
1709,0,0.0,0.46,,,,,,,,,,,,,,,,,,
1711,0,0.0,0.46,,,,,,,,,,,,,,,,,,
1713,0,0.0,0.45,,-0.2,0.05,0.99,0,0,-1,0.21,,,,,,,,,,
1715,0,0.0,0.45,,,,,,,,,,,,,,,,,,
1717,0,0.0,0.45,,,,,,,,,,,,,,,,,,
1719,0,0.0,0.45,,,,,,,,,,,,,,,,,,
1721,0,0.0,0.45,,,,,,,,,,,,,,,,,,
1723,0,0.0,0.45,,-0.19,0.09,1.03,1,-1,-0,0.2,2,2040,0,0.0,0.0,0.0,0.0,0,0,0.0
1725,0,0.0,0.45,,,,,,,,,,,,,,,,,,
1727,0,0.0,0.46,,,,,,,,,,,,,,,,,,
1729,0,0.0,0.45,,,,,,,,,,,,,,,,,,
1731,0,0.0,0.45,,,,,,,,,,,,,,,,,,
1733,0,0.0,0.45,,0.01,-0.0,0.97,0,-1,-0,0.01,,,,,,,,,,
1735,0,0.0,0.46,,,,,,,,,,,,,,,,,,
1737,0,0.0,0.46,,,,,,,,,,,,,,,,,,
1739,0,0.0,0.45,,,,,,,,,,,,,,,,,,
1741,0,0.0,0.45,,,,,,,,,,,,,,,,,,
1743,0,0.0,0.45,,-0.23,0.06,0.94,0,-0,-0,0.24,2,2100,0,0.0,0.0,0.0,0.0,0,0,0.0
1745,0,0.0,0.45,,,,,,,,,,,,,,,,,,
1747,0,0.0,0.45,,,,,,,,,,,,,,,,,,
1749,0,0.0,0.45,,,,,,,,,,,,,,,,,,
1751,0,0.0,0.45,,,,,,,,,,,,,,,,,,
1753,0,0.0,0.45,,-0.18,0.07,1.03,1,-1,-0,0.19,,,,,,,,,,
1755,0,0.0,0.45,,,,,,,,,,,,,,,,,,
1757,0,0.0,0.45,,,,,,,,,,,,,,,,,,
1759,0,0.0,0.45,,,,,,,,,,,,,,,,,,
1761,0,0.0,0.45,,,,,,,,,,,,,,,,,,
1763,0,0.0,0.45,,-0.01,0.03,1.04,0,-1,-0,0.03,2,2100,0,0.0,0.0,0.0,0.0,0,0,0.0
1765,0,0.0,0.45,,,,,,,,,,,,,,,,,,
1767,0,0.0,0.45,,,,,,,,,,,,,,,,,,
1769,0,0.0,0.46,,,,,,,,,,,,,,,,,,
1771,0,0.0,0.46,,,,,,,,,,,,,,,,,,
1773,0,0.0,0.46,,-0.3,0.07,0.96,0,-0,-0,0.3,,,,,,,,,,
1775,0,0.0,0.46,,,,,,,,,,,,,,,,,,
1777,0,0.0,0.46,,,,,,,,,,,,,,,,,,
1779,0,0.0,0.46,,,,,,,,,,,,,,,,,,
1781,0,0.0,0.46,,,,,,,,,,,,,,,,,,
1783,0,0.0,0.46,,-0.1,0.07,1.11,1,-1,-0,0.12,2,2100,0,0.0,0.0,0.0,0.0,0,0,0.0
1785,0,0.0,0.46,,,,,,,,,,,,,,,,,,
1787,0,0.0,0.46,,,,,,,,,,,,,,,,,,
1789,0,0.0,0.46,,,,,,,,,,,,,,,,,,
1791,0,0.0,0.47,,,,,,,,,,,,,,,,,,
1793,0,0.0,0.47,,-0.06,0.04,1.02,0,1,-0,0.07,,,,,,,,,,
1795,0,0.0,0.47,,,,,,,,,,,,,,,,,,
1797,0,0.0,0.47,,,,,,,,,,,,,,,,,,
1799,0,0.0,0.47,,,,,,,,,,,,,,,,,,
1801,0,0.0,0.46,,,,,,,,,,,,,,,,,,
1803,0,0.0,0.47,,-0.34,0.12,1.04,1,1,-1,0.36,2,2160,0,0.0,0.0,0.0,0.0,0,0,0.0
1805,0,0.0,0.47,,,,,,,,,,,,,,,,,,
1807,0,0.0,0.47,,,,,,,,,,,,,,,,,,
1809,0,0.0,0.47,,,,,,,,,,,,,,,,,,
1811,0,0.0,0.47,,,,,,,,,,,,,,,,,,
1813,0,0.0,0.47,,-0.15,0.03,0.93,1,1,-1,0.15,,,,,,,,,,
1815,0,0.0,0.47,,,,,,,,,,,,,,,,,,
1817,0,0.0,0.47,,,,,,,,,,,,,,,,,,
1819,0,0.0,0.47,,,,,,,,,,,,,,,,,,
1821,0,0.0,0.47,,,,,,,,,,,,,,,,,,
1823,0,0.0,0.47,,-0.18,0.08,0.98,1,3,-1,0.2,2,2100,0,0.0,0.0,0.0,0.0,0,0,0.0
1825,0,0.0,0.47,,,,,,,,,,,,,,,,,,
1827,0,0.0,0.47,,,,,,,,,,,,,,,,,,
1829,0,0.0,0.47,,,,,,,,,,,,,,,,,,
1831,0,0.0,0.47,,,,,,,,,,,,,,,,,,
1833,0,0.0,0.47,,-0.44,0.14,1.04,1,2,-1,0.46,,,,,,,,,,
1835,0,0.0,0.47,,,,,,,,,,,,,,,,,,
1837,0,0.0,0.47,,,,,,,,,,,,,,,,,,
1839,0,0.0,0.47,,,,,,,,,,,,,,,,,,
1841,0,0.0,0.47,,,,,,,,,,,,,,,,,,
1843,0,0.0,0.48,,-0.07,0.02,0.85,1,1,-1,0.07,2,2100,0,0.0,0.0,0.0,0.0,0,0,0.0
1845,0,0.0,0.48,,,,,,,,,,,,,,,,,,
1847,0,0.0,0.49,,,,,,,,,,,,,,,,,,
1849,0,0.0,0.48,,,,,,,,,,,,,,,,,,
1851,0,0.0,0.48,,,,,,,,,,,,,,,,,,
1853,0,0.0,0.48,,-0.25,0.06,0.86,0,2,-2,0.26,,,,,,,,,,
1855,0,0.0,0.48,,,,,,,,,,,,,,,,,,
1857,0,0.0,0.48,,,,,,,,,,,,,,,,,,
1859,0,0.0,0.48,,,,,,,,,,,,,,,,,,
1861,0,0.0,0.47,,,,,,,,,,,,,,,,,,
1863,0,0.0,0.47,,-0.33,0.17,0.95,1,0,-1,0.37,10,2100,0,0.0,0.0,0.0,0.0,0,0,0.0
1865,0,0.0,0.47,,,,,,,,,,,,,,,,,,
1867,0,0.0,0.47,,,,,,,,,,,,,,,,,,
1869,0,0.0,0.47,,,,,,,,,,,,,,,,,,
1871,0,0.0,0.47,,,,,,,,,,,,,,,,,,
1873,0,0.0,0.47,,-0.05,0.04,0.85,1,-0,-1,0.07,,,,,,,,,,
1875,0,0.0,0.47,,,,,,,,,,,,,,,,,,
1877,0,0.0,0.47,,,,,,,,,,,,,,,,,,
1879,0,0.0,0.47,,,,,,,,,,,,,,,,,,
1881,0,0.0,0.47,,,,,,,,,,,,,,,,,,
1883,0,0.0,0.47,,-0.22,0.08,0.92,0,0,-1,0.24,10,2100,0,0.0,0.0,0.0,0.0,0,0,0.0
1885,0,0.0,0.47,,,,,,,,,,,,,,,,,,
1887,0,0.0,0.47,,,,,,,,,,,,,,,,,,
1889,0,0.0,0.47,,,,,,,,,,,,,,,,,,
1891,0,0.0,0.47,,,,,,,,,,,,,,,,,,
1893,0,0.0,0.47,,-0.25,0.14,1.07,1,-0,-1,0.29,,,,,,,,,,
1895,0,0.0,0.47,,,,,,,,,,,,,,,,,,
1897,0,0.0,0.47,,,,,,,,,,,,,,,,,,
1899,0,0.0,0.47,,,,,,,,,,,,,,,,,,
1901,0,0.0,0.47,,,,,,,,,,,,,,,,,,
1903,0,0.0,0.48,,-0.1,0.04,1.06,0,-0,-1,0.11,10,2100,0,0.0,0.0,0.0,0.0,0,0,0.0
1905,0,0.0,0.48,,,,,,,,,,,,,,,,,,
1907,0,0.0,0.48,,,,,,,,,,,,,,,,,,
1909,0,0.0,0.48,,,,,,,,,,,,,,,,,,
1911,0,0.0,0.48,,,,,,,,,,,,,,,,,,
1913,0,0.0,0.48,,-0.36,0.1,1.03,-0,1,-1,0.37,,,,,,,,,,
1915,0,0.0,0.48,,,,,,,,,,,,,,,,,,
1917,0,0.0,0.48,,,,,,,,,,,,,,,,,,
1919,0,0.0,0.48,,,,,,,,,,,,,,,,,,
1921,0,0.0,0.48,,,,,,,,,,,,,,,,,,
1923,0,0.0,0.48,,-0.29,0.06,1.04,1,1,-0,0.29,10,2100,0,0.0,0.0,0.0,0.0,0,0,0.0
1925,0,0.0,0.48,,,,,,,,,,,,,,,,,,
1927,0,0.0,0.48,,,,,,,,,,,,,,,,,,
1929,0,0.0,0.48,,,,,,,,,,,,,,,,,,
1931,0,0.0,0.48,,,,,,,,,,,,,,,,,,
1933,0,0.0,0.5,,-0.12,0.06,0.98,1,1,-1,0.13,,,,,,,,,,
1935,0,0.0,0.49,,,,,,,,,,,,,,,,,,
1937,0,0.0,0.49,,,,,,,,,,,,,,,,,,
1939,0,0.0,0.49,,,,,,,,,,,,,,,,,,
1941,0,0.0,0.49,,,,,,,,,,,,,,,,,,
1943,0,0.0,0.49,,-0.46,0.05,0.94,1,1,-1,0.46,10,2100,0,0.0,0.0,0.0,0.0,0,0,0.0
1945,0,0.0,0.48,,,,,,,,,,,,,,,,,,
1947,0,0.0,0.48,,,,,,,,,,,,,,,,,,
1949,0,0.0,0.48,,,,,,,,,,,,,,,,,,
1951,0,0.0,0.49,,,,,,,,,,,,,,,,,,
1953,0,0.0,0.49,,-0.12,0.03,0.92,1,0,-1,0.13,,,,,,,,,,
1955,0,0.0,0.49,,,,,,,,,,,,,,,,,,
1957,0,0.0,0.49,,,,,,,,,,,,,,,,,,
1959,0,0.0,0.49,,,,,,,,,,,,,,,,,,
1961,0,0.0,0.5,,,,,,,,,,,,,,,,,,
1963,0,0.0,0.49,,-0.14,-0.0,0.81,1,1,-1,0.14,10,2100,0,0.0,0.0,0.0,0.0,0,0,0.0
1965,0,0.0,0.49,,,,,,,,,,,,,,,,,,
1967,0,0.0,0.49,,,,,,,,,,,,,,,,,,
1969,0,0.0,0.49,,,,,,,,,,,,,,,,,,
1971,0,0.0,0.49,,,,,,,,,,,,,,,,,,
1973,0,0.0,0.49,,-0.36,0.1,0.94,1,-1,-1,0.38,,,,,,,,,,
1975,0,0.0,0.48,,,,,,,,,,,,,,,,,,
1977,0,0.0,0.48,,,,,,,,,,,,,,,,,,
1979,0,0.0,0.48,,,,,,,,,,,,,,,,,,
1981,0,0.0,0.48,,,,,,,,,,,,,,,,,,
1983,0,0.0,0.48,,-0.12,0.0,0.8,2,-2,-1,0.12,20,2100,0,0.0,0.0,0.0,0.0,0,0,0.0
1985,0,0.0,0.48,,,,,,,,,,,,,,,,,,
1987,0,0.0,0.48,,,,,,,,,,,,,,,,,,
1989,0,0.0,0.49,,,,,,,,,,,,,,,,,,
1991,0,0.0,0.48,,,,,,,,,,,,,,,,,,
1993,0,0.0,0.48,,-0.16,0.0,0.97,1,-1,-1,0.16,,,,,,,,,,
1995,0,0.0,0.48,,,,,,,,,,,,,,,,,,
1997,0,0.0,0.48,,,,,,,,,,,,,,,,,,
1999,0,0.0,0.48,,,,,,,,,,,,,,,,,,
2001,0,0.0,0.49,,,,,,,,,,,,,,,,,,
2003,0,0.0,0.49,,-0.34,0.12,1.16,1,-2,-1,0.36,20,2100,0,0.0,0.0,0.0,0.0,0,0,0.0
2005,0,0.0,0.49,,,,,,,,,,,,,,,,,,
2007,0,0.0,0.49,,,,,,,,,,,,,,,,,,
2009,0,0.0,0.49,,,,,,,,,,,,,,,,,,
2011,0,0.0,0.49,,,,,,,,,,,,,,,,,,
2013,0,0.0,0.49,,-0.07,0.01,1.03,1,-1,-1,0.07,,,,,,,,,,
2015,0,0.0,0.49,,,,,,,,,,,,,,,,,,
2017,0,0.0,0.51,,,,,,,,,,,,,,,,,,
2019,0,0.0,0.49,,,,,,,,,,,,,,,,,,
2021,0,0.0,0.5,,,,,,,,,,,,,,,,,,
2023,0,0.0,0.49,,-0.33,0.03,1.11,1,1,-0,0.34,20,2100,0,0.0,0.0,0.0,0.0,0,0,0.0
2025,0,0.0,0.49,,,,,,,,,,,,,,,,,,
2027,0,0.0,0.5,,,,,,,,,,,,,,,,,,
2029,0,0.0,0.49,,,,,,,,,,,,,,,,,,
2031,0,0.0,0.5,,,,,,,,,,,,,,,,,,
2033,0,0.0,0.5,,-0.34,0.14,1.14,2,1,-0,0.37,,,,,,,,,,
2035,0,0.0,0.5,,,,,,,,,,,,,,,,,,
2037,0,0.0,0.5,,,,,,,,,,,,,,,,,,
2039,0,0.0,0.5,,,,,,,,,,,,,,,,,,
2041,0,0.0,0.5,,,,,,,,,,,,,,,,,,
2043,0,0.0,0.5,13.42,-0.07,0.01,0.96,1,1,-0,0.07,20,2100,0,0.0,0.0,0.0,0.0,0,0,0.0
2045,0,0.0,0.51,,,,,,,,,,,,,,,,,,
2047,0,0.0,0.5,,,,,,,,,,,,,,,,,,
2049,0,0.0,0.5,,,,,,,,,,,,,,,,,,
2051,0,0.0,0.5,,,,,,,,,,,,,,,,,,
2053,0,0.0,0.5,,-0.28,0.05,0.86,1,2,0,0.29,,,,,,,,,,
2055,0,0.0,0.5,,,,,,,,,,,,,,,,,,
2057,0,0.0,0.5,,,,,,,,,,,,,,,,,,
2059,0,0.0,0.5,,,,,,,,,,,,,,,,,,
2061,0,0.0,0.5,,,,,,,,,,,,,,,,,,
2063,0,0.0,0.49,,-0.2,0.09,0.92,2,0,0,0.22,22,2100,0,0.0,0.0,0.0,0.0,0,0,0.0
2065,0,0.0,0.49,,,,,,,,,,,,,,,,,,
2067,0,0.0,0.49,,,,,,,,,,,,,,,,,,
2069,0,0.0,0.49,,,,,,,,,,,,,,,,,,
2071,0,0.0,0.5,,,,,,,,,,,,,,,,,,
2073,0,0.0,0.5,,-0.03,0.02,0.86,1,0,-0,0.03,,,,,,,,,,
2075,0,0.0,0.5,,,,,,,,,,,,,,,,,,
2077,0,0.0,0.49,,,,,,,,,,,,,,,,,,
2079,0,0.0,0.49,,,,,,,,,,,,,,,,,,
2081,0,0.0,0.49,,,,,,,,,,,,,,,,,,
2083,0,0.0,0.49,,-0.33,0.13,0.9,0,0,-0,0.35,22,2100,0,0.0,0.0,0.0,0.0,0,0,0.0
2085,0,0.0,0.49,,,,,,,,,,,,,,,,,,
2087,0,0.0,0.49,,,,,,,,,,,,,,,,,,
2089,0,0.0,0.5,,,,,,,,,,,,,,,,,,
2091,0,0.0,0.5,,,,,,,,,,,,,,,,,,
2093,0,0.0,0.5,,-0.25,0.09,0.96,1,-1,-0,0.27,,,,,,,,,,
2095,0,0.0,0.5,,,,,,,,,,,,,,,,,,
2097,0,0.0,0.5,,,,,,,,,,,,,,,,,,
2099,0,0.0,0.5,,,,,,,,,,,,,,,,,,
2101,0,0.0,0.51,,,,,,,,,,,,,,,,,,
2103,0,0.0,0.51,,-0.18,0.05,1.05,0,0,-1,0.19,22,2100,0,0.0,0.0,0.0,0.0,0,0,0.0
2105,0,0.0,0.5,,,,,,,,,,,,,,,,,,
2107,0,0.0,0.5,,,,,,,,,,,,,,,,,,
2109,0,0.0,0.5,,,,,,,,,,,,,,,,,,
2111,0,0.0,0.5,,,,,,,,,,,,,,,,,,
2113,0,0.0,0.5,,-0.58,0.16,1.13,0,1,-1,0.61,,,,,,,,,,
2115,0,0.0,0.5,,,,,,,,,,,,,,,,,,
2117,0,0.0,0.51,,,,,,,,,,,,,,,,,,
2119,0,0.0,0.5,,,,,,,,,,,,,,,,,,
2121,0,0.0,0.51,,,,,,,,,,,,,,,,,,
2123,0,0.0,0.51,,-0.23,0.06,1.05,1,-0,-0,0.24,22,2100,0,0.0,0.0,0.0,0.0,0,0,0.0
2125,0,0.0,0.51,,,,,,,,,,,,,,,,,,
2127,0,0.0,0.51,,,,,,,,,,,,,,,,,,
2129,0,0.0,0.52,,,,,,,,,,,,,,,,,,
2131,0,0.0,0.51,,,,,,,,,,,,,,,,,,
2133,0,0.0,0.52,,-0.2,0.01,0.92,-0,1,0,0.2,,,,,,,,,,
2135,0,0.0,0.51,,,,,,,,,,,,,,,,,,
2137,0,0.0,0.51,,,,,,,,,,,,,,,,,,
2139,0,0.0,0.51,,,,,,,,,,,,,,,,,,
2141,0,0.0,0.5,,,,,,,,,,,,,,,,,,
2143,0,0.0,0.51,,-0.41,0.16,0.99,0,1,1,0.44,28,2100,0,0.0,0.0,0.0,0.0,0,0,0.0
2145,0,0.0,0.5,,,,,,,,,,,,,,,,,,
2147,0,0.0,0.5,,,,,,,,,,,,,,,,,,
2149,0,0.0,0.5,,,,,,,,,,,,,,,,,,
2151,0,0.0,0.5,,,,,,,,,,,,,,,,,,
2153,0,0.0,0.5,,-0.09,0.01,0.79,1,-0,1,0.09,,,,,,,,,,
2155,0,0.0,0.5,,,,,,,,,,,,,,,,,,
2157,0,0.0,0.5,,,,,,,,,,,,,,,,,,
2159,0,0.0,0.51,,,,,,,,,,,,,,,,,,
2161,0,0.0,0.5,,,,,,,,,,,,,,,,,,
2163,0,0.0,0.51,,-0.09,0.09,0.84,-1,1,0,0.13,28,2040,0,0.0,0.0,0.0,0.0,0,0,0.0
2165,0,0.0,0.5,,,,,,,,,,,,,,,,,,
2167,0,0.0,0.51,,,,,,,,,,,,,,,,,,
2169,0,0.0,0.51,,,,,,,,,,,,,,,,,,
2171,0,0.0,0.51,,,,,,,,,,,,,,,,,,
2173,0,0.0,0.51,,-0.33,0.23,1.04,0,0,-0,0.41,,,,,,,,,,
2175,0,0.0,0.51,,,,,,,,,,,,,,,,,,
2177,0,0.0,0.51,,,,,,,,,,,,,,,,,,
2179,0,0.0,0.51,,,,,,,,,,,,,,,,,,
2181,0,0.0,0.51,,,,,,,,,,,,,,,,,,
2183,0,0.0,0.51,,-0.14,0.05,0.98,-0,0,-1,0.15,28,2040,0,0.0,0.0,0.0,0.0,0,0,0.0
2185,0,0.0,0.51,,,,,,,,,,,,,,,,,,
2187,0,0.0,0.53,,,,,,,,,,,,,,,,,,
2189,0,0.0,0.51,,,,,,,,,,,,,,,,,,
2191,0,0.0,0.51,,,,,,,,,,,,,,,,,,
2193,0,0.0,0.51,,-0.36,0.05,1.08,-1,1,-1,0.36,,,,,,,,,,
2195,0,0.0,0.51,,,,,,,,,,,,,,,,,,
2197,0,0.0,0.51,,,,,,,,,,,,,,,,,,
2199,0,0.0,0.5,,,,,,,,,,,,,,,,,,
2201,0,0.0,0.5,,,,,,,,,,,,,,,,,,
2203,0,0.0,0.5,,-0.44,0.15,1.16,0,1,-0,0.46,32,2100,0,0.0,0.0,0.0,0.0,0,0,0.0
2205,0,0.0,0.5,,,,,,,,,,,,,,,,,,
2207,0,0.0,0.51,,,,,,,,,,,,,,,,,,
2209,0,0.0,0.51,,,,,,,,,,,,,,,,,,
2211,0,0.0,0.51,,,,,,,,,,,,,,,,,,
2213,0,0.0,0.51,,-0.17,-0.02,1.0,0,1,0,0.18,,,,,,,,,,
2215,0,0.0,0.52,,,,,,,,,,,,,,,,,,
2217,0,0.0,0.51,,,,,,,,,,,,,,,,,,
2219,0,0.0,0.51,,,,,,,,,,,,,,,,,,
2221,0,0.0,0.51,,,,,,,,,,,,,,,,,,
2223,0,0.0,0.51,,-0.33,0.03,0.87,-0,1,1,0.33,32,2040,0,0.0,0.0,0.0,0.0,0,0,0.0
2225,0,0.0,0.5,,,,,,,,,,,,,,,,,,
2227,0,0.0,0.5,,,,,,,,,,,,,,,,,,
2229,0,0.0,0.51,,,,,,,,,,,,,,,,,,
2231,0,0.0,0.51,,,,,,,,,,,,,,,,,,
2233,0,0.0,0.51,,-0.21,0.11,0.93,0,0,1,0.24,,,,,,,,,,
2235,0,0.0,0.51,,,,,,,,,,,,,,,,,,
2237,0,0.0,0.51,,,,,,,,,,,,,,,,,,
2239,0,0.0,0.51,,,,,,,,,,,,,,,,,,
2241,0,0.0,0.51,,,,,,,,,,,,,,,,,,
2243,0,0.0,0.53,,-0.05,0.03,0.88,-0,0,0,0.06,32,2100,0,0.0,0.0,0.0,0.0,0,0,0.0
2245,0,0.0,0.52,,,,,,,,,,,,,,,,,,
2247,0,0.0,0.52,,,,,,,,,,,,,,,,,,
2249,0,0.0,0.52,,,,,,,,,,,,,,,,,,
2251,0,0.0,0.52,,,,,,,,,,,,,,,,,,
2253,0,0.0,0.52,,-0.35,0.15,0.92,-0,-0,-1,0.38,,,,,,,,,,
2255,0,0.0,0.51,,,,,,,,,,,,,,,,,,
2257,0,0.0,0.51,,,,,,,,,,,,,,,,,,
2259,0,0.0,0.51,,,,,,,,,,,,,,,,,,
2261,0,0.0,0.51,,,,,,,,,,,,,,,,,,
2263,0,0.0,0.51,,-0.3,0.06,0.98,1,-1,-0,0.3,35,2100,0,0.0,0.0,0.0,0.0,0,0,0.0
2265,0,0.0,0.51,,,,,,,,,,,,,,,,,,
2267,0,0.0,0.51,,,,,,,,,,,,,,,,,,
2269,0,0.0,0.51,,,,,,,,,,,,,,,,,,
2271,0,0.0,0.51,,,,,,,,,,,,,,,,,,
2273,0,0.0,0.52,,-0.21,-0.01,1.08,-0,0,-0,0.21,,,,,,,,,,
2275,0,0.0,0.51,,,,,,,,,,,,,,,,,,
2277,0,0.0,0.51,,,,,,,,,,,,,,,,,,
2279,0,0.0,0.51,,,,,,,,,,,,,,,,,,
2281,0,0.0,0.51,,,,,,,,,,,,,,,,,,
2283,0,0.0,0.51,,-0.57,0.14,1.08,0,0,-0,0.59,35,2040,0,0.0,0.0,0.0,0.0,0,0,0.0
2285,0,0.0,0.51,,,,,,,,,,,,,,,,,,
2287,0,0.0,0.51,,,,,,,,,,,,,,,,,,
2289,0,0.0,0.51,,,,,,,,,,,,,,,,,,
2291,0,0.0,0.52,,,,,,,,,,,,,,,,,,
2293,0,0.0,0.52,,-0.18,0.03,0.99,1,-1,-1,0.18,,,,,,,,,,
2295,0,0.0,0.52,,,,,,,,,,,,,,,,,,
2297,0,0.0,0.52,,,,,,,,,,,,,,,,,,
2299,0,0.0,0.52,,,,,,,,,,,,,,,,,,
2301,0,0.0,0.53,,,,,,,,,,,,,,,,,,
2303,0,0.0,0.52,,-0.16,0.02,0.89,0,1,-0,0.16,35,2100,0,0.0,0.0,0.0,0.0,0,0,0.0
2305,0,0.0,0.52,,,,,,,,,,,,,,,,,,
2307,0,0.0,0.52,,,,,,,,,,,,,,,,,,
2309,0,0.0,0.53,,,,,,,,,,,,,,,,,,
2311,0,0.0,0.52,,,,,,,,,,,,,,,,,,
2313,0,0.0,0.53,,-0.41,0.17,0.98,1,-0,-1,0.44,,,,,,,,,,
2315,0,0.0,0.53,,,,,,,,,,,,,,,,,,
2317,0,0.0,0.52,,,,,,,,,,,,,,,,,,
2319,0,0.0,0.52,,,,,,,,,,,,,,,,,,
2321,0,0.0,0.52,,,,,,,,,,,,,,,,,,
2323,0,0.0,0.52,,-0.1,-0.0,0.81,1,-1,-1,0.1,48,2100,0,0.0,0.0,0.0,0.0,0,0,0.0
2325,0,0.0,0.52,,,,,,,,,,,,,,,,,,
2327,0,0.0,0.51,,,,,,,,,,,,,,,,,,
2329,0,0.0,0.53,,,,,,,,,,,,,,,,,,
2331,0,0.0,0.52,,,,,,,,,,,,,,,,,,
2333,0,0.0,0.52,,-0.12,0.03,0.91,0,-1,-0,0.13,,,,,,,,,,
2335,0,0.0,0.51,,,,,,,,,,,,,,,,,,
2337,0,0.0,0.52,,,,,,,,,,,,,,,,,,
2339,0,0.0,0.51,,,,,,,,,,,,,,,,,,
2341,0,0.0,0.52,,,,,,,,,,,,,,,,,,
2343,0,0.0,0.52,,-0.31,0.17,1.1,1,-1,-0,0.35,48,2040,0,0.0,0.0,0.0,0.0,0,0,0.0
2345,0,0.0,0.52,,,,,,,,,,,,,,,,,,
2347,0,0.0,0.52,,,,,,,,,,,,,,,,,,
2349,0,0.0,0.52,,,,,,,,,,,,,,,,,,
2351,0,0.0,0.53,,,,,,,,,,,,,,,,,,
2353,0,0.0,0.53,,-0.07,0.03,0.97,1,-1,-1,0.08,,,,,,,,,,
2355,0,0.0,0.53,,,,,,,,,,,,,,,,,,
2357,0,0.0,0.54,,,,,,,,,,,,,,,,,,
2359,0,0.0,0.53,,,,,,,,,,,,,,,,,,
2361,0,0.0,0.53,,,,,,,,,,,,,,,,,,
2363,0,0.0,0.53,,-0.3,0.04,1.05,0,-0,-1,0.3,48,2100,0,0.0,0.0,0.0,0.0,0,0,0.0
2365,0,0.0,0.53,,,,,,,,,,,,,,,,,,
2367,0,0.0,0.52,,,,,,,,,,,,,,,,,,
2369,0,0.0,0.52,,,,,,,,,,,,,,,,,,
2371,0,0.0,0.52,,,,,,,,,,,,,,,,,,
2373,0,0.0,0.52,,-0.37,0.18,1.15,1,-0,-0,0.41,,,,,,,,,,
2375,0,0.0,0.52,,,,,,,,,,,,,,,,,,
2377,0,0.0,0.52,,,,,,,,,,,,,,,,,,
2379,0,0.0,0.52,,,,,,,,,,,,,,,,,,
2381,0,0.0,0.52,,,,,,,,,,,,,,,,,,
2383,0,0.0,0.52,,-0.13,0.04,0.99,1,-1,-0,0.14,42,2100,0,0.0,0.0,0.0,0.0,0,0,0.0
2385,0,0.0,0.53,,,,,,,,,,,,,,,,,,
2387,0,0.0,0.52,,,,,,,,,,,,,,,,,,
2389,0,0.0,0.52,,,,,,,,,,,,,,,,,,
2391,0,0.0,0.52,,,,,,,,,,,,,,,,,,
2393,0,0.0,0.52,,-0.25,0.08,0.95,-0,1,1,0.27,,,,,,,,,,
2395,0,0.0,0.53,,,,,,,,,,,,,,,,,,
2397,0,0.0,0.52,,,,,,,,,,,,,,,,,,
2399,0,0.0,0.53,,,,,,,,,,,,,,,,,,
2401,0,0.0,0.53,,,,,,,,,,,,,,,,,,
2403,0,0.0,0.53,,-0.2,0.16,1.01,1,0,1,0.25,42,2100,0,0.0,0.0,0.0,0.0,0,0,0.0
2405,0,0.0,0.53,,,,,,,,,,,,,,,,,,
2407,0,0.0,0.53,,,,,,,,,,,,,,,,,,
2409,0,0.0,0.53,,,,,,,,,,,,,,,,,,
2411,0,0.0,0.53,,,,,,,,,,,,,,,,,,
2413,0,0.0,0.55,,-0.06,0.08,0.93,-0,1,-0,0.1,,,,,,,,,,
2415,0,0.0,0.53,,,,,,,,,,,,,,,,,,
2417,0,0.0,0.53,,,,,,,,,,,,,,,,,,
2419,0,0.0,0.53,,,,,,,,,,,,,,,,,,
2421,0,0.0,0.53,,,,,,,,,,,,,,,,,,
2423,0,0.0,0.53,,-0.33,0.13,0.89,-1,0,-1,0.36,48,2100,0,0.0,0.0,0.0,0.0,0,0,0.0
2425,0,0.0,0.52,,,,,,,,,,,,,,,,,,
2427,0,0.0,0.52,,,,,,,,,,,,,,,,,,
2429,0,0.0,0.52,,,,,,,,,,,,,,,,,,
2431,0,0.0,0.52,,,,,,,,,,,,,,,,,,
2433,0,0.0,0.52,,-0.16,0.05,0.89,-0,-1,-0,0.17,,,,,,,,,,
2435,0,0.0,0.52,,,,,,,,,,,,,,,,,,
2437,0,0.0,0.52,,,,,,,,,,,,,,,,,,
2439,0,0.0,0.53,,,,,,,,,,,,,,,,,,
2441,0,0.0,0.53,,,,,,,,,,,,,,,,,,
2443,0,0.0,0.53,,-0.03,0.0,0.91,-1,-1,-0,0.03,48,2040,0,0.0,0.0,0.0,0.0,0,0,0.0
2445,0,0.0,0.53,,,,,,,,,,,,,,,,,,
2447,0,0.0,0.53,,,,,,,,,,,,,,,,,,
2449,0,0.0,0.53,,,,,,,,,,,,,,,,,,
2451,0,0.0,0.53,,,,,,,,,,,,,,,,,,
2453,0,0.0,0.53,,-0.48,0.13,1.0,-1,-1,-0,0.49,,,,,,,,,,
2455,0,0.0,0.53,,,,,,,,,,,,,,,,,,
2457,0,0.0,0.53,,,,,,,,,,,,,,,,,,
2459,0,0.0,0.54,,,,,,,,,,,,,,,,,,
2461,0,0.0,0.53,,,,,,,,,,,,,,,,,,
2463,0,0.0,0.53,,-0.14,0.04,1.03,0,-3,-1,0.14,48,2040,0,0.0,0.0,0.0,0.0,0,0,0.0
2465,0,0.0,0.53,,,,,,,,,,,,,,,,,,
2467,0,0.0,0.53,,,,,,,,,,,,,,,,,,
2469,0,0.0,0.53,,,,,,,,,,,,,,,,,,
2471,0,0.0,0.54,,,,,,,,,,,,,,,,,,
2473,0,0.0,0.53,,-0.06,0.0,0.94,-1,-2,-0,0.06,,,,,,,,,,
2475,0,0.0,0.53,,,,,,,,,,,,,,,,,,
2477,0,0.0,0.53,,,,,,,,,,,,,,,,,,
2479,0,0.0,0.53,,,,,,,,,,,,,,,,,,
2481,0,0.0,0.53,,,,,,,,,,,,,,,,,,
2483,0,0.0,0.53,,-0.32,0.12,1.07,-0,-2,-1,0.34,50,2100,0,0.0,0.0,0.0,0.0,0,0,0.0
2485,0,0.0,0.53,,,,,,,,,,,,,,,,,,
2487,0,0.0,0.53,,,,,,,,,,,,,,,,,,
2489,0,0.0,0.52,,,,,,,,,,,,,,,,,,
2491,0,0.0,0.53,,,,,,,,,,,,,,,,,,
2493,0,0.0,0.53,,0.01,-0.0,0.93,0,-3,-0,0.01,,,,,,,,,,
2495,0,0.0,0.54,,,,,,,,,,,,,,,,,,
2497,0,0.0,0.53,,,,,,,,,,,,,,,,,,
2499,0,0.0,0.55,,,,,,,,,,,,,,,,,,
2501,0,0.0,0.53,,,,,,,,,,,,,,,,,,
2503,0,0.0,0.54,,0.04,0.03,0.99,-0,-2,-1,0.05,50,2040,0,0.0,0.0,0.0,0.0,0,0,0.0
2505,0,0.0,0.53,,,,,,,,,,,,,,,,,,
2507,0,0.0,0.54,,,,,,,,,,,,,,,,,,
2509,0,0.0,0.54,,,,,,,,,,,,,,,,,,
2511,0,0.0,0.53,,,,,,,,,,,,,,,,,,
2513,0,0.0,0.53,,-0.23,0.11,1.14,1,-2,-1,0.25,,,,,,,,,,
2515,0,0.0,0.53,,,,,,,,,,,,,,,,,,
2517,0,0.0,0.53,,,,,,,,,,,,,,,,,,
2519,0,0.0,0.53,,,,,,,,,,,,,,,,,,
2521,0,0.0,0.53,,,,,,,,,,,,,,,,,,
2523,0,0.0,0.53,,0.06,0.02,0.96,1,-1,-1,0.06,48,2040,0,0.0,0.0,0.0,0.0,0,0,0.0
2525,0,0.0,0.53,,,,,,,,,,,,,,,,,,
2527,0,0.0,0.54,,,,,,,,,,,,,,,,,,
2529,0,0.0,0.53,,,,,,,,,,,,,,,,,,
2531,0,0.0,0.53,,,,,,,,,,,,,,,,,,
2533,0,0.0,0.53,,-0.19,-0.0,1.1,0,1,-1,0.19,,,,,,,,,,
2535,0,0.0,0.54,,,,,,,,,,,,,,,,,,
2537,0,0.0,0.54,,,,,,,,,,,,,,,,,,
2539,0,0.0,0.54,,,,,,,,,,,,,,,,,,
2541,0,0.0,0.54,,,,,,,,,,,,,,,,,,
2543,0,0.0,0.54,,-0.35,0.1,1.16,1,0,0,0.37,48,2100,0,0.0,0.0,0.0,0.0,0,0,0.0
2545,0,0.0,0.54,,,,,,,,,,,,,,,,,,
2547,0,0.0,0.54,,,,,,,,,,,,,,,,,,
2549,0,0.0,0.54,,,,,,,,,,,,,,,,,,
2551,0,0.0,0.54,,,,,,,,,,,,,,,,,,
2553,0,0.0,0.54,,-0.0,0.01,0.96,1,-0,-0,0.01,,,,,,,,,,
2555,0,0.0,0.56,,,,,,,,,,,,,,,,,,
2557,0,0.0,0.55,,,,,,,,,,,,,,,,,,
2559,0,0.0,0.55,,,,,,,,,,,,,,,,,,
2561,0,0.0,0.55,,,,,,,,,,,,,,,,,,
2563,0,0.0,0.55,,-0.12,0.1,0.81,1,1,-1,0.16,58,2040,0,0.0,0.0,0.0,0.0,0,0,0.0
2565,0,0.0,0.54,,,,,,,,,,,,,,,,,,
2567,0,0.0,0.54,,,,,,,,,,,,,,,,,,
2569,0,0.0,0.54,,,,,,,,,,,,,,,,,,
2571,0,0.0,0.54,,,,,,,,,,,,,,,,,,
2573,0,0.0,0.54,,-0.15,0.17,0.91,2,-0,-1,0.23,,,,,,,,,,
2575,0,0.0,0.54,,,,,,,,,,,,,,,,,,
2577,0,0.0,0.54,,,,,,,,,,,,,,,,,,
2579,0,0.0,0.54,,,,,,,,,,,,,,,,,,
2581,0,0.0,0.54,,,,,,,,,,,,,,,,,,
2583,0,0.0,0.55,,0.06,0.07,0.84,1,-0,-1,0.09,58,2100,0,0.0,0.0,0.0,0.0,0,0,0.0
2585,0,0.0,0.54,,,,,,,,,,,,,,,,,,
2587,0,0.0,0.54,,,,,,,,,,,,,,,,,,
2589,0,0.0,0.54,,,,,,,,,,,,,,,,,,
2591,0,0.0,0.54,,,,,,,,,,,,,,,,,,
2593,0,0.0,0.54,,-0.21,0.15,0.88,0,-0,-2,0.26,,,,,,,,,,
2595,0,0.0,0.54,,,,,,,,,,,,,,,,,,
2597,0,0.0,0.54,,,,,,,,,,,,,,,,,,
2599,0,0.0,0.54,,,,,,,,,,,,,,,,,,
2601,0,0.0,0.54,,,,,,,,,,,,,,,,,,
2603,0,0.0,0.54,,-0.22,0.09,0.99,1,-1,-1,0.24,58,2100,0,0.0,0.0,0.0,0.0,0,0,0.0
2605,0,0.0,0.54,,,,,,,,,,,,,,,,,,
2607,0,0.0,0.54,,,,,,,,,,,,,,,,,,
2609,0,0.0,0.54,,,,,,,,,,,,,,,,,,
2611,0,0.0,0.55,,,,,,,,,,,,,,,,,,
2613,0,0.0,0.54,,-0.09,0.06,1.0,-0,-1,-2,0.1,,,,,,,,,,
2615,0,0.0,0.54,,,,,,,,,,,,,,,,,,
2617,0,0.0,0.54,,,,,,,,,,,,,,,,,,
2619,0,0.0,0.54,,,,,,,,,,,,,,,,,,
2621,0,0.0,0.54,,,,,,,,,,,,,,,,,,
2623,0,0.0,0.54,,-0.4,0.14,1.03,-0,-1,-2,0.43,50,2100,0,0.0,0.0,0.0,0.0,0,0,0.0
2625,0,0.0,0.54,,,,,,,,,,,,,,,,,,
2627,0,0.0,0.54,,,,,,,,,,,,,,,,,,
2629,0,0.0,0.54,,,,,,,,,,,,,,,,,,
2631,0,0.0,0.54,,,,,,,,,,,,,,,,,,
2633,0,0.0,0.55,,-0.0,-0.0,0.94,0,-2,-1,0.0,,,,,,,,,,
2635,0,0.0,0.55,,,,,,,,,,,,,,,,,,
2637,0,0.0,0.55,,,,,,,,,,,,,,,,,,
2639,0,0.0,0.56,,,,,,,,,,,,,,,,,,
2641,0,0.0,0.55,,,,,,,,,,,,,,,,,,
2643,0,0.0,0.55,,0.05,0.01,0.89,-0,-1,-1,0.05,50,2100,0,0.0,0.0,0.0,0.0,0,0,0.0
2645,0,0.0,0.55,,,,,,,,,,,,,,,,,,
2647,0,0.0,0.55,,,,,,,,,,,,,,,,,,
2649,0,0.0,0.55,,,,,,,,,,,,,,,,,,
2651,0,0.0,0.55,,,,,,,,,,,,,,,,,,
2653,0,0.0,0.55,,-0.2,0.16,1.02,-0,-2,-1,0.26,,,,,,,,,,
2655,0,0.0,0.55,,,,,,,,,,,,,,,,,,
2657,0,0.0,0.54,,,,,,,,,,,,,,,,,,
2659,0,0.0,0.54,,,,,,,,,,,,,,,,,,
2661,0,0.0,0.54,,,,,,,,,,,,,,,,,,
2663,0,0.0,0.54,,0.02,-0.02,0.93,0,-3,-1,0.03,50,2100,0,0.0,0.0,0.0,0.0,0,0,0.0
2665,0,0.0,0.54,,,,,,,,,,,,,,,,,,
2667,0,0.0,0.54,,,,,,,,,,,,,,,,,,
2669,0,0.0,0.56,,,,,,,,,,,,,,,,,,
2671,0,0.0,0.55,,,,,,,,,,,,,,,,,,
2673,0,0.0,0.55,,0.02,-0.03,1.05,-0,-1,-1,0.04,,,,,,,,,,
2675,0,0.0,0.55,,,,,,,,,,,,,,,,,,
2677,0,0.0,0.55,,,,,,,,,,,,,,,,,,
2679,0,0.0,0.55,,,,,,,,,,,,,,,,,,
2681,0,0.0,0.55,,,,,,,,,,,,,,,,,,
2683,0,0.0,0.55,,-0.27,0.05,1.22,0,-1,-0,0.27,50,2100,0,0.0,0.0,0.0,0.0,0,0,0.0
2685,0,0.0,0.55,,,,,,,,,,,,,,,,,,
2687,0,0.0,0.55,,,,,,,,,,,,,,,,,,
2689,0,0.0,0.55,,,,,,,,,,,,,,,,,,
2691,0,0.0,0.55,,,,,,,,,,,,,,,,,,
2693,0,0.0,0.56,,-0.01,-0.01,1.08,0,-0,-1,0.01,,,,,,,,,,
2695,0,0.0,0.56,,,,,,,,,,,,,,,,,,
2697,0,0.0,0.57,,,,,,,,,,,,,,,,,,
2699,0,0.0,0.55,,,,,,,,,,,,,,,,,,
2701,0,0.0,0.55,,,,,,,,,,,,,,,,,,
2703,0,0.0,0.55,,-0.13,0.02,1.0,0,1,-1,0.13,62,2100,0,0.0,0.0,0.0,0.0,0,0,0.0
2705,0,0.0,0.55,,,,,,,,,,,,,,,,,,
2707,0,0.0,0.55,,,,,,,,,,,,,,,,,,
2709,0,0.0,0.55,,,,,,,,,,,,,,,,,,
2711,0,0.0,0.54,,,,,,,,,,,,,,,,,,
2713,0,0.0,0.54,,-0.22,0.06,0.99,1,0,-1,0.22,,,,,,,,,,
2715,0,0.0,0.54,,,,,,,,,,,,,,,,,,
2717,0,0.0,0.55,,,,,,,,,,,,,,,,,,
2719,0,0.0,0.55,,,,,,,,,,,,,,,,,,
2721,0,0.0,0.55,,,,,,,,,,,,,,,,,,
2723,0,0.0,0.55,,0.04,-0.06,0.87,1,-0,-0,0.07,62,2100,0,0.0,0.0,0.0,0.0,0,0,0.0
2725,0,0.0,0.56,,,,,,,,,,,,,,,,,,
2727,0,0.0,0.56,,,,,,,,,,,,,,,,,,
2729,0,0.0,0.55,,,,,,,,,,,,,,,,,,
2731,0,0.0,0.56,,,,,,,,,,,,,,,,,,
2733,0,0.0,0.56,,-0.09,0.04,0.79,1,1,0,0.1,,,,,,,,,,
2735,0,0.0,0.56,,,,,,,,,,,,,,,,,,
2737,0,0.0,0.56,,,,,,,,,,,,,,,,,,
2739,0,0.0,0.56,,,,,,,,,,,,,,,,,,
2741,0,0.0,0.56,,,,,,,,,,,,,,,,,,
2743,0,0.0,0.56,,-0.12,0.11,0.99,2,-0,0,0.16,62,2040,0,0.0,0.0,0.0,0.0,0,0,0.0
2745,0,0.0,0.55,,,,,,,,,,,,,,,,,,
2747,0,0.0,0.55,,,,,,,,,,,,,,,,,,
2749,0,0.0,0.55,,,,,,,,,,,,,,,,,,
2751,0,0.0,0.55,,,,,,,,,,,,,,,,,,
2753,0,0.0,0.56,,0.11,0.06,0.88,1,-1,-0,0.12,,,,,,,,,,
2755,0,0.0,0.55,,,,,,,,,,,,,,,,,,
2757,0,0.0,0.55,,,,,,,,,,,,,,,,,,
2759,0,0.0,0.56,,,,,,,,,,,,,,,,,,
2761,0,0.0,0.56,,,,,,,,,,,,,,,,,,
2763,0,0.0,0.55,,-0.16,0.13,0.93,1,-0,-0,0.2,50,2100,0,0.0,0.0,0.0,0.0,0,0,0.0
2765,0,0.0,0.56,,,,,,,,,,,,,,,,,,
2767,0,0.0,0.56,,,,,,,,,,,,,,,,,,
2769,0,0.0,0.56,,,,,,,,,,,,,,,,,,
2771,0,0.0,0.56,,,,,,,,,,,,,,,,,,
2773,0,0.0,0.56,,-0.18,0.06,0.99,2,-1,0,0.19,,,,,,,,,,
2775,0,0.0,0.56,,,,,,,,,,,,,,,,,,
2777,0,0.0,0.56,,,,,,,,,,,,,,,,,,
2779,0,0.0,0.56,,,,,,,,,,,,,,,,,,
2781,0,0.0,0.57,,,,,,,,,,,,,,,,,,
2783,0,0.0,0.57,,-0.05,0.03,1.05,1,0,1,0.06,50,2040,0,0.0,0.0,0.0,0.0,0,0,0.0
2785,0,0.0,0.56,,,,,,,,,,,,,,,,,,
2787,0,0.0,0.55,,,,,,,,,,,,,,,,,,
2789,0,0.0,0.55,,,,,,,,,,,,,,,,,,
2791,0,0.0,0.55,,,,,,,,,,,,,,,,,,
2793,0,0.0,0.55,,-0.37,0.17,1.05,1,0,1,0.41,,,,,,,,,,
2795,0,0.0,0.55,,,,,,,,,,,,,,,,,,
2797,0,0.0,0.55,,,,,,,,,,,,,,,,,,
2799,0,0.0,0.55,,,,,,,,,,,,,,,,,,
2801,0,0.0,0.55,,,,,,,,,,,,,,,,,,
2803,0,0.0,0.55,,-0.07,0.09,0.94,1,-0,0,0.12,60,2040,0,0.0,0.0,0.0,0.0,0,0,0.0
2805,0,0.0,0.55,,,,,,,,,,,,,,,,,,
2807,0,0.0,0.56,,,,,,,,,,,,,,,,,,
2809,0,0.0,0.57,,,,,,,,,,,,,,,,,,
2811,0,0.0,0.56,,,,,,,,,,,,,,,,,,
2813,0,0.0,0.57,,-0.08,0.04,0.84,0,1,0,0.09,,,,,,,,,,
2815,0,0.0,0.56,,,,,,,,,,,,,,,,,,
2817,0,0.0,0.56,,,,,,,,,,,,,,,,,,
2819,0,0.0,0.57,,,,,,,,,,,,,,,,,,
2821,0,0.0,0.56,,,,,,,,,,,,,,,,,,
2823,0,0.0,0.56,,-0.22,0.16,0.89,0,-1,0,0.27,60,2100,0,0.0,0.0,0.0,0.0,0,0,0.0
2825,0,0.0,0.57,,,,,,,,,,,,,,,,,,
2827,0,0.0,0.57,,,,,,,,,,,,,,,,,,
2829,0,0.0,0.57,,,,,,,,,,,,,,,,,,
2831,0,0.0,0.57,,,,,,,,,,,,,,,,,,
2833,0,0.0,0.57,,0.07,0.06,0.78,0,-2,-0,0.09,,,,,,,,,,
2835,0,0.0,0.56,,,,,,,,,,,,,,,,,,
2837,0,0.0,0.56,,,,,,,,,,,,,,,,,,
2839,0,0.0,0.57,,,,,,,,,,,,,,,,,,
2841,0,0.0,0.56,,,,,,,,,,,,,,,,,,
2843,0,0.0,0.56,,0.1,0.07,0.9,-1,-1,-0,0.12,50,2040,0,0.0,0.0,0.0,0.0,0,0,0.0
2845,0,0.0,0.56,,,,,,,,,,,,,,,,,,
2847,0,0.0,0.56,,,,,,,,,,,,,,,,,,
2849,0,0.0,0.56,,,,,,,,,,,,,,,,,,
2851,0,0.0,0.56,,,,,,,,,,,,,,,,,,
2853,0,0.0,0.56,,-0.2,0.13,1.15,-0,-2,-0,0.24,,,,,,,,,,
2855,0,0.0,0.56,,,,,,,,,,,,,,,,,,
2857,0,0.0,0.56,,,,,,,,,,,,,,,,,,
2859,0,0.0,0.57,,,,,,,,,,,,,,,,,,
2861,0,0.0,0.57,,,,,,,,,,,,,,,,,,
2863,0,0.0,0.57,,0.05,-0.05,1.06,-0,-2,0,0.07,50,2040,0,0.0,0.0,0.0,0.0,0,0,0.0
2865,0,0.0,0.57,,,,,,,,,,,,,,,,,,
2867,0,0.0,0.58,,,,,,,,,,,,,,,,,,
2869,0,0.0,0.57,,,,,,,,,,,,,,,,,,
2871,0,0.0,0.57,,,,,,,,,,,,,,,,,,
2873,0,0.0,0.57,,-0.11,-0.0,1.15,-0,-0,0,0.11,,,,,,,,,,
2875,0,0.0,0.56,,,,,,,,,,,,,,,,,,
2877,0,0.0,0.56,,,,,,,,,,,,,,,,,,
2879,0,0.0,0.56,,,,,,,,,,,,,,,,,,
2881,0,0.0,0.56,,,,,,,,,,,,,,,,,,
2883,0,0.0,0.56,,-0.2,0.1,1.23,0,-0,1,0.23,60,2100,0,0.0,0.0,0.0,0.0,0,0,0.0
2885,0,0.0,0.56,,,,,,,,,,,,,,,,,,
2887,0,0.0,0.56,,,,,,,,,,,,,,,,,,
2889,0,0.0,0.56,,,,,,,,,,,,,,,,,,
2891,0,0.0,0.56,,,,,,,,,,,,,,,,,,
2893,0,0.0,0.56,,0.05,-0.01,1.07,0,-1,1,0.05,,,,,,,,,,
2895,0,0.0,0.57,,,,,,,,,,,,,,,,,,
2897,0,0.0,0.57,,,,,,,,,,,,,,,,,,
2899,0,0.0,0.57,,,,,,,,,,,,,,,,,,
2901,0,0.0,0.57,,,,,,,,,,,,,,,,,,
2903,0,0.0,0.57,,-0.05,0.05,0.97,0,1,0,0.07,60,2100,0,0.0,0.0,0.0,0.0,0,0,0.0
2905,0,0.0,0.57,,,,,,,,,,,,,,,,,,
2907,0,0.0,0.57,,,,,,,,,,,,,,,,,,
2909,0,0.0,0.57,,,,,,,,,,,,,,,,,,
2911,0,0.0,0.57,,,,,,,,,,,,,,,,,,
2913,0,0.0,0.57,,0.03,0.03,1.0,1,-0,1,0.04,,,,,,,,,,
2915,0,0.0,0.57,,,,,,,,,,,,,,,,,,
2917,0,0.0,0.57,,,,,,,,,,,,,,,,,,
2919,0,0.0,0.57,,,,,,,,,,,,,,,,,,
2921,0,0.0,0.57,,,,,,,,,,,,,,,,,,
2923,0,0.0,0.58,,0.14,0.02,0.96,1,0,0,0.15,50,2100,0,0.0,0.0,0.0,0.0,0,0,0.0
2925,0,0.0,0.57,,,,,,,,,,,,,,,,,,
2927,0,0.0,0.57,,,,,,,,,,,,,,,,,,
2929,0,0.0,0.56,,,,,,,,,,,,,,,,,,
2931,0,0.01,0.56,,,,,,,,,,,,,,,,,,
2933,0,0.0,0.56,,-0.12,0.11,1.02,1,0,0,0.16,,,,,,,,,,
2935,0,0.0,0.56,,,,,,,,,,,,,,,,,,
2937,0,0.0,0.57,,,,,,,,,,,,,,,,,,
2939,0,0.0,0.57,,,,,,,,,,,,,,,,,,
2941,0,0.0,0.57,,,,,,,,,,,,,,,,,,
2943,0,0.0,0.57,,-0.02,0.05,0.99,1,-0,1,0.06,50,2100,0,0.0,0.0,0.0,0.0,0,0,0.0
2945,0,0.0,0.57,,,,,,,,,,,,,,,,,,
2947,0,0.0,0.58,,,,,,,,,,,,,,,,,,
2949,0,0.0,0.57,,,,,,,,,,,,,,,,,,
2951,0,0.0,0.59,,,,,,,,,,,,,,,,,,
2953,0,0.0,0.58,,0.03,0.07,1.05,1,1,1,0.08,,,,,,,,,,
2955,0,0.0,0.58,,,,,,,,,,,,,,,,,,
2957,0,0.0,0.58,,,,,,,,,,,,,,,,,,
2959,0,0.0,0.57,,,,,,,,,,,,,,,,,,
2961,0,0.0,0.57,,,,,,,,,,,,,,,,,,
2963,0,0.0,0.57,,-0.38,0.13,1.11,1,1,0,0.4,62,2100,0,0.0,0.0,0.0,0.0,0,0,0.0
2965,0,0.0,0.57,,,,,,,,,,,,,,,,,,
2967,0,0.0,0.57,,,,,,,,,,,,,,,,,,
2969,0,0.0,0.57,,,,,,,,,,,,,,,,,,
2971,0,0.0,0.57,,,,,,,,,,,,,,,,,,
2973,0,0.0,0.57,,-0.06,0.05,1.05,1,1,0,0.08,,,,,,,,,,
2975,0,0.0,0.57,,,,,,,,,,,,,,,,,,
2977,0,0.0,0.57,,,,,,,,,,,,,,,,,,
2979,0,0.0,0.58,,,,,,,,,,,,,,,,,,
2981,0,0.0,0.57,,,,,,,,,,,,,,,,,,
2983,0,0.0,0.57,,-0.07,0.09,0.92,0,2,1,0.11,62,2100,0,0.0,0.0,0.0,0.0,0,0,0.0
2985,0,0.0,0.57,,,,,,,,,,,,,,,,,,
2987,0,0.0,0.58,,,,,,,,,,,,,,,,,,
2989,0,0.0,0.58,,,,,,,,,,,,,,,,,,
2991,0,0.0,0.58,,,,,,,,,,,,,,,,,,
2993,0,0.0,0.58,,-0.25,0.19,0.96,0,1,1,0.32,,,,,,,,,,
2995,0,0.0,0.58,,,,,,,,,,,,,,,,,,
2997,0,0.0,0.58,,,,,,,,,,,,,,,,,,
2999,0,0.0,0.58,,,,,,,,,,,,,,,,,,
3001,0,0.0,0.58,,,,,,,,,,,,,,,,,,
3003,0,0.0,0.58,,0.02,0.09,0.81,0,-0,0,0.09,62,2100,0,0.0,0.0,0.0,0.0,0,0,0.0
3005,0,0.0,0.58,,,,,,,,,,,,,,,,,,
3007,0,0.0,0.59,,,,,,,,,,,,,,,,,,
3009,0,0.0,0.58,,,,,,,,,,,,,,,,,,
3011,0,0.0,0.58,,,,,,,,,,,,,,,,,,
3013,0,0.0,0.58,,0.05,0.18,0.77,-1,0,-0,0.19,,,,,,,,,,
3015,0,0.0,0.58,,,,,,,,,,,,,,,,,,
3017,0,0.0,0.58,,,,,,,,,,,,,,,,,,
3019,0,0.0,0.57,,,,,,,,,,,,,,,,,,
3021,0,0.0,0.57,,,,,,,,,,,,,,,,,,
3023,0,0.0,0.57,,-0.06,0.18,0.95,-0,-1,-0,0.19,50,2100,0,0.0,0.0,0.0,0.0,0,0,0.0
3025,0,0.0,0.57,,,,,,,,,,,,,,,,,,
3027,0,0.0,0.57,,,,,,,,,,,,,,,,,,
3029,0,0.0,0.58,,,,,,,,,,,,,,,,,,
3031,0,0.0,0.58,,,,,,,,,,,,,,,,,,
3033,0,0.0,0.58,,0.13,0.02,0.94,-1,-2,-0,0.13,,,,,,,,,,
3035,0,0.0,0.59,,,,,,,,,,,,,,,,,,
3037,0,0.0,0.58,,,,,,,,,,,,,,,,,,
3039,0,0.0,0.58,,,,,,,,,,,,,,,,,,
3041,0,0.0,0.58,,,,,,,,,,,,,,,,,,
3043,0,0.0,0.58,13.38,-0.15,0.06,1.08,-2,-1,0,0.17,50,2160,0,0.0,0.0,0.0,0.0,0,0,0.0
3045,0,0.0,0.58,,,,,,,,,,,,,,,,,,
3047,0,0.0,0.58,,,,,,,,,,,,,,,,,,
3049,0,0.0,0.58,,,,,,,,,,,,,,,,,,
3051,0,0.0,0.58,,,,,,,,,,,,,,,,,,
3053,0,0.0,0.58,,-0.19,0.09,1.18,-0,-0,-0,0.21,,,,,,,,,,
3055,0,0.0,0.58,,,,,,,,,,,,,,,,,,
3057,0,0.0,0.58,,,,,,,,,,,,,,,,,,
3059,0,0.0,0.58,,,,,,,,,,,,,,,,,,
3061,0,0.0,0.58,,,,,,,,,,,,,,,,,,
3063,0,0.0,0.59,,0.0,0.01,1.14,-1,-0,-1,0.01,58,2100,0,0.0,0.0,0.0,0.0,0,0,0.0
3065,0,0.0,0.58,,,,,,,,,,,,,,,,,,
3067,0,0.0,0.57,,,,,,,,,,,,,,,,,,
3069,0,0.0,0.57,,,,,,,,,,,,,,,,,,
3071,0,0.0,0.57,,,,,,,,,,,,,,,,,,
3073,0,0.0,0.57,,-0.31,0.05,1.02,-0,1,-1,0.32,,,,,,,,,,
3075,0,0.0,0.57,,,,,,,,,,,,,,,,,,
3077,0,0.0,0.57,,,,,,,,,,,,,,,,,,
3079,0,0.0,0.57,,,,,,,,,,,,,,,,,,
3081,0,0.0,0.58,,,,,,,,,,,,,,,,,,
3083,0,0.0,0.58,,-0.05,-0.02,1.04,1,-0,-0,0.06,58,2100,0,0.0,0.0,0.0,0.0,0,0,0.0
3085,0,0.0,0.58,,,,,,,,,,,,,,,,,,
3087,0,0.0,0.58,,,,,,,,,,,,,,,,,,
3089,0,0.0,0.59,,,,,,,,,,,,,,,,,,
3091,0,0.0,0.6,,,,,,,,,,,,,,,,,,
3093,0,0.0,0.59,,0.19,-0.02,0.86,0,0,-0,0.2,,,,,,,,,,
