"Interval"|"ms"|0|0|1,"Utc"|"ms"|0|0|1,"Analog4"|"Volts"|0.0|5.0|500,"Analog5"|"Volts"|0.0|5.0|500,"Battery"|"Volts"|0.0|20.0|1,"AccelX"|"G"|-3.0|3.0|200,"AccelY"|"G"|-3.0|3.0|200,"AccelZ"|"G"|-3.0|3.0|200,"Yaw"|"Deg/Sec"|-120|120|200,"Pitch"|"Deg/Sec"|-120|120|200,"Roll"|"Deg/Sec"|-120|120|200,"Gsum"|"G"|0.0|3.0|200,"RPM2"|"rpm"|0|8000|50,"RPM3"|"rpm"|0|8000|50,"GPIO1"|""|0.0|1.0|50,"Latitude"|"Degrees"|-180.0|180.0|50,"Longitude"|"Degrees"|-180.0|180.0|50,"Speed"|"mph"|0.0|150.0|50,"Altitude"|"ft"|0.0|4000.0|50,"GPSSats"|""|0|20|50,"GPSQual"|""|0|5|50,"GPSDOP"|""|0.0|20.0|50
109,0,0.0,0.25,,,,,,,,,,,,,,,,,,
111,0,0.0,0.25,,,,,,,,,,,,,,,,,,
113,0,0.0,0.25,,-0.11,0.08,0.95,0,-0,-0,0.13,,,,,,,,,,
115,0,0.0,0.25,,,,,,,,,,,,,,,,,,
117,0,0.0,0.25,,,,,,,,,,,,,,,,,,
119,0,0.0,0.25,,,,,,,,,,,,,,,,,,
121,0,0.0,0.25,,,,,,,,,,,,,,,,,,
123,0,0.0,0.25,,-0.13,0.09,0.99,1,-0,-0,0.16,0,2040,0,0.0,0.0,0.0,0.0,0,0,0.0
125,0,0.0,0.25,,,,,,,,,,,,,,,,,,
127,0,0.0,0.25,,,,,,,,,,,,,,,,,,
129,0,0.0,0.25,,,,,,,,,,,,,,,,,,
131,0,0.0,0.25,,,,,,,,,,,,,,,,,,
133,0,0.0,0.25,,0.03,0.07,1.0,0,-0,0,0.07,,,,,,,,,,
135,0,0.0,0.26,,,,,,,,,,,,,,,,,,
137,0,0.0,0.26,,,,,,,,,,,,,,,,,,
139,0,0.0,0.25,,,,,,,,,,,,,,,,,,
141,0,0.0,0.25,,,,,,,,,,,,,,,,,,
143,0,0.0,0.25,,-0.15,0.05,0.93,0,-0,-0,0.16,0,1980,0,0.0,0.0,0.0,0.0,0,0,0.0
145,0,0.0,0.25,,,,,,,,,,,,,,,,,,
147,0,0.0,0.26,,,,,,,,,,,,,,,,,,
149,0,0.0,0.25,,,,,,,,,,,,,,,,,,
151,0,0.0,0.25,,,,,,,,,,,,,,,,,,
153,0,0.0,0.25,,-0.06,0.07,1.04,1,-1,-0,0.09,,,,,,,,,,
155,0,0.0,0.25,,,,,,,,,,,,,,,,,,
157,0,0.0,0.25,,,,,,,,,,,,,,,,,,
159,0,0.0,0.25,,,,,,,,,,,,,,,,,,
161,0,0.0,0.26,,,,,,,,,,,,,,,,,,
163,0,0.0,0.26,,0.04,0.05,0.96,-0,-0,-0,0.06,0,2040,0,0.0,0.0,0.0,0.0,0,0,0.0
165,0,0.0,0.26,,,,,,,,,,,,,,,,,,
167,0,0.0,0.25,,,,,,,,,,,,,,,,,,
169,0,0.0,0.25,,,,,,,,,,,,,,,,,,
171,0,0.0,0.25,,,,,,,,,,,,,,,,,,
173,0,0.0,0.25,,-0.13,0.11,0.93,0,-0,-0,0.17,,,,,,,,,,
175,0,0.0,0.25,,,,,,,,,,,,,,,,,,
177,0,0.0,0.26,,,,,,,,,,,,,,,,,,
179,0,0.0,0.26,,,,,,,,,,,,,,,,,,
181,0,0.0,0.25,,,,,,,,,,,,,,,,,,
183,0,0.0,0.26,,-0.1,0.07,0.93,0,-1,-0,0.12,0,2040,0,0.0,0.0,0.0,0.0,0,0,0.0
185,0,0.0,0.25,,,,,,,,,,,,,,,,,,
187,0,0.0,0.26,,,,,,,,,,,,,,,,,,
189,0,0.0,0.25,,,,,,,,,,,,,,,,,,
191,0,0.0,0.26,,,,,,,,,,,,,,,,,,
193,0,0.0,0.27,,0.02,0.08,1.01,-0,0,-0,0.09,,,,,,,,,,
195,0,0.0,0.26,,,,,,,,,,,,,,,,,,
197,0,0.0,0.26,,,,,,,,,,,,,,,,,,
199,0,0.0,0.25,,,,,,,,,,,,,,,,,,
201,0,0.0,0.25,,,,,,,,,,,,,,,,,,
203,0,0.0,0.26,,-0.24,0.06,0.96,0,-0,-1,0.25,0,2040,0,0.0,0.0,0.0,0.0,0,0,0.0
205,0,0.0,0.26,,,,,,,,,,,,,,,,,,
207,0,0.0,0.25,,,,,,,,,,,,,,,,,,
209,0,0.0,0.26,,,,,,,,,,,,,,,,,,
211,0,0.0,0.26,,,,,,,,,,,,,,,,,,
213,0,0.0,0.26,,-0.04,0.03,1.06,0,-1,-0,0.06,,,,,,,,,,
215,0,0.0,0.26,,,,,,,,,,,,,,,,,,
217,0,0.0,0.26,,,,,,,,,,,,,,,,,,
219,0,0.0,0.26,,,,,,,,,,,,,,,,,,
221,0,0.0,0.27,,,,,,,,,,,,,,,,,,
223,0,0.0,0.26,,0.0,0.06,0.96,-0,1,-0,0.06,0,2040,0,0.0,0.0,0.0,0.0,0,0,0.0
225,0,0.0,0.26,,,,,,,,,,,,,,,,,,
227,0,0.0,0.26,,,,,,,,,,,,,,,,,,
229,0,0.0,0.26,,,,,,,,,,,,,,,,,,
231,0,0.0,0.26,,,,,,,,,,,,,,,,,,
233,0,0.0,0.26,,-0.2,0.11,1.03,0,-1,-0,0.23,,,,,,,,,,
235,0,0.0,0.26,,,,,,,,,,,,,,,,,,
237,0,0.0,0.26,,,,,,,,,,,,,,,,,,
239,0,0.0,0.26,,,,,,,,,,,,,,,,,,
241,0,0.0,0.26,,,,,,,,,,,,,,,,,,
243,0,0.0,0.26,,-0.05,0.04,0.91,0,-1,-0,0.07,0,2040,0,0.0,0.0,0.0,0.0,0,0,0.0
245,0,0.0,0.26,,,,,,,,,,,,,,,,,,
247,0,0.0,0.26,,,,,,,,,,,,,,,,,,
249,0,0.0,0.26,,,,,,,,,,,,,,,,,,
251,0,0.0,0.27,,,,,,,,,,,,,,,,,,
253,0,0.0,0.26,,0.0,0.09,1.0,0,0,-0,0.09,,,,,,,,,,
255,0,0.0,0.26,,,,,,,,,,,,,,,,,,
257,0,0.0,0.26,,,,,,,,,,,,,,,,,,
259,0,0.0,0.26,,,,,,,,,,,,,,,,,,
261,0,0.0,0.26,,,,,,,,,,,,,,,,,,
263,0,0.0,0.26,,-0.25,0.1,1.02,0,-1,-1,0.27,0,2040,0,0.0,0.0,0.0,0.0,0,0,0.0
265,0,0.0,0.26,,,,,,,,,,,,,,,,,,
267,0,0.0,0.26,,,,,,,,,,,,,,,,,,
269,0,0.0,0.26,,,,,,,,,,,,,,,,,,
271,0,0.0,0.26,,,,,,,,,,,,,,,,,,
273,0,0.0,0.26,,0.04,0.03,1.01,0,-1,-0,0.05,,,,,,,,,,
275,0,0.0,0.26,,,,,,,,,,,,,,,,,,
277,0,0.0,0.26,,,,,,,,,,,,,,,,,,
279,0,0.0,0.27,,,,,,,,,,,,,,,,,,
281,0,0.0,0.26,,,,,,,,,,,,,,,,,,
283,0,0.0,0.26,,-0.06,0.07,0.97,-0,1,-0,0.09,0,2040,0,0.0,0.0,0.0,0.0,0,0,0.0
285,0,0.0,0.26,,,,,,,,,,,,,,,,,,
287,0,0.0,0.26,,,,,,,,,,,,,,,,,,
289,0,0.0,0.26,,,,,,,,,,,,,,,,,,
291,0,0.0,0.26,,,,,,,,,,,,,,,,,,
293,0,0.0,0.26,,-0.21,0.09,1.08,0,-1,-1,0.23,,,,,,,,,,
295,0,0.0,0.26,,,,,,,,,,,,,,,,,,
297,0,0.0,0.26,,,,,,,,,,,,,,,,,,
299,0,0.0,0.26,,,,,,,,,,,,,,,,,,
301,0,0.0,0.27,,,,,,,,,,,,,,,,,,
303,0,0.0,0.27,,-0.0,0.05,0.94,0,-1,0,0.05,0,2040,0,0.0,0.0,0.0,0.0,0,0,0.0
305,0,0.0,0.26,,,,,,,,,,,,,,,,,,
307,0,0.0,0.26,,,,,,,,,,,,,,,,,,
309,0,0.0,0.28,,,,,,,,,,,,,,,,,,
311,0,0.0,0.27,,,,,,,,,,,,,,,,,,
313,0,0.0,0.27,,-0.02,0.08,0.97,0,0,-0,0.08,,,,,,,,,,
315,0,0.0,0.26,,,,,,,,,,,,,,,,,,
317,0,0.0,0.27,,,,,,,,,,,,,,,,,,
319,0,0.0,0.26,,,,,,,,,,,,,,,,,,
321,0,0.0,0.26,,,,,,,,,,,,,,,,,,
323,0,0.01,0.26,,-0.15,0.09,1.05,0,-0,-1,0.17,0,2040,0,0.0,0.0,0.0,0.0,0,0,0.0
325,0,0.0,0.27,,,,,,,,,,,,,,,,,,
327,0,0.0,0.26,,,,,,,,,,,,,,,,,,
329,0,0.0,0.27,,,,,,,,,,,,,,,,,,
331,0,0.0,0.27,,,,,,,,,,,,,,,,,,
333,0,0.0,0.27,,0.02,0.06,1.01,0,-0,-0,0.06,,,,,,,,,,
335,0,0.0,0.27,,,,,,,,,,,,,,,,,,
337,0,0.0,0.28,,,,,,,,,,,,,,,,,,
339,0,0.0,0.27,,,,,,,,,,,,,,,,,,
341,0,0.0,0.27,,,,,,,,,,,,,,,,,,
343,0,0.0,0.27,,-0.11,0.04,0.97,-0,0,-0,0.11,0,2040,0,0.0,0.0,0.0,0.0,0,0,0.0
345,0,0.0,0.27,,,,,,,,,,,,,,,,,,
347,0,0.0,0.27,,,,,,,,,,,,,,,,,,
349,0,0.0,0.27,,,,,,,,,,,,,,,,,,
351,0,0.0,0.27,,,,,,,,,,,,,,,,,,
353,0,0.0,0.26,,-0.17,0.08,1.07,0,-0,-0,0.19,,,,,,,,,,
355,0,0.0,0.27,,,,,,,,,,,,,,,,,,
357,0,0.0,0.27,,,,,,,,,,,,,,,,,,
359,0,0.0,0.27,,,,,,,,,,,,,,,,,,
361,0,0.0,0.27,,,,,,,,,,,,,,,,,,
363,0,0.0,0.27,,0.01,0.06,0.98,0,-1,-0,0.06,0,2040,0,0.0,0.0,0.0,0.0,0,0,0.0
365,0,0.0,0.27,,,,,,,,,,,,,,,,,,
367,0,0.0,0.28,,,,,,,,,,,,,,,,,,
369,0,0.0,0.27,,,,,,,,,,,,,,,,,,
371,0,0.0,0.27,,,,,,,,,,,,,,,,,,
373,0,0.0,0.27,,-0.05,0.05,0.93,0,-0,-0,0.07,,,,,,,,,,
375,0,0.0,0.27,,,,,,,,,,,,,,,,,,
377,0,0.0,0.27,,,,,,,,,,,,,,,,,,
379,0,0.0,0.27,,,,,,,,,,,,,,,,,,
381,0,0.0,0.27,,,,,,,,,,,,,,,,,,
383,0,0.0,0.27,,-0.1,0.08,1.04,1,0,-0,0.13,0,2040,0,0.0,0.0,0.0,0.0,0,0,0.0
385,0,0.0,0.27,,,,,,,,,,,,,,,,,,
387,0,0.0,0.27,,,,,,,,,,,,,,,,,,
389,0,0.0,0.27,,,,,,,,,,,,,,,,,,
391,0,0.0,0.27,,,,,,,,,,,,,,,,,,
393,0,0.0,0.27,,0.01,0.05,1.0,0,-1,-0,0.05,,,,,,,,,,
395,0,0.0,0.27,,,,,,,,,,,,,,,,,,
397,0,0.0,0.27,,,,,,,,,,,,,,,,,,
399,0,0.0,0.27,,,,,,,,,,,,,,,,,,
401,0,0.0,0.27,,,,,,,,,,,,,,,,,,
403,0,0.0,0.27,,-0.12,0.05,0.94,-0,0,-0,0.13,0,2040,0,0.0,0.0,0.0,0.0,0,0,0.0
405,0,0.0,0.27,,,,,,,,,,,,,,,,,,
407,0,0.0,0.27,,,,,,,,,,,,,,,,,,
409,0,0.0,0.27,,,,,,,,,,,,,,,,,,
411,0,0.0,0.27,,,,,,,,,,,,,,,,,,
413,0,0.0,0.27,,-0.14,0.09,1.02,0,0,-0,0.16,,,,,,,,,,
415,0,0.0,0.27,,,,,,,,,,,,,,,,,,
417,0,0.0,0.27,,,,,,,,,,,,,,,,,,
419,0,0.0,0.27,,,,,,,,,,,,,,,,,,
421,0,0.0,0.27,,,,,,,,,,,,,,,,,,
423,0,0.0,0.27,,0.02,0.06,1.01,0,-0,-0,0.07,0,2040,0,0.0,0.0,0.0,0.0,0,0,0.0
425,0,0.0,0.28,,,,,,,,,,,,,,,,,,
427,0,0.0,0.27,,,,,,,,,,,,,,,,,,
429,0,0.0,0.27,,,,,,,,,,,,,,,,,,
431,0,0.0,0.27,,,,,,,,,,,,,,,,,,
433,0,0.0,0.27,,-0.12,0.04,0.94,0,-0,-0,0.13,,,,,,,,,,
435,0,0.0,0.27,,,,,,,,,,,,,,,,,,
437,0,0.0,0.27,,,,,,,,,,,,,,,,,,
439,0,0.0,0.28,,,,,,,,,,,,,,,,,,
441,0,0.0,0.27,,,,,,,,,,,,,,,,,,
443,0,0.0,0.27,,-0.07,0.07,1.02,1,-0,-0,0.1,0,1980,0,0.0,0.0,0.0,0.0,0,0,0.0
445,0,0.0,0.27,,,,,,,,,,,,,,,,,,
447,0,0.0,0.28,,,,,,,,,,,,,,,,,,
449,0,0.0,0.27,,,,,,,,,,,,,,,,,,
451,0,0.0,0.28,,,,,,,,,,,,,,,,,,
453,0,0.0,0.28,,0.02,0.06,0.98,-0,-0,-0,0.06,,,,,,,,,,
455,0,0.0,0.29,,,,,,,,,,,,,,,,,,
457,0,0.0,0.28,,,,,,,,,,,,,,,,,,
459,0,0.0,0.28,,,,,,,,,,,,,,,,,,
461,0,0.0,0.28,,,,,,,,,,,,,,,,,,
463,0,0.0,0.27,,-0.12,0.09,0.93,0,-0,-0,0.15,0,2040,0,0.0,0.0,0.0,0.0,0,0,0.0
465,0,0.0,0.27,,,,,,,,,,,,,,,,,,
467,0,0.0,0.28,,,,,,,,,,,,,,,,,,
469,0,0.0,0.27,,,,,,,,,,,,,,,,,,
471,0,0.0,0.28,,,,,,,,,,,,,,,,,,
473,0,0.0,0.28,,-0.1,0.07,0.95,0,-1,-0,0.13,,,,,,,,,,
475,0,0.0,0.28,,,,,,,,,,,,,,,,,,
477,0,0.0,0.27,,,,,,,,,,,,,,,,,,
479,0,0.0,0.28,,,,,,,,,,,,,,,,,,
481,0,0.0,0.28,,,,,,,,,,,,,,,,,,
483,0,0.0,0.29,,0.02,0.09,1.03,-0,-0,-0,0.09,0,2040,0,0.0,0.0,0.0,0.0,0,0,0.0
485,0,0.0,0.28,,,,,,,,,,,,,,,,,,
487,0,0.0,0.28,,,,,,,,,,,,,,,,,,
489,0,0.0,0.28,,,,,,,,,,,,,,,,,,
491,0,0.0,0.28,,,,,,,,,,,,,,,,,,
493,0,0.0,0.28,,-0.21,0.05,0.94,0,-0,-1,0.22,,,,,,,,,,
495,0,0.0,0.28,,,,,,,,,,,,,,,,,,
497,0,0.0,0.28,,,,,,,,,,,,,,,,,,
499,0,0.0,0.28,,,,,,,,,,,,,,,,,,
501,0,0.0,0.28,,,,,,,,,,,,,,,,,,
503,0,0.0,0.28,,-0.05,0.04,1.05,0,-1,-0,0.06,0,2040,0,0.0,0.0,0.0,0.0,0,0,0.0
505,0,0.0,0.28,,,,,,,,,,,,,,,,,,
507,0,0.0,0.28,,,,,,,,,,,,,,,,,,
509,0,0.0,0.28,,,,,,,,,,,,,,,,,,
511,0,0.0,0.28,,,,,,,,,,,,,,,,,,
513,0,0.0,0.29,,0.02,0.06,0.96,-0,0,0,0.07,,,,,,,,,,
515,0,0.0,0.28,,,,,,,,,,,,,,,,,,
517,0,0.0,0.28,,,,,,,,,,,,,,,,,,
519,0,0.0,0.28,,,,,,,,,,,,,,,,,,
521,0,0.0,0.28,,,,,,,,,,,,,,,,,,
523,0,0.0,0.28,,-0.17,0.11,0.99,0,-0,-0,0.2,0,2040,0,0.0,0.0,0.0,0.0,0,0,0.0
525,0,0.0,0.28,,,,,,,,,,,,,,,,,,
527,0,0.0,0.28,,,,,,,,,,,,,,,,,,
529,0,0.0,0.28,,,,,,,,,,,,,,,,,,
531,0,0.0,0.28,,,,,,,,,,,,,,,,,,
533,0,0.0,0.28,,-0.07,0.06,0.94,0,-1,-0,0.09,,,,,,,,,,
535,0,0.0,0.28,,,,,,,,,,,,,,,,,,
537,0,0.0,0.28,,,,,,,,,,,,,,,,,,
539,0,0.0,0.28,,,,,,,,,,,,,,,,,,
541,0,0.0,0.29,,,,,,,,,,,,,,,,,,
543,0,0.0,0.28,,0.01,0.09,1.01,0,0,-0,0.09,0,1980,0,0.0,0.0,0.0,0.0,0,0,0.0
545,0,0.0,0.28,,,,,,,,,,,,,,,,,,
547,0,0.0,0.28,,,,,,,,,,,,,,,,,,
549,0,0.0,0.28,,,,,,,,,,,,,,,,,,
551,0,0.0,0.28,,,,,,,,,,,,,,,,,,
553,0,0.0,0.28,,-0.26,0.08,1.01,0,-0,-1,0.27,,,,,,,,,,
555,0,0.0,0.28,,,,,,,,,,,,,,,,,,
557,0,0.0,0.28,,,,,,,,,,,,,,,,,,
559,0,0.0,0.28,,,,,,,,,,,,,,,,,,
561,0,0.0,0.28,,,,,,,,,,,,,,,,,,
563,0,0.0,0.28,,0.01,0.04,1.04,0,-1,-0,0.04,0,1980,0,0.0,0.0,0.0,0.0,0,0,0.0
565,0,0.0,0.28,,,,,,,,,,,,,,,,,,
567,0,0.0,0.28,,,,,,,,,,,,,,,,,,
569,0,0.0,0.28,,,,,,,,,,,,,,,,,,
571,0,0.0,0.3,,,,,,,,,,,,,,,,,,
573,0,0.0,0.29,,-0.02,0.07,0.97,0,1,-0,0.07,,,,,,,,,,
575,0,0.0,0.29,,,,,,,,,,,,,,,,,,
577,0,0.0,0.29,,,,,,,,,,,,,,,,,,
579,0,0.0,0.28,,,,,,,,,,,,,,,,,,
581,0,0.0,0.29,,,,,,,,,,,,,,,,,,
583,0,0.0,0.28,,-0.21,0.09,1.06,0,-1,-0,0.23,0,2040,0,0.0,0.0,0.0,0.0,0,0,0.0
585,0,0.0,0.29,,,,,,,,,,,,,,,,,,
587,0,0.0,0.28,,,,,,,,,,,,,,,,,,
589,0,0.0,0.29,,,,,,,,,,,,,,,,,,
591,0,0.0,0.29,,,,,,,,,,,,,,,,,,
593,0,0.0,0.29,,-0.03,0.03,0.91,0,-1,-0,0.04,,,,,,,,,,
595,0,0.0,0.29,,,,,,,,,,,,,,,,,,
597,0,0.0,0.29,,,,,,,,,,,,,,,,,,
599,0,0.0,0.29,,,,,,,,,,,,,,,,,,
601,0,0.0,0.3,,,,,,,,,,,,,,,,,,
603,0,0.0,0.29,,-0.01,0.08,0.99,0,-0,-0,0.08,0,1980,0,0.0,0.0,0.0,0.0,0,0,0.0
605,0,0.0,0.29,,,,,,,,,,,,,,,,,,
607,0,0.0,0.29,,,,,,,,,,,,,,,,,,
609,0,0.0,0.29,,,,,,,,,,,,,,,,,,
611,0,0.0,0.29,,,,,,,,,,,,,,,,,,
613,0,0.0,0.29,,-0.21,0.11,1.04,0,-0,-1,0.23,,,,,,,,,,
615,0,0.0,0.28,,,,,,,,,,,,,,,,,,
617,0,0.0,0.29,,,,,,,,,,,,,,,,,,
619,0,0.0,0.29,,,,,,,,,,,,,,,,,,
621,0,0.0,0.29,,,,,,,,,,,,,,,,,,
623,0,0.0,0.29,,0.06,0.04,1.01,0,-1,-0,0.07,0,1980,0,0.0,0.0,0.0,0.0,0,0,0.0
625,0,0.0,0.29,,,,,,,,,,,,,,,,,,
627,0,0.0,0.29,,,,,,,,,,,,,,,,,,
629,0,0.0,0.3,,,,,,,,,,,,,,,,,,
631,0,0.0,0.29,,,,,,,,,,,,,,,,,,
633,0,0.0,0.29,,-0.11,0.04,1.03,-0,1,-0,0.12,,,,,,,,,,
635,0,0.0,0.29,,,,,,,,,,,,,,,,,,
637,0,0.0,0.29,,,,,,,,,,,,,,,,,,
639,0,0.0,0.29,,,,,,,,,,,,,,,,,,
641,0,0.0,0.29,,,,,,,,,,,,,,,,,,
643,0,0.0,0.29,,-0.22,0.05,1.14,0,-0,-1,0.23,0,2040,0,0.0,0.0,0.0,0.0,0,0,0.0
645,0,0.0,0.29,,,,,,,,,,,,,,,,,,
647,0,0.0,0.29,,,,,,,,,,,,,,,,,,
649,0,0.0,0.29,,,,,,,,,,,,,,,,,,
651,0,0.0,0.29,,,,,,,,,,,,,,,,,,
653,0,0.0,0.29,,0.0,0.02,1.0,0,-1,-0,0.02,,,,,,,,,,
655,0,0.0,0.29,,,,,,,,,,,,,,,,,,
657,0,0.0,0.29,,,,,,,,,,,,,,,,,,
659,0,0.0,0.3,,,,,,,,,,,,,,,,,,
661,0,0.0,0.29,,,,,,,,,,,,,,,,,,
663,0,0.0,0.29,,-0.03,0.04,0.97,0,-0,-0,0.05,0,2040,0,0.0,0.0,0.0,0.0,0,0,0.0
665,0,0.0,0.29,,,,,,,,,,,,,,,,,,
667,0,0.0,0.29,,,,,,,,,,,,,,,,,,
669,0,0.0,0.29,,,,,,,,,,,,,,,,,,
671,0,0.0,0.29,,,,,,,,,,,,,,,,,,
673,0,0.0,0.29,,-0.11,0.08,1.06,0,0,-0,0.14,,,,,,,,,,
675,0,0.0,0.29,,,,,,,,,,,,,,,,,,
677,0,0.0,0.29,,,,,,,,,,,,,,,,,,
679,0,0.0,0.29,,,,,,,,,,,,,,,,,,
681,0,0.0,0.29,,,,,,,,,,,,,,,,,,
683,0,0.0,0.29,,0.04,0.05,1.01,0,-1,-0,0.06,0,2040,0,0.0,0.0,0.0,0.0,0,0,0.0
685,0,0.0,0.3,,,,,,,,,,,,,,,,,,
687,0,0.0,0.3,,,,,,,,,,,,,,,,,,
689,0,0.0,0.3,,,,,,,,,,,,,,,,,,
691,0,0.0,0.29,,,,,,,,,,,,,,,,,,
693,0,0.0,0.29,,-0.09,0.06,0.95,-0,0,-1,0.11,,,,,,,,,,
695,0,0.0,0.29,,,,,,,,,,,,,,,,,,
697,0,0.0,0.29,,,,,,,,,,,,,,,,,,
699,0,0.0,0.29,,,,,,,,,,,,,,,,,,
701,0,0.0,0.29,,,,,,,,,,,,,,,,,,
703,0,0.0,0.29,,-0.14,0.09,1.04,0,0,-1,0.17,0,2040,0,0.0,0.0,0.0,0.0,0,0,0.0
705,0,0.0,0.29,,,,,,,,,,,,,,,,,,
707,0,0.0,0.29,,,,,,,,,,,,,,,,,,
709,0,0.0,0.29,,,,,,,,,,,,,,,,,,
711,0,0.0,0.3,,,,,,,,,,,,,,,,,,
713,0,0.0,0.29,,0.02,0.07,1.02,-0,-1,-0,0.07,,,,,,,,,,
715,0,0.0,0.3,,,,,,,,,,,,,,,,,,
717,0,0.0,0.31,,,,,,,,,,,,,,,,,,
719,0,0.0,0.29,,,,,,,,,,,,,,,,,,
721,0,0.0,0.29,,,,,,,,,,,,,,,,,,
723,0,0.0,0.3,,-0.09,0.04,0.94,0,-0,-1,0.1,0,2040,0,0.0,0.0,0.0,0.0,0,0,0.0
725,0,0.0,0.29,,,,,,,,,,,,,,,,,,
727,0,0.0,0.29,,,,,,,,,,,,,,,,,,
729,0,0.0,0.3,,,,,,,,,,,,,,,,,,
731,0,0.0,0.3,,,,,,,,,,,,,,,,,,
733,0,0.0,0.3,,-0.08,0.08,1.03,0,0,-0,0.11,,,,,,,,,,
735,0,0.0,0.3,,,,,,,,,,,,,,,,,,
737,0,0.0,0.3,,,,,,,,,,,,,,,,,,
739,0,0.0,0.3,,,,,,,,,,,,,,,,,,
741,0,0.0,0.3,,,,,,,,,,,,,,,,,,
743,0,0.0,0.3,,0.01,0.05,1.0,-0,-1,-0,0.05,0,2040,0,0.0,0.0,0.0,0.0,0,0,0.0
745,0,0.0,0.31,,,,,,,,,,,,,,,,,,
747,0,0.0,0.3,,,,,,,,,,,,,,,,,,
749,0,0.0,0.3,,,,,,,,,,,,,,,,,,
751,0,0.0,0.3,,,,,,,,,,,,,,,,,,
753,0,0.0,0.3,,-0.12,0.07,0.94,-0,0,-1,0.14,,,,,,,,,,
755,0,0.0,0.3,,,,,,,,,,,,,,,,,,
757,0,0.0,0.3,,,,,,,,,,,,,,,,,,
759,0,0.0,0.3,,,,,,,,,,,,,,,,,,
761,0,0.0,0.3,,,,,,,,,,,,,,,,,,
763,0,0.0,0.3,,-0.13,0.07,0.98,0,0,-0,0.14,0,2040,0,0.0,0.0,0.0,0.0,0,0,0.0
765,0,0.0,0.3,,,,,,,,,,,,,,,,,,
767,0,0.0,0.3,,,,,,,,,,,,,,,,,,
769,0,0.0,0.3,,,,,,,,,,,,,,,,,,
771,0,0.0,0.3,,,,,,,,,,,,,,,,,,
773,0,0.0,0.3,,0.01,0.07,1.0,-0,-0,-0,0.08,,,,,,,,,,
775,0,0.0,0.31,,,,,,,,,,,,,,,,,,
777,0,0.0,0.3,,,,,,,,,,,,,,,,,,
779,0,0.0,0.3,,,,,,,,,,,,,,,,,,
781,0,0.0,0.3,,,,,,,,,,,,,,,,,,
783,0,0.0,0.3,,-0.19,0.04,0.92,-0,-0,-1,0.2,0,1980,0,0.0,0.0,0.0,0.0,0,0,0.0
785,0,0.0,0.3,,,,,,,,,,,,,,,,,,
787,0,0.0,0.3,,,,,,,,,,,,,,,,,,
789,0,0.0,0.3,,,,,,,,,,,,,,,,,,
791,0,0.0,0.3,,,,,,,,,,,,,,,,,,
793,0,0.0,0.3,,-0.07,0.05,1.04,0,-1,-0,0.08,,,,,,,,,,
795,0,0.0,0.3,,,,,,,,,,,,,,,,,,
797,0,0.0,0.3,,,,,,,,,,,,,,,,,,
799,0,0.0,0.3,,,,,,,,,,,,,,,,,,
801,0,0.0,0.3,,,,,,,,,,,,,,,,,,
803,0,0.0,0.31,,0.02,0.06,0.95,-0,-0,-0,0.06,0,2040,0,0.0,0.0,0.0,0.0,0,0,0.0
805,0,0.0,0.3,,,,,,,,,,,,,,,,,,
807,0,0.0,0.3,,,,,,,,,,,,,,,,,,
809,0,0.0,0.3,,,,,,,,,,,,,,,,,,
811,0,0.0,0.3,,,,,,,,,,,,,,,,,,
813,0,0.0,0.3,,-0.16,0.11,0.97,0,-0,-0,0.19,,,,,,,,,,
815,0,0.0,0.3,,,,,,,,,,,,,,,,,,
817,0,0.0,0.3,,,,,,,,,,,,,,,,,,
819,0,0.0,0.3,,,,,,,,,,,,,,,,,,
821,0,0.0,0.3,,,,,,,,,,,,,,,,,,
823,0,0.0,0.3,,-0.09,0.06,0.92,0,-1,-0,0.1,0,2040,0,0.0,0.0,0.0,0.0,0,0,0.0
825,0,0.0,0.3,,,,,,,,,,,,,,,,,,
827,0,0.0,0.3,,,,,,,,,,,,,,,,,,
829,0,0.0,0.3,,,,,,,,,,,,,,,,,,
831,0,0.0,0.3,,,,,,,,,,,,,,,,,,
833,0,0.0,0.32,,0.01,0.09,1.01,-0,-0,-0,0.09,,,,,,,,,,
835,0,0.0,0.31,,,,,,,,,,,,,,,,,,
837,0,0.0,0.31,,,,,,,,,,,,,,,,,,
839,0,0.0,0.31,,,,,,,,,,,,,,,,,,
841,0,0.0,0.31,,,,,,,,,,,,,,,,,,
843,0,0.0,0.3,,-0.26,0.06,0.96,0,-0,-0,0.27,0,1980,0,0.0,0.0,0.0,0.0,0,0,0.0
845,0,0.0,0.31,,,,,,,,,,,,,,,,,,
847,0,0.0,0.3,,,,,,,,,,,,,,,,,,
849,0,0.0,0.3,,,,,,,,,,,,,,,,,,
851,0,0.0,0.31,,,,,,,,,,,,,,,,,,
853,0,0.0,0.31,,-0.03,0.04,1.06,0,-1,-0,0.05,,,,,,,,,,
855,0,0.0,0.31,,,,,,,,,,,,,,,,,,
857,0,0.0,0.31,,,,,,,,,,,,,,,,,,
859,0,0.0,0.31,,,,,,,,,,,,,,,,,,
861,0,0.0,0.31,,,,,,,,,,,,,,,,,,
863,0,0.0,0.32,,-0.01,0.06,0.97,-0,0,0,0.07,0,2040,0,0.0,0.0,0.0,0.0,0,0,0.0
865,0,0.0,0.31,,,,,,,,,,,,,,,,,,
867,0,0.0,0.31,,,,,,,,,,,,,,,,,,
869,0,0.0,0.31,,,,,,,,,,,,,,,,,,
871,0,0.0,0.31,,,,,,,,,,,,,,,,,,
873,0,0.0,0.31,,-0.2,0.1,1.03,0,-1,-0,0.22,,,,,,,,,,
875,0,0.0,0.31,,,,,,,,,,,,,,,,,,
877,0,0.0,0.31,,,,,,,,,,,,,,,,,,
879,0,0.0,0.31,,,,,,,,,,,,,,,,,,
881,0,0.0,0.31,,,,,,,,,,,,,,,,,,
883,0,0.0,0.31,,-0.04,0.05,0.91,0,-1,-0,0.06,0,2040,0,0.0,0.0,0.0,0.0,0,0,0.0
885,0,0.0,0.31,,,,,,,,,,,,,,,,,,
887,0,0.0,0.31,,,,,,,,,,,,,,,,,,
889,0,0.0,0.31,,,,,,,,,,,,,,,,,,
891,0,0.0,0.32,,,,,,,,,,,,,,,,,,
893,0,0.0,0.31,,0.0,0.09,1.0,0,0,-0,0.09,,,,,,,,,,
895,0,0.0,0.31,,,,,,,,,,,,,,,,,,
897,0,0.0,0.31,,,,,,,,,,,,,,,,,,
899,0,0.0,0.31,,,,,,,,,,,,,,,,,,
901,0,0.0,0.31,,,,,,,,,,,,,,,,,,
903,0,0.0,0.31,,-0.25,0.1,1.03,0,-0,-0,0.26,0,1980,0,0.0,0.0,0.0,0.0,0,0,0.0
905,0,0.0,0.31,,,,,,,,,,,,,,,,,,
907,0,0.0,0.31,,,,,,,,,,,,,,,,,,
909,0,0.0,0.31,,,,,,,,,,,,,,,,,,
911,0,0.0,0.31,,,,,,,,,,,,,,,,,,
913,0,0.0,0.31,,0.05,0.04,1.02,0,-1,-0,0.06,,,,,,,,,,
915,0,0.0,0.31,,,,,,,,,,,,,,,,,,
917,0,0.0,0.31,,,,,,,,,,,,,,,,,,
919,0,0.0,0.31,,,,,,,,,,,,,,,,,,
921,0,0.0,0.32,,,,,,,,,,,,,,,,,,
923,0,0.0,0.31,,-0.04,0.07,0.97,-0,1,-0,0.08,0,2040,0,0.0,0.0,0.0,0.0,0,0,0.0
925,0,0.0,0.31,,,,,,,,,,,,,,,,,,
927,0,0.0,0.31,,,,,,,,,,,,,,,,,,
929,0,0.0,0.31,,,,,,,,,,,,,,,,,,
931,0,0.0,0.31,,,,,,,,,,,,,,,,,,
933,0,0.0,0.31,,-0.2,0.1,1.06,0,-1,-1,0.22,,,,,,,,,,
935,0,0.0,0.31,,,,,,,,,,,,,,,,,,
937,0,0.0,0.31,,,,,,,,,,,,,,,,,,
939,0,0.0,0.31,,,,,,,,,,,,,,,,,,
941,0,0.0,0.31,,,,,,,,,,,,,,,,,,
943,0,0.0,0.31,,0.01,0.05,0.93,0,-1,-0,0.05,0,2040,0,0.0,0.0,0.0,0.0,0,0,0.0
945,0,0.0,0.31,,,,,,,,,,,,,,,,,,
947,0,0.0,0.31,,,,,,,,,,,,,,,,,,
949,0,0.0,0.32,,,,,,,,,,,,,,,,,,
951,0,0.0,0.33,,,,,,,,,,,,,,,,,,
953,0,0.0,0.32,,-0.01,0.08,0.98,0,-0,-0,0.08,,,,,,,,,,
955,0,0.0,0.31,,,,,,,,,,,,,,,,,,
957,0,0.0,0.31,,,,,,,,,,,,,,,,,,
959,0,0.0,0.31,,,,,,,,,,,,,,,,,,
961,0,0.0,0.31,,,,,,,,,,,,,,,,,,
963,0,0.0,0.31,,-0.17,0.09,1.07,0,-1,-1,0.19,0,1980,0,0.0,0.0,0.0,0.0,0,0,0.0
965,0,0.0,0.32,,,,,,,,,,,,,,,,,,
967,0,0.0,0.31,,,,,,,,,,,,,,,,,,
969,0,0.0,0.31,,,,,,,,,,,,,,,,,,
971,0,0.0,0.31,,,,,,,,,,,,,,,,,,
973,0,0.0,0.32,,0.05,0.06,0.99,0,-1,-0,0.07,,,,,,,,,,
975,0,0.0,0.32,,,,,,,,,,,,,,,,,,
977,0,0.0,0.32,,,,,,,,,,,,,,,,,,
979,0,0.0,0.33,,,,,,,,,,,,,,,,,,
981,0,0.0,0.32,,,,,,,,,,,,,,,,,,
983,0,0.0,0.32,,-0.11,0.05,1.01,0,1,-1,0.12,0,2040,0,0.0,0.0,0.0,0.0,0,0,0.0
985,0,0.0,0.32,,,,,,,,,,,,,,,,,,
987,0,0.0,0.32,,,,,,,,,,,,,,,,,,
989,0,0.0,0.32,,,,,,,,,,,,,,,,,,
991,0,0.0,0.32,,,,,,,,,,,,,,,,,,
993,0,0.0,0.32,,-0.19,0.08,1.09,0,-0,-1,0.2,,,,,,,,,,
995,0,0.0,0.32,,,,,,,,,,,,,,,,,,
997,0,0.0,0.32,,,,,,,,,,,,,,,,,,
999,0,0.0,0.32,,,,,,,,,,,,,,,,,,
1001,0,0.0,0.32,,,,,,,,,,,,,,,,,,
1003,0,0.0,0.32,,0.02,0.05,0.98,0,-1,-0,0.05,0,2040,0,0.0,0.0,0.0,0.0,0,0,0.0
1005,0,0.0,0.32,,,,,,,,,,,,,,,,,,
1007,0,0.0,0.32,,,,,,,,,,,,,,,,,,
1009,0,0.0,0.33,,,,,,,,,,,,,,,,,,
1011,0,0.0,0.32,,,,,,,,,,,,,,,,,,
1013,0,0.0,0.32,,-0.04,0.05,0.95,0,0,-0,0.07,,,,,,,,,,
1015,0,0.0,0.32,,,,,,,,,,,,,,,,,,
1017,0,0.0,0.32,,,,,,,,,,,,,,,,,,
1019,0,0.0,0.32,,,,,,,,,,,,,,,,,,
1021,0,0.0,0.32,,,,,,,,,,,,,,,,,,
1023,0,0.0,0.32,,-0.13,0.08,1.04,1,0,-0,0.15,0,2040,0,0.0,0.0,0.0,0.0,0,0,0.0
1025,0,0.0,0.32,,,,,,,,,,,,,,,,,,
1027,0,0.0,0.32,,,,,,,,,,,,,,,,,,
1029,0,0.0,0.32,,,,,,,,,,,,,,,,,,
1031,0,0.0,0.32,,,,,,,,,,,,,,,,,,
1033,0,0.0,0.32,,0.02,0.06,1.01,0,-1,-0,0.06,,,,,,,,,,
1035,0,0.0,0.32,,,,,,,,,,,,,,,,,,
1037,0,0.0,0.33,,,,,,,,,,,,,,,,,,
1039,0,0.0,0.32,,,,,,,,,,,,,,,,,,
1041,0,0.0,0.33,,,,,,,,,,,,,,,,,,
1043,0,0.0,0.32,13.33,-0.1,0.05,0.94,-0,0,-1,0.12,0,2040,0,0.0,0.0,0.0,0.0,0,0,0.0
1045,0,0.0,0.32,,,,,,,,,,,,,,,,,,
1047,0,0.0,0.32,,,,,,,,,,,,,,,,,,
1049,0,0.0,0.32,,,,,,,,,,,,,,,,,,
1051,0,0.0,0.32,,,,,,,,,,,,,,,,,,
1053,0,0.0,0.32,,-0.15,0.07,1.03,0,-0,-0,0.17,,,,,,,,,,
1055,0,0.0,0.32,,,,,,,,,,,,,,,,,,
1057,0,0.0,0.32,,,,,,,,,,,,,,,,,,
1059,0,0.0,0.32,,,,,,,,,,,,,,,,,,
1061,0,0.0,0.32,,,,,,,,,,,,,,,,,,
1063,0,0.0,0.32,,0.01,0.06,1.01,-0,-1,-0,0.06,0,2040,0,0.0,0.0,0.0,0.0,0,0,0.0
1065,0,0.0,0.33,,,,,,,,,,,,,,,,,,
1067,0,0.0,0.34,,,,,,,,,,,,,,,,,,
1069,0,0.0,0.32,,,,,,,,,,,,,,,,,,
1071,0,0.0,0.32,,,,,,,,,,,,,,,,,,
1073,0,0.0,0.32,,-0.1,0.04,0.94,0,-0,-1,0.11,,,,,,,,,,
1075,0,0.0,0.33,,,,,,,,,,,,,,,,,,
1077,0,0.0,0.32,,,,,,,,,,,,,,,,,,
1079,0,0.0,0.32,,,,,,,,,,,,,,,,,,
1081,0,0.0,0.32,,,,,,,,,,,,,,,,,,
1083,0,0.0,0.32,,-0.08,0.08,1.02,1,0,-0,0.11,0,2040,0,0.0,0.0,0.0,0.0,0,0,0.0
1085,0,0.0,0.33,,,,,,,,,,,,,,,,,,
1087,0,0.0,0.33,,,,,,,,,,,,,,,,,,
1089,0,0.0,0.33,,,,,,,,,,,,,,,,,,
1091,0,0.0,0.33,,,,,,,,,,,,,,,,,,
1093,0,0.0,0.33,,0.02,0.06,1.0,-0,-1,-0,0.06,,,,,,,,,,
1095,0,0.0,0.34,,,,,,,,,,,,,,,,,,
1097,0,0.0,0.33,,,,,,,,,,,,,,,,,,
1099,0,0.0,0.33,,,,,,,,,,,,,,,,,,
1101,0,0.0,0.33,,,,,,,,,,,,,,,,,,
1103,0,0.0,0.33,,-0.11,0.08,0.93,0,-0,-0,0.14,0,2040,0,0.0,0.0,0.0,0.0,0,0,0.0
1105,0,0.0,0.32,,,,,,,,,,,,,,,,,,
1107,0,0.0,0.33,,,,,,,,,,,,,,,,,,
1109,0,0.0,0.33,,,,,,,,,,,,,,,,,,
1111,0,0.0,0.33,,,,,,,,,,,,,,,,,,
1113,0,0.0,0.33,,-0.11,0.07,0.96,0,-0,-0,0.14,,,,,,,,,,
1115,0,0.0,0.33,,,,,,,,,,,,,,,,,,
1117,0,0.0,0.33,,,,,,,,,,,,,,,,,,
1119,0,0.0,0.33,,,,,,,,,,,,,,,,,,
1121,0,0.0,0.33,,,,,,,,,,,,,,,,,,
1123,0,0.0,0.33,,0.02,0.09,1.01,-0,-0,-0,0.09,0,2040,0,0.0,0.0,0.0,0.0,0,0,0.0
1125,0,0.0,0.34,,,,,,,,,,,,,,,,,,
1127,0,0.0,0.33,,,,,,,,,,,,,,,,,,
1129,0,0.0,0.33,,,,,,,,,,,,,,,,,,
1131,0,0.0,0.33,,,,,,,,,,,,,,,,,,
1133,0,0.0,0.33,,-0.2,0.06,0.92,0,-0,-1,0.21,,,,,,,,,,
1135,0,0.0,0.33,,,,,,,,,,,,,,,,,,
1137,0,0.0,0.33,,,,,,,,,,,,,,,,,,
1139,0,0.0,0.33,,,,,,,,,,,,,,,,,,
1141,0,0.0,0.33,,,,,,,,,,,,,,,,,,
1143,0,0.0,0.33,,-0.06,0.05,1.05,0,-1,-0,0.08,0,1980,0,0.0,0.0,0.0,0.0,0,0,0.0
1145,0,0.0,0.33,,,,,,,,,,,,,,,,,,
1147,0,0.0,0.33,,,,,,,,,,,,,,,,,,
1149,0,0.0,0.33,,,,,,,,,,,,,,,,,,
1151,0,0.0,0.33,,,,,,,,,,,,,,,,,,
1153,0,0.0,0.34,,0.02,0.07,0.95,-0,-0,-0,0.07,,,,,,,,,,
1155,0,0.0,0.33,,,,,,,,,,,,,,,,,,
1157,0,0.0,0.33,,,,,,,,,,,,,,,,,,
1159,0,0.0,0.33,,,,,,,,,,,,,,,,,,
1161,0,0.0,0.33,,,,,,,,,,,,,,,,,,
1163,0,0.0,0.33,,-0.16,0.12,0.98,0,-0,-1,0.2,0,2040,0,0.0,0.0,0.0,0.0,0,0,0.0
1165,0,0.0,0.33,,,,,,,,,,,,,,,,,,
1167,0,0.0,0.33,,,,,,,,,,,,,,,,,,
1169,0,0.0,0.33,,,,,,,,,,,,,,,,,,
1171,0,0.0,0.33,,,,,,,,,,,,,,,,,,
1173,0,0.0,0.33,,-0.07,0.06,0.93,0,-1,-0,0.1,,,,,,,,,,
1175,0,0.0,0.33,,,,,,,,,,,,,,,,,,
1177,0,0.0,0.33,,,,,,,,,,,,,,,,,,
1179,0,0.0,0.33,,,,,,,,,,,,,,,,,,
1181,0,0.0,0.33,,,,,,,,,,,,,,,,,,
1183,0,0.0,0.35,,0.02,0.1,1.02,0,0,-0,0.1,0,1980,0,0.0,0.0,0.0,0.0,0,0,0.0
1185,0,0.0,0.34,,,,,,,,,,,,,,,,,,
1187,0,0.0,0.33,,,,,,,,,,,,,,,,,,
1189,0,0.0,0.33,,,,,,,,,,,,,,,,,,
1191,0,0.0,0.34,,,,,,,,,,,,,,,,,,
1193,0,0.0,0.33,,-0.26,0.07,1.01,0,-0,-1,0.27,,,,,,,,,,
1195,0,0.0,0.33,,,,,,,,,,,,,,,,,,
1197,0,0.0,0.33,,,,,,,,,,,,,,,,,,
1199,0,0.0,0.33,,,,,,,,,,,,,,,,,,
1201,0,0.0,0.33,,,,,,,,,,,,,,,,,,
1203,0,0.0,0.33,,0.0,0.04,1.05,0,-1,-1,0.04,0,1980,0,0.0,0.0,0.0,0.0,0,0,0.0
1205,0,0.0,0.33,,,,,,,,,,,,,,,,,,
1207,0,0.0,0.34,,,,,,,,,,,,,,,,,,
1209,0,0.0,0.34,,,,,,,,,,,,,,,,,,
1211,0,0.0,0.35,,,,,,,,,,,,,,,,,,
1213,0,0.0,0.34,,-0.01,0.06,0.96,-0,1,0,0.06,,,,,,,,,,
1215,0,0.0,0.34,,,,,,,,,,,,,,,,,,
1217,0,0.0,0.34,,,,,,,,,,,,,,,,,,
1219,0,0.0,0.33,,,,,,,,,,,,,,,,,,
1221,0,0.0,0.33,,,,,,,,,,,,,,,,,,
1223,0,0.0,0.34,,-0.2,0.09,1.05,0,-0,-0,0.23,0,2040,0,0.0,0.0,0.0,0.0,0,0,0.0
1225,0,0.0,0.34,,,,,,,,,,,,,,,,,,
1227,0,0.0,0.34,,,,,,,,,,,,,,,,,,
1229,0,0.0,0.33,,,,,,,,,,,,,,,,,,
1231,0,0.0,0.33,,,,,,,,,,,,,,,,,,
1233,0,0.0,0.34,,-0.03,0.03,0.91,0,-1,-0,0.04,,,,,,,,,,
1235,0,0.0,0.33,,,,,,,,,,,,,,,,,,
1237,0,0.0,0.34,,,,,,,,,,,,,,,,,,
1239,0,0.0,0.34,,,,,,,,,,,,,,,,,,
1241,0,0.0,0.35,,,,,,,,,,,,,,,,,,
1243,0,0.0,0.34,,-0.01,0.08,1.0,0,0,-0,0.08,0,2040,0,0.0,0.0,0.0,0.0,0,0,0.0
1245,0,0.0,0.34,,,,,,,,,,,,,,,,,,
1247,0,0.0,0.34,,,,,,,,,,,,,,,,,,
1249,0,0.0,0.34,,,,,,,,,,,,,,,,,,
1251,0,0.0,0.34,,,,,,,,,,,,,,,,,,
1253,0,0.0,0.34,,-0.22,0.1,1.05,0,-1,-1,0.24,,,,,,,,,,
1255,0,0.0,0.34,,,,,,,,,,,,,,,,,,
1257,0,0.0,0.34,,,,,,,,,,,,,,,,,,
1259,0,0.0,0.34,,,,,,,,,,,,,,,,,,
1261,0,0.0,0.34,,,,,,,,,,,,,,,,,,
1263,0,0.0,0.34,,0.05,0.03,1.0,0,-1,-0,0.06,0,2040,0,0.0,0.0,0.0,0.0,0,0,0.0
1265,0,0.0,0.34,,,,,,,,,,,,,,,,,,
1267,0,0.0,0.34,,,,,,,,,,,,,,,,,,
1269,0,0.0,0.35,,,,,,,,,,,,,,,,,,
1271,0,0.0,0.34,,,,,,,,,,,,,,,,,,
1273,0,0.0,0.34,,-0.09,0.06,0.97,-0,1,-0,0.11,,,,,,,,,,
1275,0,0.0,0.34,,,,,,,,,,,,,,,,,,
1277,0,0.0,0.34,,,,,,,,,,,,,,,,,,
1279,0,0.0,0.34,,,,,,,,,,,,,,,,,,
1281,0,0.0,0.34,,,,,,,,,,,,,,,,,,
1283,0,0.0,0.34,,-0.21,0.09,1.06,0,-1,-0,0.23,0,2040,0,0.0,0.0,0.0,0.0,0,0,0.0
1285,0,0.0,0.34,,,,,,,,,,,,,,,,,,
1287,0,0.0,0.34,,,,,,,,,,,,,,,,,,
1289,0,0.0,0.34,,,,,,,,,,,,,,,,,,
1291,0,0.01,0.34,,,,,,,,,,,,,,,,,,
1293,0,0.0,0.34,,0.0,0.05,0.95,0,-1,-0,0.05,,,,,,,,,,
1295,0,0.0,0.34,,,,,,,,,,,,,,,,,,
1297,0,0.0,0.34,,,,,,,,,,,,,,,,,,
1299,0,0.0,0.35,,,,,,,,,,,,,,,,,,
1301,0,0.0,0.34,,,,,,,,,,,,,,,,,,
1303,0,0.0,0.34,,-0.03,0.06,0.96,0,-0,-0,0.07,0,2040,0,0.0,0.0,0.0,0.0,0,0,0.0
1305,0,0.0,0.34,,,,,,,,,,,,,,,,,,
1307,0,0.0,0.34,,,,,,,,,,,,,,,,,,
1309,0,0.0,0.34,,,,,,,,,,,,,,,,,,
1311,0,0.0,0.34,,,,,,,,,,,,,,,,,,
1313,0,0.0,0.34,,-0.13,0.08,1.03,0,-0,-0,0.16,,,,,,,,,,
1315,0,0.0,0.34,,,,,,,,,,,,,,,,,,
1317,0,0.0,0.34,,,,,,,,,,,,,,,,,,
1319,0,0.0,0.34,,,,,,,,,,,,,,,,,,
1321,0,0.01,0.34,,,,,,,,,,,,,,,,,,
1323,0,0.0,0.34,,0.03,0.06,1.02,0,-1,-0,0.06,0,2040,0,0.0,0.0,0.0,0.0,0,0,0.0
1325,0,0.0,0.35,,,,,,,,,,,,,,,,,,
1327,0,0.0,0.36,,,,,,,,,,,,,,,,,,
1329,0,0.0,0.35,,,,,,,,,,,,,,,,,,
1331,0,0.0,0.35,,,,,,,,,,,,,,,,,,
1333,0,0.0,0.34,,-0.1,0.05,0.97,-0,0,-0,0.12,,,,,,,,,,
1335,0,0.0,0.34,,,,,,,,,,,,,,,,,,
1337,0,0.0,0.34,,,,,,,,,,,,,,,,,,
1339,0,0.0,0.34,,,,,,,,,,,,,,,,,,
1341,0,0.0,0.34,,,,,,,,,,,,,,,,,,
1343,0,0.0,0.34,,-0.15,0.07,1.06,0,0,-0,0.17,0,2040,0,0.0,0.0,0.0,0.0,0,0,0.0
1345,0,0.0,0.34,,,,,,,,,,,,,,,,,,
1347,0,0.0,0.35,,,,,,,,,,,,,,,,,,
1349,0,0.0,0.35,,,,,,,,,,,,,,,,,,
1351,0,0.0,0.35,,,,,,,,,,,,,,,,,,
1353,0,0.0,0.34,,-0.0,0.06,1.01,-0,-1,-0,0.06,,,,,,,,,,
1355,0,0.0,0.34,,,,,,,,,,,,,,,,,,
1357,0,0.0,0.36,,,,,,,,,,,,,,,,,,
1359,0,0.0,0.35,,,,,,,,,,,,,,,,,,
1361,0,0.0,0.35,,,,,,,,,,,,,,,,,,
1363,0,0.0,0.35,,-0.08,0.05,0.94,0,-0,-0,0.09,0,2040,0,0.0,0.0,0.0,0.0,0,0,0.0
1365,0,0.0,0.35,,,,,,,,,,,,,,,,,,
1367,0,0.0,0.34,,,,,,,,,,,,,,,,,,
1369,0,0.0,0.35,,,,,,,,,,,,,,,,,,
1371,0,0.0,0.35,,,,,,,,,,,,,,,,,,
1373,0,0.0,0.35,,-0.07,0.08,1.03,1,0,-0,0.11,,,,,,,,,,
1375,0,0.0,0.35,,,,,,,,,,,,,,,,,,
1377,0,0.0,0.35,,,,,,,,,,,,,,,,,,
1379,0,0.0,0.35,,,,,,,,,,,,,,,,,,
1381,0,0.0,0.35,,,,,,,,,,,,,,,,,,
1383,0,0.0,0.35,,0.0,0.06,1.0,0,-1,0,0.06,0,2040,0,0.0,0.0,0.0,0.0,0,0,0.0
1385,0,0.0,0.36,,,,,,,,,,,,,,,,,,
1387,0,0.0,0.35,,,,,,,,,,,,,,,,,,
1389,0,0.0,0.35,,,,,,,,,,,,,,,,,,
1391,0,0.0,0.36,,,,,,,,,,,,,,,,,,
1393,0,0.0,0.35,,-0.11,0.07,0.94,0,0,-0,0.13,,,,,,,,,,
1395,0,0.0,0.35,,,,,,,,,,,,,,,,,,
1397,0,0.0,0.35,,,,,,,,,,,,,,,,,,
1399,0,0.0,0.35,,,,,,,,,,,,,,,,,,
1401,0,0.0,0.35,,,,,,,,,,,,,,,,,,
1403,0,0.0,0.35,,-0.12,0.08,0.98,0,-0,-0,0.14,0,2040,0,0.0,0.0,0.0,0.0,0,0,0.0
1405,0,0.0,0.35,,,,,,,,,,,,,,,,,,
1407,0,0.0,0.35,,,,,,,,,,,,,,,,,,
1409,0,0.0,0.35,,,,,,,,,,,,,,,,,,
1411,0,0.0,0.35,,,,,,,,,,,,,,,,,,
1413,0,0.0,0.35,,0.01,0.09,1.01,0,-0,0,0.09,,,,,,,,,,
1415,0,0.0,0.36,,,,,,,,,,,,,,,,,,
1417,0,0.0,0.35,,,,,,,,,,,,,,,,,,
1419,0,0.0,0.35,,,,,,,,,,,,,,,,,,
1421,0,0.0,0.35,,,,,,,,,,,,,,,,,,
1423,0,0.0,0.35,,-0.16,0.06,0.93,0,-0,-0,0.17,0,1980,0,0.0,0.0,0.0,0.0,0,0,0.0
1425,0,0.0,0.35,,,,,,,,,,,,,,,,,,
1427,0,0.0,0.35,,,,,,,,,,,,,,,,,,
1429,0,0.0,0.35,,,,,,,,,,,,,,,,,,
1431,0,0.0,0.35,,,,,,,,,,,,,,,,,,
1433,0,0.0,0.35,,-0.06,0.06,1.04,0,-1,-0,0.08,,,,,,,,,,
1435,0,0.0,0.35,,,,,,,,,,,,,,,,,,
1437,0,0.0,0.36,,,,,,,,,,,,,,,,,,
1439,0,0.0,0.35,,,,,,,,,,,,,,,,,,
1441,0,0.0,0.35,,,,,,,,,,,,,,,,,,
1443,0,0.0,0.35,,0.03,0.07,0.96,-0,-0,-0,0.08,0,1980,0,0.0,0.0,0.0,0.0,0,0,0.0
1445,0,0.0,0.36,,,,,,,,,,,,,,,,,,
1447,0,0.0,0.36,,,,,,,,,,,,,,,,,,
1449,0,0.0,0.35,,,,,,,,,,,,,,,,,,
1451,0,0.0,0.35,,,,,,,,,,,,,,,,,,
1453,0,0.0,0.35,,-0.14,0.09,0.94,0,-0,-0,0.17,,,,,,,,,,
1455,0,0.0,0.35,,,,,,,,,,,,,,,,,,
1457,0,0.0,0.35,,,,,,,,,,,,,,,,,,
1459,0,0.0,0.35,,,,,,,,,,,,,,,,,,
1461,0,0.0,0.35,,,,,,,,,,,,,,,,,,
1463,0,0.0,0.35,,-0.09,0.07,0.94,0,-1,-0,0.11,0,2040,0,0.0,0.0,0.0,0.0,0,0,0.0
1465,0,0.0,0.35,,,,,,,,,,,,,,,,,,
1467,0,0.01,0.36,,,,,,,,,,,,,,,,,,
1469,0,0.0,0.35,,,,,,,,,,,,,,,,,,
1471,0,0.0,0.35,,,,,,,,,,,,,,,,,,
1473,0,0.0,0.37,,0.01,0.1,1.01,0,-0,-0,0.1,,,,,,,,,,
1475,0,0.0,0.36,,,,,,,,,,,,,,,,,,
1477,0,0.0,0.36,,,,,,,,,,,,,,,,,,
1479,0,0.0,0.35,,,,,,,,,,,,,,,,,,
1481,0,0.0,0.35,,,,,,,,,,,,,,,,,,
1483,0,0.0,0.35,,-0.23,0.06,0.96,0,-0,-1,0.24,0,1980,0,0.0,0.0,0.0,0.0,0,0,0.0
1485,0,0.0,0.36,,,,,,,,,,,,,,,,,,
1487,0,0.0,0.36,,,,,,,,,,,,,,,,,,
1489,0,0.0,0.36,,,,,,,,,,,,,,,,,,
1491,0,0.0,0.35,,,,,,,,,,,,,,,,,,
1493,0,0.0,0.36,,-0.04,0.05,1.04,0,-1,-0,0.06,,,,,,,,,,
1495,0,0.0,0.36,,,,,,,,,,,,,,,,,,
1497,0,0.0,0.36,,,,,,,,,,,,,,,,,,
1499,0,0.0,0.36,,,,,,,,,,,,,,,,,,
1501,0,0.0,0.36,,,,,,,,,,,,,,,,,,
1503,0,0.0,0.37,,0.01,0.05,0.95,0,0,-0,0.05,0,2040,0,0.0,0.0,0.0,0.0,0,0,0.0
1505,0,0.0,0.36,,,,,,,,,,,,,,,,,,
1507,0,0.0,0.36,,,,,,,,,,,,,,,,,,
1509,0,0.0,0.36,,,,,,,,,,,,,,,,,,
1511,0,0.0,0.36,,,,,,,,,,,,,,,,,,
1513,0,0.0,0.36,,-0.19,0.09,1.04,0,-0,-0,0.21,,,,,,,,,,
1515,0,0.0,0.36,,,,,,,,,,,,,,,,,,
1517,0,0.0,0.36,,,,,,,,,,,,,,,,,,
1519,0,0.0,0.36,,,,,,,,,,,,,,,,,,
1521,0,0.0,0.36,,,,,,,,,,,,,,,,,,
1523,0,0.0,0.36,,-0.06,0.04,0.91,0,-1,-0,0.07,0,2040,0,0.0,0.0,0.0,0.0,0,0,0.0
1525,0,0.0,0.36,,,,,,,,,,,,,,,,,,
1527,0,0.0,0.36,,,,,,,,,,,,,,,,,,
1529,0,0.0,0.36,,,,,,,,,,,,,,,,,,
1531,0,0.0,0.37,,,,,,,,,,,,,,,,,,
1533,0,0.0,0.36,,0.0,0.08,1.02,0,0,-0,0.08,,,,,,,,,,
1535,0,0.0,0.36,,,,,,,,,,,,,,,,,,
1537,0,0.0,0.36,,,,,,,,,,,,,,,,,,
1539,0,0.0,0.36,,,,,,,,,,,,,,,,,,
1541,0,0.0,0.36,,,,,,,,,,,,,,,,,,
1543,0,0.0,0.36,,-0.26,0.09,1.03,0,-0,-1,0.28,0,1980,0,0.0,0.0,0.0,0.0,0,0,0.0
1545,0,0.0,0.36,,,,,,,,,,,,,,,,,,
1547,0,0.0,0.36,,,,,,,,,,,,,,,,,,
1549,0,0.0,0.36,,,,,,,,,,,,,,,,,,
1551,0,0.0,0.36,,,,,,,,,,,,,,,,,,
1553,0,0.0,0.36,,0.04,0.03,1.04,0,-1,-0,0.05,,,,,,,,,,
1555,0,0.0,0.36,,,,,,,,,,,,,,,,,,
1557,0,0.0,0.36,,,,,,,,,,,,,,,,,,
1559,0,0.0,0.36,,,,,,,,,,,,,,,,,,
1561,0,0.0,0.38,,,,,,,,,,,,,,,,,,
1563,0,0.0,0.37,,-0.03,0.07,0.97,-0,1,-0,0.07,0,2040,0,0.0,0.0,0.0,0.0,0,0,0.0
1565,0,0.0,0.36,,,,,,,,,,,,,,,,,,
1567,0,0.0,0.36,,,,,,,,,,,,,,,,,,
1569,0,0.0,0.36,,,,,,,,,,,,,,,,,,
1571,0,0.0,0.36,,,,,,,,,,,,,,,,,,
1573,0,0.0,0.36,,-0.21,0.1,1.07,0,-1,-1,0.23,,,,,,,,,,
1575,0,0.0,0.36,,,,,,,,,,,,,,,,,,
1577,0,0.0,0.36,,,,,,,,,,,,,,,,,,
1579,0,0.0,0.36,,,,,,,,,,,,,,,,,,
1581,0,0.0,0.36,,,,,,,,,,,,,,,,,,
1583,0,0.0,0.36,,-0.01,0.04,0.93,0,-1,-0,0.04,0,2040,0,0.0,0.0,0.0,0.0,0,0,0.0
1585,0,0.0,0.36,,,,,,,,,,,,,,,,,,
1587,0,0.0,0.36,,,,,,,,,,,,,,,,,,
1589,0,0.0,0.36,,,,,,,,,,,,,,,,,,
1591,0,0.0,0.37,,,,,,,,,,,,,,,,,,
1593,0,0.0,0.37,,-0.0,0.07,0.98,-0,0,-0,0.07,,,,,,,,,,
1595,0,0.0,0.36,,,,,,,,,,,,,,,,,,
1597,0,0.0,0.36,,,,,,,,,,,,,,,,,,
1599,0,0.0,0.36,,,,,,,,,,,,,,,,,,
1601,0,0.0,0.36,,,,,,,,,,,,,,,,,,
1603,0,0.0,0.36,,-0.19,0.11,1.08,0,-0,-1,0.21,0,2040,0,0.0,0.0,0.0,0.0,0,0,0.0
1605,0,0.0,0.36,,,,,,,,,,,,,,,,,,
1607,0,0.0,0.36,,,,,,,,,,,,,,,,,,
1609,0,0.0,0.37,,,,,,,,,,,,,,,,,,
1611,0,0.0,0.37,,,,,,,,,,,,,,,,,,
1613,0,0.0,0.37,,0.04,0.05,1.0,0,-1,-0,0.06,,,,,,,,,,
1615,0,0.0,0.36,,,,,,,,,,,,,,,,,,
1617,0,0.0,0.37,,,,,,,,,,,,,,,,,,
1619,0,0.0,0.38,,,,,,,,,,,,,,,,,,
1621,0,0.0,0.37,,,,,,,,,,,,,,,,,,
1623,0,0.0,0.37,,-0.11,0.06,0.99,-0,0,-0,0.12,0,2040,0,0.0,0.0,0.0,0.0,0,0,0.0
1625,0,0.0,0.37,,,,,,,,,,,,,,,,,,
1627,0,0.0,0.37,,,,,,,,,,,,,,,,,,
1629,0,0.0,0.37,,,,,,,,,,,,,,,,,,
1631,0,0.0,0.37,,,,,,,,,,,,,,,,,,
1633,0,0.0,0.37,,-0.2,0.08,1.08,0,-0,-0,0.22,,,,,,,,,,
1635,0,0.0,0.37,,,,,,,,,,,,,,,,,,
1637,0,0.0,0.37,,,,,,,,,,,,,,,,,,
1639,0,0.0,0.37,,,,,,,,,,,,,,,,,,
1641,0,0.0,0.37,,,,,,,,,,,,,,,,,,
1643,0,0.0,0.37,,0.01,0.05,0.98,0,-1,-0,0.05,0,2040,0,0.0,0.0,0.0,0.0,0,0,0.0
1743,0,0.0,0.37,,-0.1,0.08,0.94,0,0,-1,0.13,0,2040,0,0.0,0.0,0.0,0.0,0,0,0.0
1745,0,0.0,0.38,,,,,,,,,,,,,,,,,,
1747,0,0.0,0.38,,,,,,,,,,,,,,,,,,
1749,0,0.0,0.38,,,,,,,,,,,,,,,,,,
1751,0,0.0,0.37,,,,,,,,,,,,,,,,,,
1753,0,0.0,0.38,,-0.12,0.07,0.98,1,-0,-0,0.14,,,,,,,,,,
1755,0,0.0,0.38,,,,,,,,,,,,,,,,,,
1757,0,0.0,0.38,,,,,,,,,,,,,,,,,,
1759,0,0.0,0.38,,,,,,,,,,,,,,,,,,
1761,0,0.0,0.38,,,,,,,,,,,,,,,,,,
1763,0,0.0,0.38,,0.02,0.08,1.0,0,-0,-0,0.09,0,2040,0,0.0,0.0,0.0,0.0,0,0,0.0
1765,0,0.0,0.39,,,,,,,,,,,,,,,,,,
1767,0,0.0,0.38,,,,,,,,,,,,,,,,,,
1769,0,0.0,0.38,,,,,,,,,,,,,,,,,,
1771,0,0.0,0.38,,,,,,,,,,,,,,,,,,
1773,0,0.0,0.38,,-0.18,0.06,0.92,0,-0,-1,0.19,,,,,,,,,,
1775,0,0.0,0.38,,,,,,,,,,,,,,,,,,
1777,0,0.0,0.38,,,,,,,,,,,,,,,,,,
1779,0,0.0,0.38,,,,,,,,,,,,,,,,,,
1781,0,0.0,0.38,,,,,,,,,,,,,,,,,,
1783,0,0.0,0.38,,-0.06,0.04,1.03,0,-1,-0,0.07,0,2040,0,0.0,0.0,0.0,0.0,0,0,0.0
1785,0,0.0,0.38,,,,,,,,,,,,,,,,,,
1787,0,0.0,0.38,,,,,,,,,,,,,,,,,,
1789,0,0.0,0.38,,,,,,,,,,,,,,,,,,
1791,0,0.0,0.38,,,,,,,,,,,,,,,,,,
1793,0,0.0,0.39,,0.02,0.06,0.96,-0,-0,-0,0.07,,,,,,,,,,
1795,0,0.0,0.38,,,,,,,,,,,,,,,,,,
1797,0,0.0,0.38,,,,,,,,,,,,,,,,,,
1799,0,0.0,0.38,,,,,,,,,,,,,,,,,,
1801,0,0.0,0.38,,,,,,,,,,,,,,,,,,
1803,0,0.01,0.38,,-0.15,0.11,0.97,0,-0,-1,0.19,0,2040,0,0.0,0.0,0.0,0.0,0,0,0.0
1805,0,0.0,0.38,,,,,,,,,,,,,,,,,,
1807,0,0.0,0.38,,,,,,,,,,,,,,,,,,
1809,0,0.0,0.38,,,,,,,,,,,,,,,,,,
1811,0,0.0,0.38,,,,,,,,,,,,,,,,,,
1813,0,0.0,0.38,,-0.08,0.05,0.94,0,-1,-0,0.1,,,,,,,,,,
1815,0,0.0,0.38,,,,,,,,,,,,,,,,,,
1817,0,0.0,0.38,,,,,,,,,,,,,,,,,,
1819,0,0.0,0.38,,,,,,,,,,,,,,,,,,
1821,0,0.0,0.38,,,,,,,,,,,,,,,,,,
1823,0,0.0,0.39,,0.02,0.08,1.02,0,0,-0,0.09,0,1980,0,0.0,0.0,0.0,0.0,0,0,0.0
1825,0,0.0,0.38,,,,,,,,,,,,,,,,,,
1827,0,0.0,0.38,,,,,,,,,,,,,,,,,,
1829,0,0.0,0.38,,,,,,,,,,,,,,,,,,
1831,0,0.0,0.38,,,,,,,,,,,,,,,,,,
1833,0,0.0,0.38,,-0.25,0.07,0.99,0,-0,-1,0.26,,,,,,,,,,
1835,0,0.0,0.38,,,,,,,,,,,,,,,,,,
1837,0,0.0,0.38,,,,,,,,,,,,,,,,,,
1839,0,0.0,0.38,,,,,,,,,,,,,,,,,,
1841,0,0.0,0.38,,,,,,,,,,,,,,,,,,
1843,0,0.0,0.38,,-0.02,0.05,1.06,0,-1,-0,0.05,0,1980,0,0.0,0.0,0.0,0.0,0,0,0.0
1845,0,0.0,0.38,,,,,,,,,,,,,,,,,,
1847,0,0.0,0.38,,,,,,,,,,,,,,,,,,
1849,0,0.0,0.38,,,,,,,,,,,,,,,,,,
1851,0,0.0,0.39,,,,,,,,,,,,,,,,,,
1853,0,0.0,0.39,,0.0,0.06,0.96,0,1,-0,0.06,,,,,,,,,,
1855,0,0.0,0.39,,,,,,,,,,,,,,,,,,
1857,0,0.0,0.38,,,,,,,,,,,,,,,,,,
1859,0,0.0,0.38,,,,,,,,,,,,,,,,,,
1861,0,0.0,0.38,,,,,,,,,,,,,,,,,,
1863,0,0.0,0.38,,-0.2,0.1,1.04,0,-1,-0,0.23,0,2040,0,0.0,0.0,0.0,0.0,0,0,0.0
1865,0,0.0,0.38,,,,,,,,,,,,,,,,,,
1867,0,0.0,0.38,,,,,,,,,,,,,,,,,,
1869,0,0.0,0.38,,,,,,,,,,,,,,,,,,
1871,0,0.0,0.38,,,,,,,,,,,,,,,,,,
1873,0,0.0,0.39,,-0.04,0.04,0.92,0,-1,-0,0.05,,,,,,,,,,
1875,0,0.0,0.38,,,,,,,,,,,,,,,,,,
1877,0,0.0,0.38,,,,,,,,,,,,,,,,,,
1879,0,0.0,0.38,,,,,,,,,,,,,,,,,,
1881,0,0.0,0.4,,,,,,,,,,,,,,,,,,
1883,0,0.0,0.39,,0.0,0.09,1.01,-0,0,-0,0.09,0,1980,0,0.0,0.0,0.0,0.0,0,0,0.0
1885,0,0.0,0.39,,,,,,,,,,,,,,,,,,
1887,0,0.0,0.39,,,,,,,,,,,,,,,,,,
1889,0,0.0,0.39,,,,,,,,,,,,,,,,,,
1891,0,0.0,0.38,,,,,,,,,,,,,,,,,,
1893,0,0.0,0.38,,-0.24,0.11,1.04,0,-1,-1,0.26,,,,,,,,,,
1895,0,0.0,0.38,,,,,,,,,,,,,,,,,,
1897,0,0.0,0.39,,,,,,,,,,,,,,,,,,
1899,0,0.0,0.39,,,,,,,,,,,,,,,,,,
1901,0,0.0,0.39,,,,,,,,,,,,,,,,,,
1903,0,0.0,0.39,,0.04,0.03,1.01,0,-1,-0,0.05,0,1980,0,0.0,0.0,0.0,0.0,0,0,0.0
1905,0,0.0,0.39,,,,,,,,,,,,,,,,,,
1907,0,0.0,0.39,,,,,,,,,,,,,,,,,,
1909,0,0.0,0.39,,,,,,,,,,,,,,,,,,
1911,0,0.0,0.39,,,,,,,,,,,,,,,,,,
1913,0,0.0,0.39,,-0.05,0.07,0.97,-0,1,-0,0.08,,,,,,,,,,
1915,0,0.0,0.39,,,,,,,,,,,,,,,,,,
1917,0,0.0,0.39,,,,,,,,,,,,,,,,,,
1919,0,0.0,0.38,,,,,,,,,,,,,,,,,,
1921,0,0.0,0.39,,,,,,,,,,,,,,,,,,
1923,0,0.0,0.39,,-0.2,0.1,1.07,0,-1,-0,0.23,0,2040,0,0.0,0.0,0.0,0.0,0,0,0.0
1925,0,0.0,0.39,,,,,,,,,,,,,,,,,,
1927,0,0.0,0.38,,,,,,,,,,,,,,,,,,
1929,0,0.0,0.39,,,,,,,,,,,,,,,,,,
1931,0,0.0,0.39,,,,,,,,,,,,,,,,,,
1933,0,0.0,0.39,,-0.0,0.04,0.94,0,-1,-0,0.04,,,,,,,,,,
1935,0,0.0,0.39,,,,,,,,,,,,,,,,,,
1937,0,0.0,0.39,,,,,,,,,,,,,,,,,,
1939,0,0.0,0.4,,,,,,,,,,,,,,,,,,
1941,0,0.0,0.39,,,,,,,,,,,,,,,,,,
1943,0,0.0,0.39,,-0.02,0.08,0.99,0,0,-0,0.08,0,1980,0,0.0,0.0,0.0,0.0,0,0,0.0
1945,0,0.0,0.39,,,,,,,,,,,,,,,,,,
1947,0,0.0,0.39,,,,,,,,,,,,,,,,,,
1949,0,0.0,0.39,,,,,,,,,,,,,,,,,,
1951,0,0.0,0.39,,,,,,,,,,,,,,,,,,
1953,0,0.0,0.39,,-0.17,0.1,1.06,0,-0,-1,0.2,,,,,,,,,,
1955,0,0.0,0.39,,,,,,,,,,,,,,,,,,
1957,0,0.0,0.39,,,,,,,,,,,,,,,,,,
1959,0,0.0,0.39,,,,,,,,,,,,,,,,,,
1961,0,0.0,0.39,,,,,,,,,,,,,,,,,,
1963,0,0.0,0.39,,0.03,0.06,1.0,0,-1,-0,0.06,0,1980,0,0.0,0.0,0.0,0.0,0,0,0.0
1965,0,0.0,0.39,,,,,,,,,,,,,,,,,,
1967,0,0.0,0.39,,,,,,,,,,,,,,,,,,
1969,0,0.0,0.4,,,,,,,,,,,,,,,,,,
1971,0,0.0,0.4,,,,,,,,,,,,,,,,,,
1973,0,0.0,0.39,,-0.09,0.06,0.99,-0,1,-0,0.11,,,,,,,,,,
1975,0,0.0,0.39,,,,,,,,,,,,,,,,,,
1977,0,0.0,0.39,,,,,,,,,,,,,,,,,,
1979,0,0.0,0.39,,,,,,,,,,,,,,,,,,
1981,0,0.0,0.39,,,,,,,,,,,,,,,,,,
1983,0,0.0,0.39,,-0.2,0.09,1.08,0,-0,-0,0.22,0,2040,0,0.0,0.0,0.0,0.0,0,0,0.0
1985,0,0.0,0.39,,,,,,,,,,,,,,,,,,
1987,0,0.0,0.39,,,,,,,,,,,,,,,,,,
1989,0,0.0,0.39,,,,,,,,,,,,,,,,,,
1991,0,0.0,0.39,,,,,,,,,,,,,,,,,,
1993,0,0.0,0.39,,0.01,0.06,0.96,0,-1,-0,0.06,,,,,,,,,,
1995,0,0.0,0.39,,,,,,,,,,,,,,,,,,
1997,0,0.0,0.4,,,,,,,,,,,,,,,,,,
1999,0,0.0,0.4,,,,,,,,,,,,,,,,,,
2001,0,0.0,0.39,,,,,,,,,,,,,,,,,,
2003,0,0.0,0.39,,-0.04,0.06,0.96,0,0,-0,0.08,0,1980,0,0.0,0.0,0.0,0.0,0,0,0.0
2005,0,0.0,0.39,,,,,,,,,,,,,,,,,,
2007,0,0.0,0.39,,,,,,,,,,,,,,,,,,
2009,0,0.0,0.39,,,,,,,,,,,,,,,,,,
2011,0,0.0,0.39,,,,,,,,,,,,,,,,,,
2013,0,0.0,0.39,,-0.14,0.09,1.05,0,0,-0,0.16,,,,,,,,,,
2015,0,0.0,0.39,,,,,,,,,,,,,,,,,,
2017,0,0.0,0.39,,,,,,,,,,,,,,,,,,
2019,0,0.0,0.4,,,,,,,,,,,,,,,,,,
2021,0,0.0,0.4,,,,,,,,,,,,,,,,,,
2023,0,0.0,0.4,,0.02,0.05,0.99,-0,-0,-0,0.05,0,1980,0,0.0,0.0,0.0,0.0,0,0,0.0
2025,0,0.0,0.4,,,,,,,,,,,,,,,,,,
2027,0,0.0,0.41,,,,,,,,,,,,,,,,,,
2029,0,0.0,0.4,,,,,,,,,,,,,,,,,,
2031,0,0.0,0.4,,,,,,,,,,,,,,,,,,
2033,0,0.0,0.4,,-0.11,0.06,0.95,-0,0,-1,0.13,,,,,,,,,,
2035,0,0.0,0.39,,,,,,,,,,,,,,,,,,
2037,0,0.0,0.4,,,,,,,,,,,,,,,,,,
2039,0,0.0,0.39,,,,,,,,,,,,,,,,,,
2041,0,0.0,0.4,,,,,,,,,,,,,,,,,,
2043,0,0.0,0.39,13.29,-0.17,0.08,1.01,0,0,-0,0.19,0,2040,0,0.0,0.0,0.0,0.0,0,0,0.0
2045,0,0.0,0.39,,,,,,,,,,,,,,,,,,
2047,0,0.0,0.4,,,,,,,,,,,,,,,,,,
2049,0,0.0,0.4,,,,,,,,,,,,,,,,,,
2051,0,0.0,0.4,,,,,,,,,,,,,,,,,,
2053,0,0.0,0.4,,0.01,0.05,0.99,-0,-0,-0,0.05,,,,,,,,,,
2055,0,0.0,0.4,,,,,,,,,,,,,,,,,,
2057,0,0.0,0.41,,,,,,,,,,,,,,,,,,
2059,0,0.0,0.4,,,,,,,,,,,,,,,,,,
2061,0,0.0,0.4,,,,,,,,,,,,,,,,,,
2063,0,0.0,0.4,,-0.1,0.04,0.93,-0,-0,-0,0.11,0,1980,0,0.0,0.0,0.0,0.0,0,0,0.0
2065,0,0.0,0.4,,,,,,,,,,,,,,,,,,
2067,0,0.0,0.4,,,,,,,,,,,,,,,,,,
2069,0,0.0,0.4,,,,,,,,,,,,,,,,,,
2071,0,0.0,0.4,,,,,,,,,,,,,,,,,,
2073,0,0.0,0.4,,-0.09,0.06,1.04,1,-0,-0,0.11,,,,,,,,,,
2075,0,0.0,0.4,,,,,,,,,,,,,,,,,,
2077,0,0.0,0.4,,,,,,,,,,,,,,,,,,
2079,0,0.0,0.4,,,,,,,,,,,,,,,,,,
2081,0,0.0,0.4,,,,,,,,,,,,,,,,,,
2083,0,0.0,0.41,,0.01,0.04,0.98,-0,-1,-0,0.04,0,1980,0,0.0,0.0,0.0,0.0,0,0,0.0
2085,0,0.0,0.42,,,,,,,,,,,,,,,,,,
2087,0,0.0,0.4,,,,,,,,,,,,,,,,,,
2089,0,0.0,0.4,,,,,,,,,,,,,,,,,,
2091,0,0.0,0.4,,,,,,,,,,,,,,,,,,
2093,0,0.0,0.4,,-0.13,0.08,0.94,0,0,-0,0.15,,,,,,,,,,
2095,0,0.0,0.4,,,,,,,,,,,,,,,,,,
2097,0,0.0,0.4,,,,,,,,,,,,,,,,,,
2099,0,0.0,0.4,,,,,,,,,,,,,,,,,,
2101,0,0.0,0.4,,,,,,,,,,,,,,,,,,
2103,0,0.0,0.4,,-0.14,0.06,0.99,1,-0,-0,0.15,0,2040,0,0.0,0.0,0.0,0.0,0,0,0.0
2105,0,0.0,0.4,,,,,,,,,,,,,,,,,,
2107,0,0.0,0.4,,,,,,,,,,,,,,,,,,
2109,0,0.0,0.4,,,,,,,,,,,,,,,,,,
2111,0,0.0,0.4,,,,,,,,,,,,,,,,,,
2113,0,0.0,0.4,,-0.0,0.07,1.02,0,-0,-0,0.07,,,,,,,,,,
2115,0,0.0,0.41,,,,,,,,,,,,,,,,,,
2117,0,0.0,0.4,,,,,,,,,,,,,,,,,,
2119,0,0.0,0.4,,,,,,,,,,,,,,,,,,
2121,0,0.0,0.4,,,,,,,,,,,,,,,,,,
2123,0,0.0,0.4,,-0.2,0.06,0.93,0,-0,-1,0.21,0,2040,0,0.0,0.0,0.0,0.0,0,0,0.0
2125,0,0.0,0.4,,,,,,,,,,,,,,,,,,
2127,0,0.0,0.4,,,,,,,,,,,,,,,,,,
2129,0,0.0,0.4,,,,,,,,,,,,,,,,,,
2131,0,0.0,0.4,,,,,,,,,,,,,,,,,,
2133,0,0.0,0.4,,-0.08,0.05,1.04,0,-1,-0,0.09,,,,,,,,,,
2135,0,0.0,0.4,,,,,,,,,,,,,,,,,,
2137,0,0.0,0.4,,,,,,,,,,,,,,,,,,
2139,0,0.0,0.4,,,,,,,,,,,,,,,,,,
2141,0,0.0,0.41,,,,,,,,,,,,,,,,,,
2143,0,0.0,0.42,,-0.0,0.08,0.97,-0,-0,-0,0.08,0,2040,0,0.0,0.0,0.0,0.0,0,0,0.0
2145,0,0.0,0.41,,,,,,,,,,,,,,,,,,
2147,0,0.0,0.41,,,,,,,,,,,,,,,,,,
2149,0,0.0,0.4,,,,,,,,,,,,,,,,,,
2151,0,0.0,0.4,,,,,,,,,,,,,,,,,,
2153,0,0.0,0.4,,-0.17,0.11,0.96,0,-0,-1,0.2,,,,,,,,,,
2155,0,0.0,0.4,,,,,,,,,,,,,,,,,,
2157,0,0.0,0.4,,,,,,,,,,,,,,,,,,
2159,0,0.0,0.4,,,,,,,,,,,,,,,,,,
2161,0,0.0,0.4,,,,,,,,,,,,,,,,,,
2163,0,0.0,0.41,,-0.11,0.05,0.94,0,-1,-0,0.12,0,2040,0,0.0,0.0,0.0,0.0,0,0,0.0
2165,0,0.0,0.41,,,,,,,,,,,,,,,,,,
2167,0,0.0,0.4,,,,,,,,,,,,,,,,,,
2169,0,0.0,0.4,,,,,,,,,,,,,,,,,,
2171,0,0.0,0.41,,,,,,,,,,,,,,,,,,
2173,0,0.0,0.42,,-0.03,0.1,1.03,-0,0,-0,0.1,,,,,,,,,,
2175,0,0.0,0.41,,,,,,,,,,,,,,,,,,
2177,0,0.0,0.41,,,,,,,,,,,,,,,,,,
2179,0,0.0,0.41,,,,,,,,,,,,,,,,,,
2181,0,0.0,0.4,,,,,,,,,,,,,,,,,,
2183,0,0.0,0.41,,-0.28,0.08,0.99,0,-0,-1,0.29,0,2040,0,0.0,0.0,0.0,0.0,0,0,0.0
2185,0,0.0,0.41,,,,,,,,,,,,,,,,,,
2187,0,0.0,0.41,,,,,,,,,,,,,,,,,,
2189,0,0.0,0.41,,,,,,,,,,,,,,,,,,
2191,0,0.0,0.41,,,,,,,,,,,,,,,,,,
2193,0,0.0,0.41,,-0.05,0.05,1.03,0,-0,-1,0.08,,,,,,,,,,
2195,0,0.0,0.41,,,,,,,,,,,,,,,,,,
2197,0,0.0,0.41,,,,,,,,,,,,,,,,,,
2199,0,0.0,0.41,,,,,,,,,,,,,,,,,,
2201,0,0.0,0.42,,,,,,,,,,,,,,,,,,
2203,0,0.0,0.41,,-0.06,0.09,0.97,0,1,-0,0.11,0,2040,0,0.0,0.0,0.0,0.0,0,0,0.0
2205,0,0.0,0.41,,,,,,,,,,,,,,,,,,
2207,0,0.0,0.41,,,,,,,,,,,,,,,,,,
2209,0,0.0,0.41,,,,,,,,,,,,,,,,,,
2211,0,0.0,0.41,,,,,,,,,,,,,,,,,,
2213,0,0.0,0.41,,-0.24,0.08,1.03,0,-0,-1,0.25,,,,,,,,,,
2215,0,0.0,0.41,,,,,,,,,,,,,,,,,,
2217,0,0.0,0.41,,,,,,,,,,,,,,,,,,
2219,0,0.0,0.41,,,,,,,,,,,,,,,,,,
2221,0,0.0,0.41,,,,,,,,,,,,,,,,,,
2223,0,0.0,0.41,,-0.09,0.03,0.92,0,-0,-1,0.09,0,2040,0,0.0,0.0,0.0,0.0,0,0,0.0
2225,0,0.0,0.41,,,,,,,,,,,,,,,,,,
2227,0,0.0,0.41,,,,,,,,,,,,,,,,,,
2229,0,0.0,0.41,,,,,,,,,,,,,,,,,,
2231,0,0.0,0.42,,,,,,,,,,,,,,,,,,
2233,0,0.0,0.41,,-0.09,0.1,1.02,0,1,-1,0.14,,,,,,,,,,
2235,0,0.0,0.41,,,,,,,,,,,,,,,,,,
2237,0,0.0,0.41,,,,,,,,,,,,,,,,,,
2239,0,0.0,0.41,,,,,,,,,,,,,,,,,,
2241,0,0.0,0.41,,,,,,,,,,,,,,,,,,
2243,0,0.0,0.41,,-0.32,0.08,1.05,0,0,-1,0.33,0,1980,0,0.0,0.0,0.0,0.0,0,0,0.0
2245,0,0.0,0.41,,,,,,,,,,,,,,,,,,
2247,0,0.0,0.41,,,,,,,,,,,,,,,,,,
2249,0,0.0,0.41,,,,,,,,,,,,,,,,,,
2251,0,0.0,0.41,,,,,,,,,,,,,,,,,,
2253,0,0.0,0.41,,-0.04,0.03,0.99,0,0,-1,0.05,,,,,,,,,,
2255,0,0.0,0.41,,,,,,,,,,,,,,,,,,
2257,0,0.0,0.41,,,,,,,,,,,,,,,,,,
2259,0,0.0,0.41,,,,,,,,,,,,,,,,,,
2261,0,0.0,0.42,,,,,,,,,,,,,,,,,,
2263,0,0.0,0.41,,-0.13,0.08,0.95,0,2,-1,0.15,0,2040,0,0.0,0.0,0.0,0.0,0,0,0.0
2265,0,0.0,0.41,,,,,,,,,,,,,,,,,,
2267,0,0.0,0.41,,,,,,,,,,,,,,,,,,
2269,0,0.01,0.41,,,,,,,,,,,,,,,,,,
2271,0,0.0,0.41,,,,,,,,,,,,,,,,,,
2273,0,0.0,0.41,,-0.28,0.08,1.03,0,0,-1,0.29,,,,,,,,,,
2275,0,0.0,0.41,,,,,,,,,,,,,,,,,,
2277,0,0.0,0.41,,,,,,,,,,,,,,,,,,
2279,0,0.0,0.41,,,,,,,,,,,,,,,,,,
2281,0,0.0,0.41,,,,,,,,,,,,,,,,,,
2283,0,0.0,0.41,,-0.06,0.05,0.91,0,0,-1,0.08,0,2040,0,0.0,0.0,0.0,0.0,0,0,0.0
2285,0,0.0,0.41,,,,,,,,,,,,,,,,,,
2287,0,0.0,0.41,,,,,,,,,,,,,,,,,,
2289,0,0.0,0.42,,,,,,,,,,,,,,,,,,
2291,0,0.0,0.42,,,,,,,,,,,,,,,,,,
2293,0,0.0,0.41,,-0.14,0.11,1.04,0,2,-1,0.17,,,,,,,,,,
2295,0,0.0,0.42,,,,,,,,,,,,,,,,,,
2297,0,0.0,0.41,,,,,,,,,,,,,,,,,,
2299,0,0.0,0.41,,,,,,,,,,,,,,,,,,
2301,0,0.0,0.41,,,,,,,,,,,,,,,,,,
2303,0,0.0,0.41,,-0.37,0.1,1.1,1,1,-1,0.38,0,1980,0,0.0,0.0,0.0,0.0,0,0,0.0
2305,0,0.0,0.41,,,,,,,,,,,,,,,,,,
2307,0,0.0,0.41,,,,,,,,,,,,,,,,,,
2309,0,0.0,0.41,,,,,,,,,,,,,,,,,,
2311,0,0.0,0.42,,,,,,,,,,,,,,,,,,
2313,0,0.0,0.42,,-0.06,0.04,0.98,1,0,-1,0.07,,,,,,,,,,
2315,0,0.0,0.42,,,,,,,,,,,,,,,,,,
2317,0,0.0,0.42,,,,,,,,,,,,,,,,,,
2319,0,0.0,0.43,,,,,,,,,,,,,,,,,,
2321,0,0.0,0.42,,,,,,,,,,,,,,,,,,
2323,0,0.0,0.42,,-0.19,0.08,0.95,0,2,-1,0.2,0,2040,0,0.0,0.0,0.0,0.0,0,0,0.0
2325,0,0.0,0.42,,,,,,,,,,,,,,,,,,
2327,0,0.0,0.42,,,,,,,,,,,,,,,,,,
2329,0,0.0,0.42,,,,,,,,,,,,,,,,,,
2331,0,0.0,0.42,,,,,,,,,,,,,,,,,,
2333,0,0.0,0.41,,-0.32,0.09,1.04,1,0,-1,0.33,,,,,,,,,,
2335,0,0.0,0.42,,,,,,,,,,,,,,,,,,
2337,0,0.0,0.42,,,,,,,,,,,,,,,,,,
2339,0,0.0,0.42,,,,,,,,,,,,,,,,,,
2341,0,0.0,0.42,,,,,,,,,,,,,,,,,,
2343,0,0.0,0.42,,-0.03,0.03,0.86,0,-0,-1,0.04,0,2040,0,0.0,0.0,0.0,0.0,0,0,0.0
2345,0,0.0,0.42,,,,,,,,,,,,,,,,,,
2347,0,0.0,0.42,,,,,,,,,,,,,,,,,,
2349,0,0.0,0.43,,,,,,,,,,,,,,,,,,
2351,0,0.0,0.42,,,,,,,,,,,,,,,,,,
2353,0,0.0,0.42,,-0.16,0.11,1.01,0,2,-1,0.19,,,,,,,,,,
2355,0,0.0,0.42,,,,,,,,,,,,,,,,,,
2357,0,0.0,0.42,,,,,,,,,,,,,,,,,,
2359,0,0.0,0.42,,,,,,,,,,,,,,,,,,
2361,0,0.0,0.42,,,,,,,,,,,,,,,,,,
2363,0,0.0,0.42,,-0.37,0.09,1.09,1,1,-1,0.38,0,1980,0,0.0,0.0,0.0,0.0,0,0,0.0
2365,0,0.0,0.42,,,,,,,,,,,,,,,,,,
2367,0,0.0,0.42,,,,,,,,,,,,,,,,,,
2369,0,0.0,0.42,,,,,,,,,,,,,,,,,,
2371,0,0.0,0.42,,,,,,,,,,,,,,,,,,
2373,0,0.0,0.42,,-0.02,0.03,0.98,0,0,-1,0.03,,,,,,,,,,
2375,0,0.0,0.42,,,,,,,,,,,,,,,,,,
2377,0,0.0,0.42,,,,,,,,,,,,,,,,,,
2379,0,0.0,0.43,,,,,,,,,,,,,,,,,,
2381,0,0.0,0.42,,,,,,,,,,,,,,,,,,
2383,0,0.0,0.42,,-0.22,0.08,0.97,-0,2,-1,0.24,0,2040,0,0.0,0.0,0.0,0.0,0,0,0.0
2385,0,0.0,0.42,,,,,,,,,,,,,,,,,,
2387,0,0.0,0.42,,,,,,,,,,,,,,,,,,
2389,0,0.0,0.42,,,,,,,,,,,,,,,,,,
2391,0,0.0,0.42,,,,,,,,,,,,,,,,,,
2393,0,0.0,0.42,,-0.33,0.07,1.06,1,0,-1,0.34,,,,,,,,,,
2395,0,0.0,0.42,,,,,,,,,,,,,,,,,,
2397,0,0.0,0.42,,,,,,,,,,,,,,,,,,
2399,0,0.0,0.42,,,,,,,,,,,,,,,,,,
2401,0,0.0,0.42,,,,,,,,,,,,,,,,,,
2403,0,0.0,0.42,,-0.01,-0.02,0.88,0,-0,-1,0.02,0,2040,0,0.0,0.0,0.0,0.0,0,0,0.0
2405,0,0.0,0.42,,,,,,,,,,,,,,,,,,
2407,0,0.0,0.42,,,,,,,,,,,,,,,,,,
2409,0,0.0,0.43,,,,,,,,,,,,,,,,,,
2411,0,0.0,0.42,,,,,,,,,,,,,,,,,,
2413,0,0.0,0.42,,-0.18,0.08,1.0,0,1,-1,0.19,,,,,,,,,,
2415,0,0.0,0.42,,,,,,,,,,,,,,,,,,
2417,0,0.0,0.42,,,,,,,,,,,,,,,,,,
2419,0,0.0,0.42,,,,,,,,,,,,,,,,,,
2421,0,0.0,0.42,,,,,,,,,,,,,,,,,,
2423,0,0.0,0.42,,-0.3,0.07,1.09,1,0,-1,0.31,0,1980,0,0.0,0.0,0.0,0.0,0,0,0.0
2425,0,0.0,0.42,,,,,,,,,,,,,,,,,,
2427,0,0.0,0.42,,,,,,,,,,,,,,,,,,
2429,0,0.0,0.42,,,,,,,,,,,,,,,,,,
2431,0,0.0,0.42,,,,,,,,,,,,,,,,,,
2433,0,0.0,0.42,,-0.01,0.01,0.95,1,0,-1,0.01,,,,,,,,,,
2435,0,0.0,0.42,,,,,,,,,,,,,,,,,,
2437,0,0.0,0.44,,,,,,,,,,,,,,,,,,
2439,0,0.0,0.43,,,,,,,,,,,,,,,,,,
2441,0,0.0,0.43,,,,,,,,,,,,,,,,,,
2443,0,0.0,0.42,,-0.28,0.07,1.01,0,1,-1,0.29,0,2040,0,0.0,0.0,0.0,0.0,0,0,0.0
2445,0,0.0,0.43,,,,,,,,,,,,,,,,,,
2447,0,0.0,0.43,,,,,,,,,,,,,,,,,,
2449,0,0.0,0.42,,,,,,,,,,,,,,,,,,
2451,0,0.0,0.42,,,,,,,,,,,,,,,,,,
2453,0,0.0,0.43,,-0.33,0.06,1.08,1,0,-1,0.34,,,,,,,,,,
2455,0,0.0,0.43,,,,,,,,,,,,,,,,,,
2457,0,0.0,0.42,,,,,,,,,,,,,,,,,,
2459,0,0.0,0.42,,,,,,,,,,,,,,,,,,
2461,0,0.0,0.43,,,,,,,,,,,,,,,,,,
2463,0,0.0,0.43,,0.0,-0.02,0.91,1,-1,-1,0.02,0,2040,0,0.0,0.0,0.0,0.0,0,0,0.0
2465,0,0.0,0.43,,,,,,,,,,,,,,,,,,
2467,0,0.0,0.44,,,,,,,,,,,,,,,,,,
2469,0,0.0,0.43,,,,,,,,,,,,,,,,,,
2471,0,0.0,0.43,,,,,,,,,,,,,,,,,,
2473,0,0.0,0.43,,-0.2,0.07,0.94,0,0,-1,0.22,,,,,,,,,,
2475,0,0.0,0.43,,,,,,,,,,,,,,,,,,
2477,0,0.0,0.42,,,,,,,,,,,,,,,,,,
2479,0,0.0,0.42,,,,,,,,,,,,,,,,,,
2481,0,0.0,0.42,,,,,,,,,,,,,,,,,,
2483,0,0.0,0.42,,-0.23,0.05,1.03,1,-1,-1,0.23,0,1980,0,0.0,0.0,0.0,0.0,0,0,0.0
2485,0,0.0,0.42,,,,,,,,,,,,,,,,,,
2487,0,0.0,0.42,,,,,,,,,,,,,,,,,,
2489,0,0.0,0.42,,,,,,,,,,,,,,,,,,
2491,0,0.0,0.42,,,,,,,,,,,,,,,,,,
2493,0,0.0,0.42,,0.04,0.03,0.94,0,-1,-0,0.04,,,,,,,,,,
2495,0,0.0,0.42,,,,,,,,,,,,,,,,,,
2497,0,0.0,0.43,,,,,,,,,,,,,,,,,,
2499,0,0.0,0.42,,,,,,,,,,,,,,,,,,
2501,0,0.0,0.42,,,,,,,,,,,,,,,,,,
2503,0,0.0,0.42,,-0.27,0.11,0.99,0,1,-1,0.29,0,2040,0,0.0,0.0,0.0,0.0,0,0,0.0
2505,0,0.0,0.41,,,,,,,,,,,,,,,,,,
2507,0,0.0,0.41,,,,,,,,,,,,,,,,,,
2509,0,0.0,0.41,,,,,,,,,,,,,,,,,,
2511,0,0.0,0.41,,,,,,,,,,,,,,,,,,
2513,0,0.0,0.41,,-0.33,0.07,1.15,1,-0,-1,0.33,,,,,,,,,,
2515,0,0.0,0.41,,,,,,,,,,,,,,,,,,
2517,0,0.0,0.41,,,,,,,,,,,,,,,,,,
2519,0,0.0,0.41,,,,,,,,,,,,,,,,,,
2521,0,0.0,0.41,,,,,,,,,,,,,,,,,,
2523,0,0.0,0.41,,-0.05,0.01,1.0,0,0,-1,0.05,0,2040,0,0.0,0.0,0.0,0.0,0,0,0.0
2525,0,0.0,0.41,,,,,,,,,,,,,,,,,,
2527,0,0.0,0.42,,,,,,,,,,,,,,,,,,
2529,0,0.0,0.41,,,,,,,,,,,,,,,,,,
2531,0,0.0,0.41,,,,,,,,,,,,,,,,,,
2533,0,0.0,0.41,,-0.29,0.11,0.99,0,1,-1,0.31,,,,,,,,,,
2535,0,0.0,0.41,,,,,,,,,,,,,,,,,,
2537,0,0.0,0.41,,,,,,,,,,,,,,,,,,
2539,0,0.0,0.41,,,,,,,,,,,,,,,,,,
2541,0,0.0,0.41,,,,,,,,,,,,,,,,,,
2543,0,0.0,0.41,,-0.25,0.07,1.05,1,1,-1,0.26,0,1980,0,0.0,0.0,0.0,0.0,0,0,0.0
2545,0,0.0,0.41,,,,,,,,,,,,,,,,,,
2547,0,0.0,0.41,,,,,,,,,,,,,,,,,,
2549,0,0.0,0.41,,,,,,,,,,,,,,,,,,
2551,0,0.0,0.41,,,,,,,,,,,,,,,,,,
2553,0,0.0,0.41,,0.0,0.04,0.88,0,0,-1,0.04,,,,,,,,,,
2555,0,0.0,0.42,,,,,,,,,,,,,,,,,,
2557,0,0.0,0.41,,,,,,,,,,,,,,,,,,
2559,0,0.0,0.41,,,,,,,,,,,,,,,,,,
2561,0,0.0,0.41,,,,,,,,,,,,,,,,,,
2563,0,0.0,0.41,,-0.26,0.14,0.88,0,1,-2,0.29,0,2040,0,0.0,0.0,0.0,0.0,0,0,0.0
2565,0,0.0,0.42,,,,,,,,,,,,,,,,,,
2567,0,0.0,0.41,,,,,,,,,,,,,,,,,,
2569,0,0.0,0.41,,,,,,,,,,,,,,,,,,
2571,0,0.0,0.41,,,,,,,,,,,,,,,,,,
2573,0,0.0,0.41,,-0.24,0.08,0.97,1,0,-2,0.25,,,,,,,,,,
2575,0,0.0,0.41,,,,,,,,,,,,,,,,,,
2577,0,0.0,0.41,,,,,,,,,,,,,,,,,,
2579,0,0.0,0.42,,,,,,,,,,,,,,,,,,
2581,0,0.0,0.41,,,,,,,,,,,,,,,,,,
2583,0,0.0,0.41,,-0.02,0.02,0.96,0,0,-2,0.03,0,2040,0,0.0,0.0,0.0,0.0,0,0,0.0
2585,0,0.0,0.42,,,,,,,,,,,,,,,,,,
2587,0,0.0,0.42,,,,,,,,,,,,,,,,,,
2589,0,0.0,0.42,,,,,,,,,,,,,,,,,,
2591,0,0.0,0.42,,,,,,,,,,,,,,,,,,
2593,0,0.0,0.42,,-0.34,0.09,0.99,0,1,-2,0.35,,,,,,,,,,
2595,0,0.0,0.41,,,,,,,,,,,,,,,,,,
2597,0,0.0,0.41,,,,,,,,,,,,,,,,,,
2599,0,0.0,0.42,,,,,,,,,,,,,,,,,,
2601,0,0.0,0.42,,,,,,,,,,,,,,,,,,
2603,0,0.0,0.42,,-0.26,0.04,1.13,1,1,-1,0.27,0,1980,0,0.0,0.0,0.0,0.0,0,0,0.0
2605,0,0.0,0.42,,,,,,,,,,,,,,,,,,
2607,0,0.0,0.42,,,,,,,,,,,,,,,,,,
2609,0,0.0,0.42,,,,,,,,,,,,,,,,,,
2611,0,0.0,0.42,,,,,,,,,,,,,,,,,,
2613,0,0.0,0.42,,-0.05,-0.0,0.95,1,0,-1,0.05,,,,,,,,,,
2615,0,0.0,0.43,,,,,,,,,,,,,,,,,,
2617,0,0.0,0.42,,,,,,,,,,,,,,,,,,
2619,0,0.0,0.42,,,,,,,,,,,,,,,,,,
2621,0,0.0,0.42,,,,,,,,,,,,,,,,,,
2623,0,0.0,0.42,,-0.32,0.09,0.91,1,1,-1,0.34,0,2040,0,0.0,0.0,0.0,0.0,0,0,0.0
2625,0,0.0,0.42,,,,,,,,,,,,,,,,,,
2627,0,0.0,0.42,,,,,,,,,,,,,,,,,,
2629,0,0.0,0.42,,,,,,,,,,,,,,,,,,
2631,0,0.0,0.42,,,,,,,,,,,,,,,,,,
2633,0,0.0,0.42,,-0.19,0.04,0.9,2,-1,-1,0.2,,,,,,,,,,
2635,0,0.0,0.42,,,,,,,,,,,,,,,,,,
2637,0,0.0,0.42,,,,,,,,,,,,,,,,,,
2639,0,0.0,0.42,,,,,,,,,,,,,,,,,,
2641,0,0.0,0.42,,,,,,,,,,,,,,,,,,
2643,0,0.0,0.41,,0.04,0.03,0.89,1,-1,-0,0.05,2,2040,0,0.0,0.0,0.0,0.0,0,0,0.0
2645,0,0.0,0.42,,,,,,,,,,,,,,,,,,
2647,0,0.0,0.41,,,,,,,,,,,,,,,,,,
2649,0,0.0,0.41,,,,,,,,,,,,,,,,,,
2651,0,0.0,0.41,,,,,,,,,,,,,,,,,,
2653,0,0.0,0.41,,-0.28,0.1,0.9,1,-1,-1,0.29,,,,,,,,,,
2655,0,0.0,0.41,,,,,,,,,,,,,,,,,,
2657,0,0.0,0.41,,,,,,,,,,,,,,,,,,
2659,0,0.0,0.41,,,,,,,,,,,,,,,,,,
2661,0,0.0,0.41,,,,,,,,,,,,,,,,,,
2663,0,0.0,0.41,,-0.14,0.02,1.09,2,-1,-1,0.15,2,1980,0,0.0,0.0,0.0,0.0,0,0,0.0
2665,0,0.0,0.41,,,,,,,,,,,,,,,,,,
2667,0,0.0,0.41,,,,,,,,,,,,,,,,,,
2669,0,0.0,0.41,,,,,,,,,,,,,,,,,,
2671,0,0.0,0.41,,,,,,,,,,,,,,,,,,
2673,0,0.0,0.42,,-0.03,0.02,1.06,1,0,-1,0.03,,,,,,,,,,
2675,0,0.0,0.41,,,,,,,,,,,,,,,,,,
2677,0,0.0,0.41,,,,,,,,,,,,,,,,,,
2679,0,0.0,0.41,,,,,,,,,,,,,,,,,,
2681,0,0.0,0.41,,,,,,,,,,,,,,,,,,
2683,0,0.0,0.41,,-0.42,0.14,1.06,1,1,-1,0.45,2,2040,0,0.0,0.0,0.0,0.0,0,0,0.0
2685,0,0.0,0.42,,,,,,,,,,,,,,,,,,
2687,0,0.0,0.42,,,,,,,,,,,,,,,,,,
2689,0,0.0,0.42,,,,,,,,,,,,,,,,,,
2691,0,0.0,0.41,,,,,,,,,,,,,,,,,,
2693,0,0.0,0.41,,-0.3,0.0,1.09,1,1,-1,0.3,,,,,,,,,,
2695,0,0.0,0.42,,,,,,,,,,,,,,,,,,
2697,0,0.0,0.42,,,,,,,,,,,,,,,,,,
2699,0,0.0,0.42,,,,,,,,,,,,,,,,,,
2701,0,0.0,0.42,,,,,,,,,,,,,,,,,,
2703,0,0.0,0.43,,-0.13,0.07,1.02,0,2,-1,0.15,2,1980,0,0.0,0.0,0.0,0.0,0,0,0.0
2705,0,0.0,0.42,,,,,,,,,,,,,,,,,,
2707,0,0.0,0.42,,,,,,,,,,,,,,,,,,
2709,0,0.0,0.42,,,,,,,,,,,,,,,,,,
2711,0,0.0,0.42,,,,,,,,,,,,,,,,,,
2713,0,0.0,0.42,,-0.47,0.12,0.89,1,2,-2,0.48,,,,,,,,,,
2715,0,0.0,0.42,,,,,,,,,,,,,,,,,,
2717,0,0.0,0.42,,,,,,,,,,,,,,,,,,
2719,0,0.0,0.42,,,,,,,,,,,,,,,,,,
2721,0,0.0,0.42,,,,,,,,,,,,,,,,,,
2723,0,0.0,0.42,,-0.11,-0.0,0.93,1,-0,-2,0.11,2,1980,0,0.0,0.0,0.0,0.0,0,0,0.0
2725,0,0.0,0.42,,,,,,,,,,,,,,,,,,
2727,0,0.0,0.42,,,,,,,,,,,,,,,,,,
2729,0,0.0,0.42,,,,,,,,,,,,,,,,,,
2731,0,0.0,0.42,,,,,,,,,,,,,,,,,,
2733,0,0.0,0.42,,0.04,0.08,0.76,0,1,-2,0.09,,,,,,,,,,
2735,0,0.0,0.42,,,,,,,,,,,,,,,,,,
2737,0,0.0,0.42,,,,,,,,,,,,,,,,,,
2739,0,0.0,0.42,,,,,,,,,,,,,,,,,,
2741,0,0.0,0.42,,,,,,,,,,,,,,,,,,
2743,0,0.0,0.42,,-0.25,0.12,0.87,1,-0,-2,0.27,2,2040,0,0.0,0.0,0.0,0.0,0,0,0.0
2745,0,0.0,0.42,,,,,,,,,,,,,,,,,,
2747,0,0.0,0.42,,,,,,,,,,,,,,,,,,
2749,0,0.0,0.42,,,,,,,,,,,,,,,,,,
2751,0,0.0,0.42,,,,,,,,,,,,,,,,,,
2753,0,0.0,0.41,,-0.09,-0.05,0.93,1,-1,-1,0.1,,,,,,,,,,
2755,0,0.0,0.41,,,,,,,,,,,,,,,,,,
2757,0,0.0,0.41,,,,,,,,,,,,,,,,,,
2759,0,0.0,0.41,,,,,,,,,,,,,,,,,,
2761,0,0.0,0.42,,,,,,,,,,,,,,,,,,
2763,0,0.0,0.41,,-0.11,0.01,1.13,0,1,-0,0.11,20,1980,0,0.0,0.0,0.0,0.0,0,0,0.0
2765,0,0.0,0.41,,,,,,,,,,,,,,,,,,
2767,0,0.0,0.41,,,,,,,,,,,,,,,,,,
2769,0,0.0,0.41,,,,,,,,,,,,,,,,,,
2771,0,0.0,0.41,,,,,,,,,,,,,,,,,,
2773,0,0.0,0.41,,-0.54,0.1,1.17,1,0,0,0.55,,,,,,,,,,
2775,0,0.0,0.41,,,,,,,,,,,,,,,,,,
2777,0,0.0,0.41,,,,,,,,,,,,,,,,,,
2779,0,0.0,0.41,,,,,,,,,,,,,,,,,,
2781,0,0.0,0.41,,,,,,,,,,,,,,,,,,
2783,0,0.0,0.41,,-0.15,0.01,1.13,2,-0,0,0.15,20,1980,0,0.0,0.0,0.0,0.0,0,0,0.0
2785,0,0.0,0.41,,,,,,,,,,,,,,,,,,
2787,0,0.0,0.41,,,,,,,,,,,,,,,,,,
2789,0,0.0,0.41,,,,,,,,,,,,,,,,,,
2791,0,0.0,0.42,,,,,,,,,,,,,,,,,,
2793,0,0.0,0.41,,-0.12,0.02,0.95,1,2,-0,0.12,,,,,,,,,,
2795,0,0.0,0.4,,,,,,,,,,,,,,,,,,
2797,0,0.0,0.41,,,,,,,,,,,,,,,,,,
2799,0,0.0,0.4,,,,,,,,,,,,,,,,,,
2801,0,0.0,0.4,,,,,,,,,,,,,,,,,,
2803,0,0.0,0.41,,-0.32,0.14,0.94,1,0,-1,0.35,20,2040,0,0.0,0.0,0.0,0.0,0,0,0.0
2805,0,0.0,0.41,,,,,,,,,,,,,,,,,,
2807,0,0.0,0.41,,,,,,,,,,,,,,,,,,
2809,0,0.0,0.41,,,,,,,,,,,,,,,,,,
2811,0,0.0,0.41,,,,,,,,,,,,,,,,,,
2813,0,0.0,0.41,,0.01,0.02,0.75,2,-1,-1,0.02,,,,,,,,,,
2815,0,0.0,0.41,,,,,,,,,,,,,,,,,,
2817,0,0.0,0.41,,,,,,,,,,,,,,,,,,
2819,0,0.0,0.41,,,,,,,,,,,,,,,,,,
2821,0,0.0,0.43,,,,,,,,,,,,,,,,,,
2823,0,0.0,0.42,,-0.0,0.14,0.9,1,1,-2,0.14,20,1980,0,0.0,0.0,0.0,0.0,0,0,0.0
2825,0,0.0,0.41,,,,,,,,,,,,,,,,,,
2827,0,0.0,0.41,,,,,,,,,,,,,,,,,,
2829,0,0.0,0.41,,,,,,,,,,,,,,,,,,
2831,0,0.0,0.41,,,,,,,,,,,,,,,,,,
2833,0,0.0,0.41,,-0.41,0.11,1.04,1,-0,-2,0.43,,,,,,,,,,
2835,0,0.0,0.41,,,,,,,,,,,,,,,,,,
2837,0,0.0,0.41,,,,,,,,,,,,,,,,,,
2839,0,0.0,0.41,,,,,,,,,,,,,,,,,,
2841,0,0.0,0.41,,,,,,,,,,,,,,,,,,
2843,0,0.0,0.41,,-0.05,-0.06,1.05,1,-0,-1,0.07,18,1980,0,0.0,0.0,0.0,0.0,0,0,0.0
2845,0,0.0,0.41,,,,,,,,,,,,,,,,,,
2847,0,0.0,0.41,,,,,,,,,,,,,,,,,,
2849,0,0.0,0.42,,,,,,,,,,,,,,,,,,
2851,0,0.0,0.41,,,,,,,,,,,,,,,,,,
2853,0,0.0,0.41,,-0.24,0.01,1.11,1,2,-0,0.24,,,,,,,,,,
2855,0,0.0,0.41,,,,,,,,,,,,,,,,,,
2857,0,0.0,0.4,,,,,,,,,,,,,,,,,,
2859,0,0.0,0.41,,,,,,,,,,,,,,,,,,
2861,0,0.0,0.4,,,,,,,,,,,,,,,,,,
2863,0,0.0,0.4,,-0.55,0.09,1.19,2,1,0,0.56,18,2040,0,0.0,0.0,0.0,0.0,0,0,0.0
2865,0,0.0,0.4,,,,,,,,,,,,,,,,,,
2867,0,0.0,0.4,,,,,,,,,,,,,,,,,,
2869,0,0.0,0.4,,,,,,,,,,,,,,,,,,
2871,0,0.0,0.4,,,,,,,,,,,,,,,,,,
2873,0,0.0,0.4,,-0.14,-0.04,0.95,2,1,1,0.14,,,,,,,,,,
2875,0,0.0,0.4,,,,,,,,,,,,,,,,,,
2877,0,0.0,0.4,,,,,,,,,,,,,,,,,,
2879,0,0.0,0.41,,,,,,,,,,,,,,,,,,
2881,0,0.0,0.4,,,,,,,,,,,,,,,,,,
2883,0,0.0,0.4,,-0.15,0.08,0.91,1,2,0,0.17,18,1980,0,0.0,0.0,0.0,0.0,0,0,0.0
2885,0,0.0,0.4,,,,,,,,,,,,,,,,,,
2887,0,0.0,0.4,,,,,,,,,,,,,,,,,,
2889,0,0.0,0.4,,,,,,,,,,,,,,,,,,
2891,0,0.0,0.4,,,,,,,,,,,,,,,,,,
2893,0,0.0,0.4,,-0.34,0.22,0.98,2,0,-1,0.4,,,,,,,,,,
2895,0,0.0,0.41,,,,,,,,,,,,,,,,,,
2897,0,0.0,0.4,,,,,,,,,,,,,,,,,,
2899,0,0.0,0.41,,,,,,,,,,,,,,,,,,
2901,0,0.0,0.41,,,,,,,,,,,,,,,,,,
2903,0,0.0,0.41,,0.15,0.1,0.75,2,-1,-2,0.18,18,1980,0,0.0,0.0,0.0,0.0,0,0,0.0
2905,0,0.0,0.41,,,,,,,,,,,,,,,,,,
2907,0,0.0,0.41,,,,,,,,,,,,,,,,,,
2909,0,0.0,0.42,,,,,,,,,,,,,,,,,,
2911,0,0.0,0.41,,,,,,,,,,,,,,,,,,
2913,0,0.0,0.41,,-0.04,0.13,0.8,1,-0,-2,0.13,,,,,,,,,,
2915,0,0.0,0.41,,,,,,,,,,,,,,,,,,
2917,0,0.0,0.41,,,,,,,,,,,,,,,,,,
2919,0,0.0,0.41,,,,,,,,,,,,,,,,,,
2921,0,0.0,0.41,,,,,,,,,,,,,,,,,,
2923,0,0.0,0.4,,-0.26,0.12,1.11,1,-1,-2,0.29,28,2040,0,0.0,0.0,0.0,0.0,0,0,0.0
2925,0,0.0,0.4,,,,,,,,,,,,,,,,,,
2927,0,0.0,0.4,,,,,,,,,,,,,,,,,,
2929,0,0.0,0.4,,,,,,,,,,,,,,,,,,
2931,0,0.0,0.4,,,,,,,,,,,,,,,,,,
2933,0,0.0,0.4,,-0.02,-0.02,1.08,1,-2,-1,0.03,,,,,,,,,,
2935,0,0.0,0.4,,,,,,,,,,,,,,,,,,
2937,0,0.0,0.4,,,,,,,,,,,,,,,,,,
2939,0,0.0,0.41,,,,,,,,,,,,,,,,,,
2941,0,0.0,0.4,,,,,,,,,,,,,,,,,,
2943,0,0.0,0.4,,-0.2,0.02,1.2,1,0,-0,0.2,28,1980,0,0.0,0.0,0.0,0.0,0,0,0.0
2945,0,0.0,0.4,,,,,,,,,,,,,,,,,,
2947,0,0.0,0.4,,,,,,,,,,,,,,,,,,
2949,0,0.0,0.4,,,,,,,,,,,,,,,,,,
2951,0,0.0,0.4,,,,,,,,,,,,,,,,,,
2953,0,0.0,0.4,,-0.28,0.09,1.24,2,0,1,0.29,,,,,,,,,,
2955,0,0.0,0.4,,,,,,,,,,,,,,,,,,
2957,0,0.0,0.4,,,,,,,,,,,,,,,,,,
2959,0,0.0,0.4,,,,,,,,,,,,,,,,,,
2961,0,0.0,0.4,,,,,,,,,,,,,,,,,,
2963,0,0.0,0.4,,0.03,-0.04,1.03,2,-0,1,0.05,28,1980,0,0.0,0.0,0.0,0.0,0,0,0.0
2965,0,0.0,0.4,,,,,,,,,,,,,,,,,,
2967,0,0.0,0.41,,,,,,,,,,,,,,,,,,
2969,0,0.0,0.4,,,,,,,,,,,,,,,,,,
2971,0,0.0,0.4,,,,,,,,,,,,,,,,,,
2973,0,0.0,0.4,,-0.16,0.08,0.9,1,1,0,0.18,,,,,,,,,,
2975,0,0.0,0.41,,,,,,,,,,,,,,,,,,
2977,0,0.0,0.41,,,,,,,,,,,,,,,,,,
2979,0,0.0,0.4,,,,,,,,,,,,,,,,,,
2981,0,0.0,0.4,,,,,,,,,,,,,,,,,,
2983,0,0.0,0.41,,-0.19,0.17,0.97,2,0,-1,0.25,28,2040,0,0.0,0.0,0.0,0.0,0,0,0.0
2985,0,0.0,0.41,,,,,,,,,,,,,,,,,,
2987,0,0.0,0.41,,,,,,,,,,,,,,,,,,
2989,0,0.0,0.41,,,,,,,,,,,,,,,,,,
2991,0,0.0,0.41,,,,,,,,,,,,,,,,,,
2993,0,0.0,0.41,,0.16,0.04,0.79,1,-0,-2,0.17,,,,,,,,,,
2995,0,0.0,0.41,,,,,,,,,,,,,,,,,,
2997,0,0.0,0.42,,,,,,,,,,,,,,,,,,
2999,0,0.0,0.41,,,,,,,,,,,,,,,,,,
3001,0,0.0,0.41,,,,,,,,,,,,,,,,,,
3003,0,0.0,0.41,,-0.12,0.06,0.88,1,1,-2,0.13,32,1980,0,0.0,0.0,0.0,0.0,0,0,0.0
3005,0,0.0,0.4,,,,,,,,,,,,,,,,,,
3007,0,0.0,0.4,,,,,,,,,,,,,,,,,,
3009,0,0.0,0.4,,,,,,,,,,,,,,,,,,
3011,0,0.0,0.4,,,,,,,,,,,,,,,,,,
3013,0,0.0,0.4,,-0.25,0.02,1.07,2,-0,-1,0.25,,,,,,,,,,
3015,0,0.0,0.4,,,,,,,,,,,,,,,,,,
3017,0,0.0,0.4,,,,,,,,,,,,,,,,,,
3019,0,0.0,0.4,,,,,,,,,,,,,,,,,,
3021,0,0.0,0.4,,,,,,,,,,,,,,,,,,
3023,0,0.0,0.4,,-0.04,-0.08,1.04,1,-1,-0,0.09,32,1980,0,0.0,0.0,0.0,0.0,0,0,0.0
3025,0,0.0,0.4,,,,,,,,,,,,,,,,,,
3027,0,0.0,0.4,,,,,,,,,,,,,,,,,,
3029,0,0.0,0.4,,,,,,,,,,,,,,,,,,
3031,0,0.0,0.4,,,,,,,,,,,,,,,,,,
3033,0,0.0,0.39,,-0.28,0.04,0.96,1,-0,1,0.29,,,,,,,,,,
3035,0,0.0,0.4,,,,,,,,,,,,,,,,,,
3037,0,0.0,0.4,,,,,,,,,,,,,,,,,,
3039,0,0.0,0.39,,,,,,,,,,,,,,,,,,
3041,0,0.0,0.39,,,,,,,,,,,,,,,,,,
3043,0,0.0,0.39,13.21,-0.2,0.04,1.02,2,-2,1,0.21,32,2040,0,0.0,0.0,0.0,0.0,0,0,0.0
3045,0,0.0,0.39,,,,,,,,,,,,,,,,,,
3047,0,0.0,0.39,,,,,,,,,,,,,,,,,,
3049,0,0.0,0.39,,,,,,,,,,,,,,,,,,
3051,0,0.0,0.39,,,,,,,,,,,,,,,,,,
3053,0,0.0,0.39,,0.13,0.0,0.86,2,-3,1,0.13,,,,,,,,,,
3055,0,0.0,0.4,,,,,,,,,,,,,,,,,,
3057,0,0.0,0.4,,,,,,,,,,,,,,,,,,
3059,0,0.0,0.4,,,,,,,,,,,,,,,,,,
3061,0,0.0,0.4,,,,,,,,,,,,,,,,,,
3063,0,0.0,0.4,,-0.02,0.14,0.84,1,-2,0,0.14,32,1980,0,0.0,0.0,0.0,0.0,0,0,0.0
3065,0,0.0,0.4,,,,,,,,,,,,,,,,,,
3067,0,0.0,0.4,,,,,,,,,,,,,,,,,,
3069,0,0.0,0.4,,,,,,,,,,,,,,,,,,
3071,0,0.0,0.4,,,,,,,,,,,,,,,,,,
3073,0,0.0,0.4,,0.09,0.11,1.0,2,-3,-0,0.15,,,,,,,,,,
3075,0,0.0,0.4,,,,,,,,,,,,,,,,,,
3077,0,0.0,0.4,,,,,,,,,,,,,,,,,,
3079,0,0.0,0.4,,,,,,,,,,,,,,,,,,
3081,0,0.0,0.4,,,,,,,,,,,,,,,,,,
3083,0,0.0,0.4,,0.2,0.0,1.05,1,-2,-1,0.2,28,1980,0,0.0,0.0,0.0,0.0,0,0,0.0
3085,0,0.0,0.41,,,,,,,,,,,,,,,,,,
3087,0,0.0,0.4,,,,,,,,,,,,,,,,,,
3089,0,0.0,0.39,,,,,,,,,,,,,,,,,,
3091,0,0.0,0.39,,,,,,,,,,,,,,,,,,
3093,0,0.0,0.39,,-0.22,0.07,1.19,1,-0,-1,0.23,,,,,,,,,,
3095,0,0.0,0.39,,,,,,,,,,,,,,,,,,
3097,0,0.0,0.39,,,,,,,,,,,,,,,,,,
3099,0,0.0,0.39,,,,,,,,,,,,,,,,,,
3101,0,0.0,0.39,,,,,,,,,,,,,,,,,,
3103,0,0.0,0.39,,-0.23,-0.07,1.21,2,-0,-0,0.23,28,2040,0,0.0,0.0,0.0,0.0,0,0,0.0
3105,0,0.0,0.39,,,,,,,,,,,,,,,,,,
3107,0,0.0,0.4,,,,,,,,,,,,,,,,,,
3109,0,0.0,0.4,,,,,,,,,,,,,,,,,,
3111,0,0.0,0.4,,,,,,,,,,,,,,,,,,
3113,0,0.0,0.4,,-0.1,0.0,1.19,2,2,0,0.1,,,,,,,,,,
3115,0,0.0,0.4,,,,,,,,,,,,,,,,,,
3117,0,0.0,0.4,,,,,,,,,,,,,,,,,,
3119,0,0.0,0.4,,,,,,,,,,,,,,,,,,
3121,0,0.0,0.4,,,,,,,,,,,,,,,,,,
3123,0,0.0,0.4,,-0.46,0.01,1.01,2,3,0,0.46,28,1980,0,0.0,0.0,0.0,0.0,0,0,0.0
3125,0,0.0,0.4,,,,,,,,,,,,,,,,,,
3127,0,0.0,0.4,,,,,,,,,,,,,,,,,,
3129,0,0.0,0.4,,,,,,,,,,,,,,,,,,
3131,0,0.0,0.4,,,,,,,,,,,,,,,,,,
3133,0,0.0,0.4,,-0.14,0.01,1.0,3,1,0,0.14,,,,,,,,,,
3135,0,0.0,0.4,,,,,,,,,,,,,,,,,,
3137,0,0.0,0.4,,,,,,,,,,,,,,,,,,
3139,0,0.0,0.4,,,,,,,,,,,,,,,,,,
3141,0,0.0,0.41,,,,,,,,,,,,,,,,,,
3143,0,0.0,0.41,,-0.0,0.06,0.71,2,3,1,0.06,28,2040,0,0.0,0.0,0.0,0.0,0,0,0.0
3145,0,0.0,0.4,,,,,,,,,,,,,,,,,,
3147,0,0.0,0.41,,,,,,,,,,,,,,,,,,
3149,0,0.0,0.41,,,,,,,,,,,,,,,,,,
3151,0,0.0,0.41,,,,,,,,,,,,,,,,,,
3153,0,0.0,0.41,,-0.29,0.31,0.76,2,1,0,0.42,,,,,,,,,,
3155,0,0.0,0.41,,,,,,,,,,,,,,,,,,
3157,0,0.0,0.41,,,,,,,,,,,,,,,,,,
3159,0,0.0,0.41,,,,,,,,,,,,,,,,,,
3161,0,0.0,0.41,,,,,,,,,,,,,,,,,,
3163,0,0.0,0.4,,-0.01,0.17,0.72,3,-1,0,0.17,50,2040,0,0.0,0.0,0.0,0.0,0,0,0.0
3165,0,0.0,0.4,,,,,,,,,,,,,,,,,,
3167,0,0.0,0.4,,,,,,,,,,,,,,,,,,
