"Interval"|"ms"|0|0|1,"Utc"|"ms"|0|0|1,"Analog4"|"Volts"|0.0|5.0|500,"Analog5"|"Volts"|0.0|5.0|500,"Battery"|"Volts"|0.0|20.0|1,"AccelX"|"G"|-3.0|3.0|200,"AccelY"|"G"|-3.0|3.0|200,"AccelZ"|"G"|-3.0|3.0|200,"Yaw"|"Deg/Sec"|-120|120|200,"Pitch"|"Deg/Sec"|-120|120|200,"Roll"|"Deg/Sec"|-120|120|200,"Gsum"|"G"|0.0|3.0|200,"RPM2"|"rpm"|0|8000|50,"RPM3"|"rpm"|0|8000|50,"GPIO1"|""|0.0|1.0|50,"Latitude"|"Degrees"|-180.0|180.0|50,"Longitude"|"Degrees"|-180.0|180.0|50,"Speed"|"mph"|0.0|150.0|50,"Altitude"|"ft"|0.0|4000.0|50,"GPSSats"|""|0|20|50,"GPSQual"|""|0|5|50,"GPSDOP"|""|0.0|20.0|50
105,0,0.0,0.27,,,,,,,,,,,,,,,,,,
107,0,0.0,0.27,,,,,,,,,,,,,,,,,,
109,0,0.0,0.27,,,,,,,,,,,,,,,,,,
111,0,0.0,0.27,,,,,,,,,,,,,,,,,,
113,0,0.0,0.27,,0.06,0.02,0.88,0,-1,-0,0.06,,,,,,,,,,
115,0,0.0,0.28,,,,,,,,,,,,,,,,,,
117,0,0.0,0.27,,,,,,,,,,,,,,,,,,
119,0,0.0,0.28,,,,,,,,,,,,,,,,,,
121,0,0.0,0.27,,,,,,,,,,,,,,,,,,
123,0,0.0,0.27,,-0.05,0.12,0.97,-0,-0,-0,0.13,0,2100,0,0.0,0.0,0.0,0.0,0,0,0.0
125,0,0.0,0.27,,,,,,,,,,,,,,,,,,
127,0,0.0,0.27,,,,,,,,,,,,,,,,,,
129,0,0.0,0.27,,,,,,,,,,,,,,,,,,
131,0,0.0,0.27,,,,,,,,,,,,,,,,,,
133,0,0.0,0.27,,-0.12,0.09,1.04,1,-1,-0,0.15,,,,,,,,,,
135,0,0.0,0.27,,,,,,,,,,,,,,,,,,
137,0,0.0,0.27,,,,,,,,,,,,,,,,,,
139,0,0.0,0.27,,,,,,,,,,,,,,,,,,
141,0,0.0,0.27,,,,,,,,,,,,,,,,,,
143,0,0.0,0.27,,0.09,0.03,0.98,-0,-0,-0,0.09,0,2100,0,0.0,0.0,0.0,0.0,0,0,0.0
145,0,0.0,0.29,,,,,,,,,,,,,,,,,,
147,0,0.0,0.28,,,,,,,,,,,,,,,,,,
149,0,0.0,0.27,,,,,,,,,,,,,,,,,,
151,0,0.0,0.28,,,,,,,,,,,,,,,,,,
153,0,0.0,0.28,,-0.17,0.1,0.98,-0,0,-0,0.2,,,,,,,,,,
155,0,0.0,0.28,,,,,,,,,,,,,,,,,,
157,0,0.0,0.28,,,,,,,,,,,,,,,,,,
159,0,0.0,0.28,,,,,,,,,,,,,,,,,,
161,0,0.0,0.28,,,,,,,,,,,,,,,,,,
163,0,0.0,0.27,,-0.11,0.08,1.02,1,-0,-0,0.13,0,2160,0,0.0,0.0,0.0,0.0,0,0,0.0
165,0,0.0,0.28,,,,,,,,,,,,,,,,,,
167,0,0.0,0.28,,,,,,,,,,,,,,,,,,
169,0,0.0,0.28,,,,,,,,,,,,,,,,,,
171,0,0.0,0.28,,,,,,,,,,,,,,,,,,
173,0,0.0,0.28,,0.01,0.07,1.04,-0,0,-0,0.07,,,,,,,,,,
175,0,0.0,0.28,,,,,,,,,,,,,,,,,,
177,0,0.0,0.28,,,,,,,,,,,,,,,,,,
179,0,0.0,0.28,,,,,,,,,,,,,,,,,,
181,0,0.0,0.28,,,,,,,,,,,,,,,,,,
183,0,0.0,0.27,,-0.23,0.11,0.96,0,0,-0,0.25,0,2100,0,0.0,0.0,0.0,0.0,0,0,0.0
185,0,0.0,0.27,,,,,,,,,,,,,,,,,,
187,0,0.0,0.28,,,,,,,,,,,,,,,,,,
189,0,0.0,0.28,,,,,,,,,,,,,,,,,,
191,0,0.0,0.28,,,,,,,,,,,,,,,,,,
193,0,0.0,0.28,,-0.0,0.04,1.03,1,-1,-0,0.04,,,,,,,,,,
195,0,0.0,0.28,,,,,,,,,,,,,,,,,,
197,0,0.0,0.29,,,,,,,,,,,,,,,,,,
199,0,0.0,0.29,,,,,,,,,,,,,,,,,,
201,0,0.0,0.29,,,,,,,,,,,,,,,,,,
203,0,0.0,0.29,,-0.02,0.08,0.97,-0,0,-0,0.08,0,2160,0,0.0,0.0,0.0,0.0,0,0,0.0
205,0,0.0,0.29,,,,,,,,,,,,,,,,,,
207,0,0.0,0.29,,,,,,,,,,,,,,,,,,
209,0,0.0,0.28,,,,,,,,,,,,,,,,,,
211,0,0.0,0.28,,,,,,,,,,,,,,,,,,
213,0,0.0,0.29,,-0.21,0.13,0.98,0,-1,-1,0.25,,,,,,,,,,
215,0,0.0,0.28,,,,,,,,,,,,,,,,,,
217,0,0.0,0.28,,,,,,,,,,,,,,,,,,
219,0,0.0,0.28,,,,,,,,,,,,,,,,,,
221,0,0.0,0.29,,,,,,,,,,,,,,,,,,
223,0,0.0,0.29,,0.05,0.02,0.87,0,-1,-0,0.05,0,2160,0,0.0,0.0,0.0,0.0,0,0,0.0
225,0,0.0,0.29,,,,,,,,,,,,,,,,,,
227,0,0.0,0.29,,,,,,,,,,,,,,,,,,
229,0,0.0,0.29,,,,,,,,,,,,,,,,,,
231,0,0.0,0.29,,,,,,,,,,,,,,,,,,
233,0,0.0,0.29,,-0.04,0.12,1.0,-0,0,-0,0.13,,,,,,,,,,
235,0,0.0,0.29,,,,,,,,,,,,,,,,,,
237,0,0.0,0.29,,,,,,,,,,,,,,,,,,
239,0,0.0,0.29,,,,,,,,,,,,,,,,,,
241,0,0.0,0.29,,,,,,,,,,,,,,,,,,
243,0,0.0,0.29,,-0.24,0.12,1.08,0,-1,-1,0.27,0,2100,0,0.0,0.0,0.0,0.0,0,0,0.0
245,0,0.0,0.29,,,,,,,,,,,,,,,,,,
247,0,0.0,0.29,,,,,,,,,,,,,,,,,,
249,0,0.0,0.3,,,,,,,,,,,,,,,,,,
251,0,0.0,0.29,,,,,,,,,,,,,,,,,,
253,0,0.0,0.29,,0.11,0.01,0.95,0,-1,-0,0.11,,,,,,,,,,
255,0,0.0,0.3,,,,,,,,,,,,,,,,,,
257,0,0.0,0.3,,,,,,,,,,,,,,,,,,
259,0,0.0,0.3,,,,,,,,,,,,,,,,,,
261,0,0.0,0.3,,,,,,,,,,,,,,,,,,
263,0,0.0,0.3,,-0.15,0.1,0.98,-0,0,-0,0.18,0,2100,0,0.0,0.0,0.0,0.0,0,0,0.0
265,0,0.0,0.29,,,,,,,,,,,,,,,,,,
267,0,0.0,0.29,,,,,,,,,,,,,,,,,,
269,0,0.0,0.3,,,,,,,,,,,,,,,,,,
271,0,0.0,0.29,,,,,,,,,,,,,,,,,,
273,0,0.0,0.3,,-0.18,0.1,1.07,0,-1,-0,0.21,,,,,,,,,,
275,0,0.0,0.29,,,,,,,,,,,,,,,,,,
277,0,0.0,0.3,,,,,,,,,,,,,,,,,,
279,0,0.0,0.3,,,,,,,,,,,,,,,,,,
281,0,0.0,0.3,,,,,,,,,,,,,,,,,,
283,0,0.0,0.3,,0.05,0.04,0.96,-0,-0,-0,0.06,0,2100,0,0.0,0.0,0.0,0.0,0,0,0.0
285,0,0.0,0.3,,,,,,,,,,,,,,,,,,
287,0,0.0,0.31,,,,,,,,,,,,,,,,,,
289,0,0.0,0.3,,,,,,,,,,,,,,,,,,
291,0,0.0,0.3,,,,,,,,,,,,,,,,,,
293,0,0.0,0.3,,-0.11,0.1,0.96,-0,0,-0,0.15,,,,,,,,,,
295,0,0.0,0.3,,,,,,,,,,,,,,,,,,
297,0,0.0,0.3,,,,,,,,,,,,,,,,,,
299,0,0.0,0.3,,,,,,,,,,,,,,,,,,
301,0,0.0,0.3,,,,,,,,,,,,,,,,,,
303,0,0.0,0.3,,-0.04,0.06,1.03,1,-0,-0,0.08,0,2100,0,0.0,0.0,0.0,0.0,0,0,0.0
305,0,0.0,0.3,,,,,,,,,,,,,,,,,,
307,0,0.0,0.3,,,,,,,,,,,,,,,,,,
309,0,0.0,0.3,,,,,,,,,,,,,,,,,,
311,0,0.0,0.3,,,,,,,,,,,,,,,,,,
313,0,0.0,0.3,,0.06,0.05,0.98,-0,-0,-0,0.08,,,,,,,,,,
315,0,0.0,0.31,,,,,,,,,,,,,,,,,,
317,0,0.0,0.31,,,,,,,,,,,,,,,,,,
319,0,0.0,0.31,,,,,,,,,,,,,,,,,,
321,0,0.0,0.31,,,,,,,,,,,,,,,,,,
323,0,0.0,0.3,,-0.17,0.13,0.97,-0,-0,-0,0.21,0,2100,0,0.0,0.0,0.0,0.0,0,0,0.0
325,0,0.0,0.3,,,,,,,,,,,,,,,,,,
327,0,0.0,0.3,,,,,,,,,,,,,,,,,,
329,0,0.0,0.3,,,,,,,,,,,,,,,,,,
331,0,0.0,0.31,,,,,,,,,,,,,,,,,,
333,0,0.0,0.31,,-0.05,0.05,0.96,1,-1,-0,0.07,,,,,,,,,,
335,0,0.0,0.31,,,,,,,,,,,,,,,,,,
337,0,0.0,0.31,,,,,,,,,,,,,,,,,,
339,0,0.0,0.31,,,,,,,,,,,,,,,,,,
341,0,0.0,0.31,,,,,,,,,,,,,,,,,,
343,0,0.0,0.32,,-0.02,0.1,1.01,-0,0,-0,0.1,0,2100,0,0.0,0.0,0.0,0.0,0,0,0.0
345,0,0.0,0.31,,,,,,,,,,,,,,,,,,
347,0,0.0,0.31,,,,,,,,,,,,,,,,,,
349,0,0.0,0.31,,,,,,,,,,,,,,,,,,
351,0,0.0,0.31,,,,,,,,,,,,,,,,,,
353,0,0.0,0.31,,-0.3,0.11,1.01,0,-0,-0,0.32,,,,,,,,,,
355,0,0.0,0.31,,,,,,,,,,,,,,,,,,
357,0,0.0,0.31,,,,,,,,,,,,,,,,,,
359,0,0.0,0.31,,,,,,,,,,,,,,,,,,
361,0,0.0,0.31,,,,,,,,,,,,,,,,,,
363,0,0.0,0.31,,0.06,0.04,0.99,0,-1,-1,0.07,0,2100,0,0.0,0.0,0.0,0.0,0,0,0.0
365,0,0.0,0.31,,,,,,,,,,,,,,,,,,
367,0,0.0,0.31,,,,,,,,,,,,,,,,,,
369,0,0.0,0.32,,,,,,,,,,,,,,,,,,
371,0,0.0,0.33,,,,,,,,,,,,,,,,,,
373,0,0.0,0.32,,-0.07,0.09,0.98,-0,1,-0,0.12,,,,,,,,,,
375,0,0.0,0.32,,,,,,,,,,,,,,,,,,
377,0,0.0,0.32,,,,,,,,,,,,,,,,,,
379,0,0.0,0.32,,,,,,,,,,,,,,,,,,
381,0,0.0,0.32,,,,,,,,,,,,,,,,,,
383,0,0.0,0.32,,-0.22,0.14,1.05,0,-1,-1,0.26,0,2100,0,0.0,0.0,0.0,0.0,0,0,0.0
385,0,0.0,0.32,,,,,,,,,,,,,,,,,,
387,0,0.0,0.32,,,,,,,,,,,,,,,,,,
423,0,0.0,0.33,,0.11,0.01,0.95,0,-0,-0,0.11,0,2100,0,0.0,0.0,0.0,0.0,0,0,0.0
425,0,0.0,0.33,,,,,,,,,,,,,,,,,,
427,0,0.0,0.34,,,,,,,,,,,,,,,,,,
429,0,0.0,0.33,,,,,,,,,,,,,,,,,,
431,0,0.0,0.33,,,,,,,,,,,,,,,,,,
433,0,0.0,0.33,,-0.17,0.1,1.0,-0,0,-0,0.2,,,,,,,,,,
435,0,0.0,0.33,,,,,,,,,,,,,,,,,,
437,0,0.0,0.32,,,,,,,,,,,,,,,,,,
439,0,0.0,0.33,,,,,,,,,,,,,,,,,,
441,0,0.0,0.33,,,,,,,,,,,,,,,,,,
443,0,0.0,0.33,,-0.14,0.09,1.09,1,-0,-0,0.16,0,2160,0,0.0,0.0,0.0,0.0,0,0,0.0
445,0,0.0,0.33,,,,,,,,,,,,,,,,,,
447,0,0.0,0.33,,,,,,,,,,,,,,,,,,
449,0,0.0,0.33,,,,,,,,,,,,,,,,,,
451,0,0.0,0.33,,,,,,,,,,,,,,,,,,
453,0,0.0,0.33,,0.03,0.04,1.01,-0,-0,-0,0.05,,,,,,,,,,
455,0,0.0,0.34,,,,,,,,,,,,,,,,,,
457,0,0.0,0.33,,,,,,,,,,,,,,,,,,
459,0,0.0,0.33,,,,,,,,,,,,,,,,,,
461,0,0.0,0.33,,,,,,,,,,,,,,,,,,
463,0,0.0,0.33,,-0.18,0.1,0.95,0,0,-0,0.21,0,2100,0,0.0,0.0,0.0,0.0,0,0,0.0
465,0,0.0,0.33,,,,,,,,,,,,,,,,,,
467,0,0.0,0.33,,,,,,,,,,,,,,,,,,
469,0,0.0,0.33,,,,,,,,,,,,,,,,,,
471,0,0.0,0.33,,,,,,,,,,,,,,,,,,
473,0,0.0,0.33,,0.0,0.05,1.02,1,-0,-0,0.05,,,,,,,,,,
475,0,0.0,0.33,,,,,,,,,,,,,,,,,,
477,0,0.0,0.34,,,,,,,,,,,,,,,,,,
479,0,0.0,0.33,,,,,,,,,,,,,,,,,,
481,0,0.0,0.34,,,,,,,,,,,,,,,,,,
483,0,0.0,0.35,,0.01,0.06,0.99,-0,0,-0,0.06,0,2160,0,0.0,0.0,0.0,0.0,0,0,0.0
485,0,0.0,0.34,,,,,,,,,,,,,,,,,,
487,0,0.0,0.34,,,,,,,,,,,,,,,,,,
489,0,0.0,0.34,,,,,,,,,,,,,,,,,,
491,0,0.0,0.33,,,,,,,,,,,,,,,,,,
493,0,0.0,0.34,,-0.2,0.13,0.97,0,-0,-1,0.23,,,,,,,,,,
495,0,0.0,0.34,,,,,,,,,,,,,,,,,,
497,0,0.0,0.34,,,,,,,,,,,,,,,,,,
499,0,0.0,0.34,,,,,,,,,,,,,,,,,,
501,0,0.0,0.34,,,,,,,,,,,,,,,,,,
503,0,0.0,0.34,,0.03,0.03,0.89,1,-1,-1,0.04,0,2160,0,0.0,0.0,0.0,0.0,0,0,0.0
505,0,0.0,0.34,,,,,,,,,,,,,,,,,,
507,0,0.0,0.34,,,,,,,,,,,,,,,,,,
509,0,0.0,0.34,,,,,,,,,,,,,,,,,,
511,0,0.0,0.35,,,,,,,,,,,,,,,,,,
513,0,0.0,0.34,,-0.03,0.1,1.01,-0,0,-1,0.11,,,,,,,,,,
515,0,0.0,0.34,,,,,,,,,,,,,,,,,,
517,0,0.0,0.34,,,,,,,,,,,,,,,,,,
519,0,0.0,0.34,,,,,,,,,,,,,,,,,,
521,0,0.0,0.34,,,,,,,,,,,,,,,,,,
523,0,0.0,0.34,,-0.26,0.13,1.08,0,-1,-1,0.29,0,2100,0,0.0,0.0,0.0,0.0,0,0,0.0
525,0,0.0,0.34,,,,,,,,,,,,,,,,,,
527,0,0.0,0.34,,,,,,,,,,,,,,,,,,
529,0,0.0,0.34,,,,,,,,,,,,,,,,,,
531,0,0.0,0.35,,,,,,,,,,,,,,,,,,
533,0,0.0,0.35,,0.13,-0.01,0.95,0,-1,-0,0.13,,,,,,,,,,
535,0,0.0,0.35,,,,,,,,,,,,,,,,,,
537,0,0.0,0.35,,,,,,,,,,,,,,,,,,
539,0,0.0,0.36,,,,,,,,,,,,,,,,,,
541,0,0.0,0.35,,,,,,,,,,,,,,,,,,
543,0,0.0,0.35,,-0.14,0.11,0.96,-0,1,-0,0.18,0,2160,0,0.0,0.0,0.0,0.0,0,0,0.0
545,0,0.0,0.35,,,,,,,,,,,,,,,,,,
547,0,0.0,0.35,,,,,,,,,,,,,,,,,,
549,0,0.0,0.35,,,,,,,,,,,,,,,,,,
551,0,0.0,0.35,,,,,,,,,,,,,,,,,,
553,0,0.0,0.35,,-0.19,0.12,1.05,0,-1,-0,0.22,,,,,,,,,,
555,0,0.0,0.35,,,,,,,,,,,,,,,,,,
557,0,0.0,0.35,,,,,,,,,,,,,,,,,,
559,0,0.0,0.35,,,,,,,,,,,,,,,,,,
561,0,0.0,0.35,,,,,,,,,,,,,,,,,,
563,0,0.0,0.35,,0.07,0.02,0.94,0,-1,-0,0.08,0,2160,0,0.0,0.0,0.0,0.0,0,0,0.0
565,0,0.0,0.35,,,,,,,,,,,,,,,,,,
567,0,0.0,0.36,,,,,,,,,,,,,,,,,,
569,0,0.0,0.35,,,,,,,,,,,,,,,,,,
571,0,0.0,0.35,,,,,,,,,,,,,,,,,,
573,0,0.0,0.35,,-0.09,0.11,0.95,-0,-0,-0,0.14,,,,,,,,,,
575,0,0.0,0.35,,,,,,,,,,,,,,,,,,
577,0,0.0,0.35,,,,,,,,,,,,,,,,,,
579,0,0.0,0.35,,,,,,,,,,,,,,,,,,
581,0,0.0,0.35,,,,,,,,,,,,,,,,,,
583,0,0.0,0.35,,-0.06,0.07,1.04,1,-0,-1,0.09,0,2100,0,0.0,0.0,0.0,0.0,0,0,0.0
585,0,0.0,0.35,,,,,,,,,,,,,,,,,,
587,0,0.0,0.36,,,,,,,,,,,,,,,,,,
589,0,0.0,0.36,,,,,,,,,,,,,,,,,,
591,0,0.0,0.36,,,,,,,,,,,,,,,,,,
593,0,0.0,0.36,,0.06,0.04,0.98,-0,-0,-0,0.07,,,,,,,,,,
595,0,0.0,0.36,,,,,,,,,,,,,,,,,,
597,0,0.0,0.36,,,,,,,,,,,,,,,,,,
599,0,0.0,0.36,,,,,,,,,,,,,,,,,,
601,0,0.0,0.36,,,,,,,,,,,,,,,,,,
603,0,0.0,0.36,,-0.18,0.13,0.98,-0,0,-1,0.22,0,2160,0,0.0,0.0,0.0,0.0,0,0,0.0
605,0,0.0,0.36,,,,,,,,,,,,,,,,,,
607,0,0.0,0.36,,,,,,,,,,,,,,,,,,
609,0,0.0,0.36,,,,,,,,,,,,,,,,,,
611,0,0.0,0.36,,,,,,,,,,,,,,,,,,
613,0,0.0,0.36,,-0.05,0.05,0.96,1,-1,-0,0.07,,,,,,,,,,
615,0,0.0,0.36,,,,,,,,,,,,,,,,,,
617,0,0.0,0.36,,,,,,,,,,,,,,,,,,
619,0,0.0,0.36,,,,,,,,,,,,,,,,,,
621,0,0.0,0.36,,,,,,,,,,,,,,,,,,
623,0,0.0,0.37,,-0.01,0.09,1.01,-0,0,-0,0.09,0,2100,0,0.0,0.0,0.0,0.0,0,0,0.0
625,0,0.0,0.36,,,,,,,,,,,,,,,,,,
627,0,0.0,0.36,,,,,,,,,,,,,,,,,,
629,0,0.0,0.36,,,,,,,,,,,,,,,,,,
631,0,0.0,0.36,,,,,,,,,,,,,,,,,,
633,0,0.0,0.36,,-0.29,0.11,1.02,0,-1,-0,0.31,,,,,,,,,,
635,0,0.0,0.36,,,,,,,,,,,,,,,,,,
637,0,0.0,0.36,,,,,,,,,,,,,,,,,,
639,0,0.0,0.36,,,,,,,,,,,,,,,,,,
641,0,0.0,0.37,,,,,,,,,,,,,,,,,,
643,0,0.0,0.37,,0.06,0.04,0.99,0,-1,-1,0.07,0,2100,0,0.0,0.0,0.0,0.0,0,0,0.0
645,0,0.0,0.37,,,,,,,,,,,,,,,,,,
647,0,0.0,0.37,,,,,,,,,,,,,,,,,,
649,0,0.0,0.37,,,,,,,,,,,,,,,,,,
651,0,0.0,0.37,,,,,,,,,,,,,,,,,,
653,0,0.0,0.37,,-0.07,0.09,0.99,-0,1,-0,0.12,,,,,,,,,,
655,0,0.0,0.37,,,,,,,,,,,,,,,,,,
657,0,0.0,0.37,,,,,,,,,,,,,,,,,,
659,0,0.0,0.37,,,,,,,,,,,,,,,,,,
661,0,0.0,0.37,,,,,,,,,,,,,,,,,,
663,0,0.0,0.37,,-0.23,0.14,1.06,0,-1,-1,0.27,0,2160,0,0.0,0.0,0.0,0.0,0,0,0.0
665,0,0.0,0.37,,,,,,,,,,,,,,,,,,
667,0,0.0,0.37,,,,,,,,,,,,,,,,,,
669,0,0.0,0.37,,,,,,,,,,,,,,,,,,
671,0,0.0,0.37,,,,,,,,,,,,,,,,,,
673,0,0.0,0.37,,0.06,0.02,0.85,0,-1,-0,0.06,,,,,,,,,,
675,0,0.0,0.37,,,,,,,,,,,,,,,,,,
677,0,0.0,0.37,,,,,,,,,,,,,,,,,,
679,0,0.0,0.38,,,,,,,,,,,,,,,,,,
681,0,0.0,0.37,,,,,,,,,,,,,,,,,,
683,0,0.0,0.37,,-0.06,0.12,0.97,-0,-0,-1,0.13,0,2100,0,0.0,0.0,0.0,0.0,0,0,0.0
685,0,0.0,0.37,,,,,,,,,,,,,,,,,,
687,0,0.0,0.37,,,,,,,,,,,,,,,,,,
689,0,0.0,0.37,,,,,,,,,,,,,,,,,,
691,0,0.0,0.38,,,,,,,,,,,,,,,,,,
693,0,0.0,0.37,,-0.15,0.1,1.05,1,-1,-0,0.18,,,,,,,,,,
695,0,0.0,0.37,,,,,,,,,,,,,,,,,,
697,0,0.0,0.38,,,,,,,,,,,,,,,,,,
699,0,0.0,0.37,,,,,,,,,,,,,,,,,,
701,0,0.0,0.38,,,,,,,,,,,,,,,,,,
703,0,0.0,0.38,,0.09,0.03,0.96,-0,-0,-0,0.09,0,2100,0,0.0,0.0,0.0,0.0,0,0,0.0
705,0,0.0,0.38,,,,,,,,,,,,,,,,,,
707,0,0.0,0.38,,,,,,,,,,,,,,,,,,
709,0,0.0,0.38,,,,,,,,,,,,,,,,,,
711,0,0.0,0.38,,,,,,,,,,,,,,,,,,
713,0,0.0,0.38,,-0.19,0.09,1.01,-0,0,-0,0.21,,,,,,,,,,
715,0,0.0,0.38,,,,,,,,,,,,,,,,,,
717,0,0.0,0.38,,,,,,,,,,,,,,,,,,
719,0,0.0,0.38,,,,,,,,,,,,,,,,,,
721,0,0.0,0.38,,,,,,,,,,,,,,,,,,
723,0,0.0,0.38,,-0.13,0.07,1.05,1,-0,-0,0.15,0,2160,0,0.0,0.0,0.0,0.0,0,0,0.0
725,0,0.0,0.38,,,,,,,,,,,,,,,,,,
727,0,0.0,0.38,,,,,,,,,,,,,,,,,,
729,0,0.0,0.38,,,,,,,,,,,,,,,,,,
731,0,0.0,0.38,,,,,,,,,,,,,,,,,,
733,0,0.0,0.38,,0.03,0.06,1.0,-0,-0,-0,0.06,,,,,,,,,,
735,0,0.0,0.39,,,,,,,,,,,,,,,,,,
737,0,0.0,0.39,,,,,,,,,,,,,,,,,,
739,0,0.0,0.38,,,,,,,,,,,,,,,,,,
741,0,0.0,0.38,,,,,,,,,,,,,,,,,,
743,0,0.0,0.38,,-0.19,0.11,0.95,0,-0,-1,0.22,0,2100,0,0.0,0.0,0.0,0.0,0,0,0.0
745,0,0.0,0.38,,,,,,,,,,,,,,,,,,
747,0,0.0,0.38,,,,,,,,,,,,,,,,,,
749,0,0.0,0.39,,,,,,,,,,,,,,,,,,
751,0,0.0,0.39,,,,,,,,,,,,,,,,,,
753,0,0.0,0.39,,-0.01,0.04,1.02,1,-1,-0,0.04,,,,,,,,,,
755,0,0.0,0.39,,,,,,,,,,,,,,,,,,
757,0,0.0,0.39,,,,,,,,,,,,,,,,,,
759,0,0.0,0.39,,,,,,,,,,,,,,,,,,
761,0,0.0,0.39,,,,,,,,,,,,,,,,,,
763,0,0.0,0.39,,0.02,0.07,0.98,-0,0,-0,0.08,0,2160,0,0.0,0.0,0.0,0.0,0,0,0.0
765,0,0.0,0.39,,,,,,,,,,,,,,,,,,
767,0,0.0,0.39,,,,,,,,,,,,,,,,,,
769,0,0.0,0.39,,,,,,,,,,,,,,,,,,
771,0,0.0,0.39,,,,,,,,,,,,,,,,,,
773,0,0.0,0.39,,-0.18,0.12,0.96,0,-1,-1,0.22,,,,,,,,,,
775,0,0.0,0.39,,,,,,,,,,,,,,,,,,
777,0,0.0,0.39,,,,,,,,,,,,,,,,,,
779,0,0.0,0.39,,,,,,,,,,,,,,,,,,
781,0,0.0,0.39,,,,,,,,,,,,,,,,,,
783,0,0.0,0.39,,0.04,0.02,0.88,0,-1,-0,0.04,0,2160,0,0.0,0.0,0.0,0.0,0,0,0.0
785,0,0.01,0.39,,,,,,,,,,,,,,,,,,
787,0,0.0,0.39,,,,,,,,,,,,,,,,,,
789,0,0.0,0.39,,,,,,,,,,,,,,,,,,
791,0,0.0,0.41,,,,,,,,,,,,,,,,,,
793,0,0.0,0.39,,-0.02,0.11,0.99,-0,0,-0,0.11,,,,,,,,,,
795,0,0.0,0.39,,,,,,,,,,,,,,,,,,
797,0,0.0,0.39,,,,,,,,,,,,,,,,,,
799,0,0.0,0.39,,,,,,,,,,,,,,,,,,
801,0,0.0,0.39,,,,,,,,,,,,,,,,,,
803,0,0.0,0.39,,-0.25,0.12,1.06,0,-1,-1,0.28,0,2100,0,0.0,0.0,0.0,0.0,0,0,0.0
805,0,0.0,0.4,,,,,,,,,,,,,,,,,,
807,0,0.0,0.4,,,,,,,,,,,,,,,,,,
809,0,0.0,0.4,,,,,,,,,,,,,,,,,,
811,0,0.0,0.4,,,,,,,,,,,,,,,,,,
813,0,0.0,0.4,,0.14,0.0,0.94,0,-1,-0,0.14,,,,,,,,,,
815,0,0.0,0.4,,,,,,,,,,,,,,,,,,
817,0,0.0,0.4,,,,,,,,,,,,,,,,,,
819,0,0.0,0.41,,,,,,,,,,,,,,,,,,
821,0,0.0,0.4,,,,,,,,,,,,,,,,,,
823,0,0.0,0.4,,-0.13,0.12,0.98,-0,0,-0,0.18,0,2100,0,0.0,0.0,0.0,0.0,0,0,0.0
825,0,0.0,0.4,,,,,,,,,,,,,,,,,,
827,0,0.0,0.4,,,,,,,,,,,,,,,,,,
829,0,0.0,0.4,,,,,,,,,,,,,,,,,,
831,0,0.0,0.4,,,,,,,,,,,,,,,,,,
833,0,0.0,0.4,,-0.21,0.11,1.05,0,-1,-0,0.24,,,,,,,,,,
835,0,0.0,0.4,,,,,,,,,,,,,,,,,,
837,0,0.0,0.4,,,,,,,,,,,,,,,,,,
839,0,0.0,0.4,,,,,,,,,,,,,,,,,,
841,0,0.0,0.4,,,,,,,,,,,,,,,,,,
843,0,0.0,0.4,,0.06,0.04,0.89,-0,-1,-0,0.08,0,2100,0,0.0,0.0,0.0,0.0,0,0,0.0
845,0,0.0,0.4,,,,,,,,,,,,,,,,,,
847,0,0.0,0.42,,,,,,,,,,,,,,,,,,
849,0,0.0,0.41,,,,,,,,,,,,,,,,,,
851,0,0.0,0.4,,,,,,,,,,,,,,,,,,
853,0,0.0,0.41,,-0.09,0.12,0.92,-0,-0,-0,0.15,,,,,,,,,,
855,0,0.0,0.41,,,,,,,,,,,,,,,,,,
857,0,0.0,0.4,,,,,,,,,,,,,,,,,,
859,0,0.0,0.4,,,,,,,,,,,,,,,,,,
861,0,0.0,0.41,,,,,,,,,,,,,,,,,,
863,0,0.0,0.41,,-0.02,0.07,0.99,1,-0,-0,0.07,0,2100,0,0.0,0.0,0.0,0.0,0,0,0.0
865,0,0.0,0.41,,,,,,,,,,,,,,,,,,
867,0,0.0,0.41,,,,,,,,,,,,,,,,,,
869,0,0.0,0.41,,,,,,,,,,,,,,,,,,
871,0,0.0,0.41,,,,,,,,,,,,,,,,,,
873,0,0.0,0.41,,0.05,0.06,0.96,-0,0,-0,0.08,,,,,,,,,,
875,0,0.0,0.43,,,,,,,,,,,,,,,,,,
877,0,0.0,0.41,,,,,,,,,,,,,,,,,,
879,0,0.0,0.41,,,,,,,,,,,,,,,,,,
881,0,0.0,0.41,,,,,,,,,,,,,,,,,,
883,0,0.0,0.41,,-0.17,0.12,0.96,-0,0,-1,0.2,0,2100,0,0.0,0.0,0.0,0.0,0,0,0.0
885,0,0.0,0.41,,,,,,,,,,,,,,,,,,
887,0,0.0,0.41,,,,,,,,,,,,,,,,,,
889,0,0.0,0.41,,,,,,,,,,,,,,,,,,
891,0,0.0,0.41,,,,,,,,,,,,,,,,,,
893,0,0.0,0.41,,-0.04,0.05,1.03,1,-0,-0,0.06,,,,,,,,,,
895,0,0.0,0.41,,,,,,,,,,,,,,,,,,
897,0,0.0,0.41,,,,,,,,,,,,,,,,,,
899,0,0.0,0.41,,,,,,,,,,,,,,,,,,
901,0,0.0,0.42,,,,,,,,,,,,,,,,,,
903,0,0.0,0.43,,-0.03,0.11,1.05,-0,0,-0,0.11,0,2100,0,0.0,0.0,0.0,0.0,0,0,0.0
905,0,0.0,0.42,,,,,,,,,,,,,,,,,,
907,0,0.0,0.41,,,,,,,,,,,,,,,,,,
909,0,0.0,0.41,,,,,,,,,,,,,,,,,,
911,0,0.0,0.42,,,,,,,,,,,,,,,,,,
913,0,0.0,0.42,,-0.3,0.12,1.07,0,-0,-0,0.33,,,,,,,,,,
915,0,0.0,0.42,,,,,,,,,,,,,,,,,,
917,0,0.0,0.42,,,,,,,,,,,,,,,,,,
919,0,0.0,0.42,,,,,,,,,,,,,,,,,,
921,0,0.0,0.42,,,,,,,,,,,,,,,,,,
923,0,0.0,0.42,,0.1,0.02,0.98,0,-0,-1,0.1,0,2100,0,0.0,0.0,0.0,0.0,0,0,0.0
925,0,0.0,0.42,,,,,,,,,,,,,,,,,,
927,0,0.0,0.42,,,,,,,,,,,,,,,,,,
929,0,0.0,0.42,,,,,,,,,,,,,,,,,,
931,0,0.0,0.44,,,,,,,,,,,,,,,,,,
933,0,0.0,0.42,,-0.09,0.11,1.01,-0,1,-0,0.14,,,,,,,,,,
935,0,0.0,0.42,,,,,,,,,,,,,,,,,,
937,0,0.0,0.42,,,,,,,,,,,,,,,,,,
939,0,0.0,0.42,,,,,,,,,,,,,,,,,,
941,0,0.0,0.42,,,,,,,,,,,,,,,,,,
943,0,0.0,0.42,,-0.23,0.13,1.08,0,-1,-1,0.26,0,2100,0,0.0,0.0,0.0,0.0,0,0,0.0
945,0,0.0,0.42,,,,,,,,,,,,,,,,,,
947,0,0.0,0.42,,,,,,,,,,,,,,,,,,
949,0,0.0,0.42,,,,,,,,,,,,,,,,,,
951,0,0.0,0.43,,,,,,,,,,,,,,,,,,
953,0,0.0,0.43,,0.07,0.01,0.88,0,-1,-0,0.07,,,,,,,,,,
955,0,0.0,0.43,,,,,,,,,,,,,,,,,,
957,0,0.0,0.43,,,,,,,,,,,,,,,,,,
959,0,0.0,0.44,,,,,,,,,,,,,,,,,,
961,0,0.0,0.43,,,,,,,,,,,,,,,,,,
963,0,0.0,0.43,,-0.06,0.12,0.98,-0,0,-1,0.14,0,2100,0,0.0,0.0,0.0,0.0,0,0,0.0
965,0,0.0,0.43,,,,,,,,,,,,,,,,,,
967,0,0.0,0.43,,,,,,,,,,,,,,,,,,
969,0,0.0,0.43,,,,,,,,,,,,,,,,,,
971,0,0.0,0.43,,,,,,,,,,,,,,,,,,
973,0,0.0,0.43,,-0.15,0.09,1.03,0,-0,-1,0.18,,,,,,,,,,
975,0,0.0,0.43,,,,,,,,,,,,,,,,,,
977,0,0.0,0.43,,,,,,,,,,,,,,,,,,
979,0,0.0,0.43,,,,,,,,,,,,,,,,,,
981,0,0.0,0.43,,,,,,,,,,,,,,,,,,
983,0,0.0,0.43,,0.08,0.02,0.97,0,-0,-0,0.08,0,2100,0,0.0,0.0,0.0,0.0,0,0,0.0
985,0,0.0,0.43,,,,,,,,,,,,,,,,,,
987,0,0.0,0.45,,,,,,,,,,,,,,,,,,
989,0,0.0,0.43,,,,,,,,,,,,,,,,,,
991,0,0.0,0.43,,,,,,,,,,,,,,,,,,
993,0,0.0,0.43,,-0.2,0.1,0.99,-0,0,-0,0.22,,,,,,,,,,
995,0,0.0,0.43,,,,,,,,,,,,,,,,,,
997,0,0.0,0.43,,,,,,,,,,,,,,,,,,
999,0,0.0,0.43,,,,,,,,,,,,,,,,,,
1001,0,0.0,0.43,,,,,,,,,,,,,,,,,,
1003,0,0.0,0.43,,-0.13,0.07,1.0,1,-0,-0,0.15,0,2100,0,0.0,0.0,0.0,0.0,0,0,0.0
1005,0,0.0,0.43,,,,,,,,,,,,,,,,,,
1007,0,0.0,0.43,,,,,,,,,,,,,,,,,,
1009,0,0.0,0.44,,,,,,,,,,,,,,,,,,
1011,0,0.0,0.44,,,,,,,,,,,,,,,,,,
1013,0,0.0,0.44,,0.01,0.05,1.01,-0,-0,-0,0.05,,,,,,,,,,
1015,0,0.0,0.45,,,,,,,,,,,,,,,,,,
1017,0,0.0,0.44,,,,,,,,,,,,,,,,,,
1019,0,0.0,0.44,,,,,,,,,,,,,,,,,,
1021,0,0.0,0.44,,,,,,,,,,,,,,,,,,
1023,0,0.0,0.44,,-0.23,0.11,0.96,-0,0,-0,0.25,0,2100,0,0.0,0.0,0.0,0.0,0,0,0.0
1025,0,0.0,0.44,,,,,,,,,,,,,,,,,,
1027,0,0.0,0.44,,,,,,,,,,,,,,,,,,
1029,0,0.0,0.44,,,,,,,,,,,,,,,,,,
1031,0,0.0,0.44,,,,,,,,,,,,,,,,,,
1033,0,0.0,0.44,,-0.01,0.03,1.02,1,-0,-0,0.03,,,,,,,,,,
1035,0,0.0,0.44,,,,,,,,,,,,,,,,,,
1037,0,0.0,0.44,,,,,,,,,,,,,,,,,,
1039,0,0.0,0.44,,,,,,,,,,,,,,,,,,
1041,0,0.0,0.44,,,,,,,,,,,,,,,,,,
1043,0,0.0,0.46,13.41,0.01,0.06,0.97,-0,0,-0,0.06,0,2100,0,0.0,0.0,0.0,0.0,0,0,0.0
1045,0,0.0,0.45,,,,,,,,,,,,,,,,,,
1047,0,0.0,0.45,,,,,,,,,,,,,,,,,,
1049,0,0.0,0.45,,,,,,,,,,,,,,,,,,
1051,0,0.0,0.44,,,,,,,,,,,,,,,,,,
1053,0,0.0,0.44,,-0.19,0.14,0.95,0,-0,-0,0.23,,,,,,,,,,
1055,0,0.0,0.44,,,,,,,,,,,,,,,,,,
1057,0,0.0,0.45,,,,,,,,,,,,,,,,,,
1059,0,0.0,0.44,,,,,,,,,,,,,,,,,,
1061,0,0.0,0.44,,,,,,,,,,,,,,,,,,
1063,0,0.0,0.45,,0.02,0.0,0.88,1,-1,-0,0.02,0,2100,0,0.0,0.0,0.0,0.0,0,0,0.0
1065,0,0.0,0.45,,,,,,,,,,,,,,,,,,
1067,0,0.0,0.45,,,,,,,,,,,,,,,,,,
1069,0,0.0,0.45,,,,,,,,,,,,,,,,,,
1071,0,0.0,0.46,,,,,,,,,,,,,,,,,,
1073,0,0.0,0.45,,-0.04,0.11,1.0,-0,0,-0,0.11,,,,,,,,,,
1075,0,0.0,0.45,,,,,,,,,,,,,,,,,,
1077,0,0.0,0.45,,,,,,,,,,,,,,,,,,
1079,0,0.0,0.44,,,,,,,,,,,,,,,,,,
1081,0,0.0,0.45,,,,,,,,,,,,,,,,,,
1083,0,0.0,0.45,,-0.27,0.13,1.07,0,-1,-1,0.3,0,2100,0,0.0,0.0,0.0,0.0,0,0,0.0
1085,0,0.0,0.45,,,,,,,,,,,,,,,,,,
1087,0,0.0,0.45,,,,,,,,,,,,,,,,,,
1089,0,0.0,0.45,,,,,,,,,,,,,,,,,,
1091,0,0.0,0.45,,,,,,,,,,,,,,,,,,
1093,0,0.0,0.45,,0.13,0.01,0.95,0,-1,-1,0.13,,,,,,,,,,
1095,0,0.0,0.45,,,,,,,,,,,,,,,,,,
1097,0,0.0,0.45,,,,,,,,,,,,,,,,,,
1099,0,0.0,0.47,,,,,,,,,,,,,,,,,,
1101,0,0.0,0.46,,,,,,,,,,,,,,,,,,
1103,0,0.0,0.46,,-0.15,0.12,0.99,-0,0,-0,0.2,0,2100,0,0.0,0.0,0.0,0.0,0,0,0.0
1105,0,0.0,0.46,,,,,,,,,,,,,,,,,,
1107,0,0.0,0.46,,,,,,,,,,,,,,,,,,
1109,0,0.0,0.46,,,,,,,,,,,,,,,,,,
1111,0,0.0,0.46,,,,,,,,,,,,,,,,,,
1113,0,0.0,0.45,,-0.19,0.12,1.04,0,-1,-0,0.23,,,,,,,,,,
1115,0,0.0,0.46,,,,,,,,,,,,,,,,,,
1117,0,0.0,0.46,,,,,,,,,,,,,,,,,,
1119,0,0.0,0.46,,,,,,,,,,,,,,,,,,
1121,0,0.0,0.46,,,,,,,,,,,,,,,,,,
1123,0,0.0,0.45,,0.07,0.04,0.92,0,-1,-0,0.08,0,2100,0,0.0,0.0,0.0,0.0,0,0,0.0
1125,0,0.0,0.46,,,,,,,,,,,,,,,,,,
1127,0,0.0,0.47,,,,,,,,,,,,,,,,,,
1129,0,0.0,0.46,,,,,,,,,,,,,,,,,,
1131,0,0.0,0.46,,,,,,,,,,,,,,,,,,
1133,0,0.0,0.46,,-0.09,0.12,0.97,-0,-0,-0,0.15,,,,,,,,,,
1135,0,0.0,0.46,,,,,,,,,,,,,,,,,,
1137,0,0.0,0.46,,,,,,,,,,,,,,,,,,
1139,0,0.0,0.46,,,,,,,,,,,,,,,,,,
1141,0,0.0,0.46,,,,,,,,,,,,,,,,,,
1143,0,0.0,0.46,,-0.05,0.09,1.04,1,-1,-0,0.1,0,2100,0,0.0,0.0,0.0,0.0,0,0,0.0
1145,0,0.0,0.46,,,,,,,,,,,,,,,,,,
1147,0,0.0,0.46,,,,,,,,,,,,,,,,,,
1149,0,0.0,0.46,,,,,,,,,,,,,,,,,,
1151,0,0.0,0.47,,,,,,,,,,,,,,,,,,
1153,0,0.0,0.46,,0.08,0.03,1.0,-0,-1,-0,0.08,,,,,,,,,,
1155,0,0.0,0.48,,,,,,,,,,,,,,,,,,
1157,0,0.0,0.47,,,,,,,,,,,,,,,,,,
1159,0,0.0,0.47,,,,,,,,,,,,,,,,,,
1161,0,0.0,0.47,,,,,,,,,,,,,,,,,,
1163,0,0.0,0.47,,-0.17,0.12,0.95,-0,0,-1,0.2,0,2100,0,0.0,0.0,0.0,0.0,0,0,0.0
1165,0,0.0,0.47,,,,,,,,,,,,,,,,,,
1167,0,0.0,0.47,,,,,,,,,,,,,,,,,,
1169,0,0.0,0.46,,,,,,,,,,,,,,,,,,
1171,0,0.0,0.47,,,,,,,,,,,,,,,,,,
1173,0,0.0,0.47,,-0.03,0.06,0.96,1,-0,-0,0.07,,,,,,,,,,
1175,0,0.0,0.47,,,,,,,,,,,,,,,,,,
1177,0,0.0,0.47,,,,,,,,,,,,,,,,,,
1179,0,0.0,0.47,,,,,,,,,,,,,,,,,,
1181,0,0.0,0.47,,,,,,,,,,,,,,,,,,
1183,0,0.0,0.48,,0.01,0.07,1.03,0,0,-0,0.07,0,2100,0,0.0,0.0,0.0,0.0,0,0,0.0
1185,0,0.0,0.47,,,,,,,,,,,,,,,,,,
1187,0,0.0,0.47,,,,,,,,,,,,,,,,,,
1189,0,0.0,0.47,,,,,,,,,,,,,,,,,,
1191,0,0.0,0.47,,,,,,,,,,,,,,,,,,
1193,0,0.0,0.47,,-0.28,0.09,1.0,0,-0,-1,0.3,,,,,,,,,,
1195,0,0.0,0.47,,,,,,,,,,,,,,,,,,
1197,0,0.0,0.47,,,,,,,,,,,,,,,,,,
1199,0,0.0,0.47,,,,,,,,,,,,,,,,,,
1201,0,0.0,0.47,,,,,,,,,,,,,,,,,,
1203,0,0.0,0.47,,0.06,0.01,1.0,1,-0,-0,0.06,0,2100,0,0.0,0.0,0.0,0.0,0,0,0.0
1205,0,0.0,0.47,,,,,,,,,,,,,,,,,,
1207,0,0.0,0.48,,,,,,,,,,,,,,,,,,
1209,0,0.0,0.47,,,,,,,,,,,,,,,,,,
1211,0,0.0,0.49,,,,,,,,,,,,,,,,,,
1213,0,0.0,0.48,,-0.03,0.06,0.97,-0,1,-0,0.07,,,,,,,,,,
1215,0,0.0,0.48,,,,,,,,,,,,,,,,,,
1217,0,0.0,0.48,,,,,,,,,,,,,,,,,,
1219,0,0.0,0.48,,,,,,,,,,,,,,,,,,
1221,0,0.0,0.48,,,,,,,,,,,,,,,,,,
1223,0,0.0,0.47,,-0.23,0.12,1.04,0,-0,-1,0.26,0,2100,0,0.0,0.0,0.0,0.0,0,0,0.0
1225,0,0.0,0.48,,,,,,,,,,,,,,,,,,
1227,0,0.0,0.47,,,,,,,,,,,,,,,,,,
1229,0,0.0,0.47,,,,,,,,,,,,,,,,,,
1231,0,0.0,0.47,,,,,,,,,,,,,,,,,,
1233,0,0.0,0.48,,0.05,-0.03,0.88,0,-1,-0,0.06,,,,,,,,,,
1235,0,0.0,0.48,,,,,,,,,,,,,,,,,,
1237,0,0.0,0.48,,,,,,,,,,,,,,,,,,
1239,0,0.0,0.48,,,,,,,,,,,,,,,,,,
1241,0,0.0,0.48,,,,,,,,,,,,,,,,,,
1243,0,0.0,0.48,,-0.06,0.09,0.98,-0,0,-0,0.11,0,2100,0,0.0,0.0,0.0,0.0,0,0,0.0
1245,0,0.0,0.48,,,,,,,,,,,,,,,,,,
1247,0,0.0,0.48,,,,,,,,,,,,,,,,,,
1249,0,0.0,0.47,,,,,,,,,,,,,,,,,,
1251,0,0.0,0.48,,,,,,,,,,,,,,,,,,
1253,0,0.0,0.48,,-0.21,0.1,1.07,0,-1,-0,0.24,,,,,,,,,,
1255,0,0.0,0.48,,,,,,,,,,,,,,,,,,
1257,0,0.0,0.48,,,,,,,,,,,,,,,,,,
1259,0,0.0,0.48,,,,,,,,,,,,,,,,,,
1261,0,0.0,0.48,,,,,,,,,,,,,,,,,,
1263,0,0.0,0.48,,0.11,-0.01,0.93,0,-1,-0,0.11,0,2100,0,0.0,0.0,0.0,0.0,0,0,0.0
1265,0,0.0,0.48,,,,,,,,,,,,,,,,,,
1267,0,0.0,0.48,,,,,,,,,,,,,,,,,,
1269,0,0.0,0.49,,,,,,,,,,,,,,,,,,
1271,0,0.0,0.49,,,,,,,,,,,,,,,,,,
1273,0,0.0,0.49,,-0.2,0.09,1.02,-0,0,-0,0.22,,,,,,,,,,
1275,0,0.0,0.49,,,,,,,,,,,,,,,,,,
1277,0,0.0,0.48,,,,,,,,,,,,,,,,,,
1279,0,0.0,0.49,,,,,,,,,,,,,,,,,,
1281,0,0.0,0.49,,,,,,,,,,,,,,,,,,
1283,0,0.0,0.48,,-0.18,0.09,1.07,0,-1,-0,0.2,0,2100,0,0.0,0.0,0.0,0.0,0,0,0.0
1285,0,0.0,0.48,,,,,,,,,,,,,,,,,,
1287,0,0.0,0.48,,,,,,,,,,,,,,,,,,
1289,0,0.0,0.49,,,,,,,,,,,,,,,,,,
1291,0,0.0,0.49,,,,,,,,,,,,,,,,,,
1293,0,0.0,0.49,,0.04,0.03,0.95,-0,-1,-0,0.05,,,,,,,,,,
1295,0,0.0,0.49,,,,,,,,,,,,,,,,,,
1297,0,0.0,0.5,,,,,,,,,,,,,,,,,,
1299,0,0.0,0.49,,,,,,,,,,,,,,,,,,
1301,0,0.0,0.49,,,,,,,,,,,,,,,,,,
1303,0,0.0,0.49,,-0.15,0.12,0.97,-0,-0,0,0.19,0,2100,0,0.0,0.0,0.0,0.0,0,0,0.0
1305,0,0.0,0.49,,,,,,,,,,,,,,,,,,
1307,0,0.0,0.49,,,,,,,,,,,,,,,,,,
1309,0,0.0,0.49,,,,,,,,,,,,,,,,,,
1311,0,0.0,0.49,,,,,,,,,,,,,,,,,,
1313,0,0.0,0.49,,-0.02,0.07,1.02,1,-1,-0,0.07,,,,,,,,,,
1315,0,0.0,0.49,,,,,,,,,,,,,,,,,,
1317,0,0.0,0.49,,,,,,,,,,,,,,,,,,
1319,0,0.0,0.49,,,,,,,,,,,,,,,,,,
1321,0,0.0,0.49,,,,,,,,,,,,,,,,,,
1323,0,0.0,0.49,,0.04,0.07,0.99,-0,-1,0,0.08,0,2100,0,0.0,0.0,0.0,0.0,0,0,0.0
1325,0,0.0,0.51,,,,,,,,,,,,,,,,,,
1327,0,0.0,0.5,,,,,,,,,,,,,,,,,,
1329,0,0.0,0.49,,,,,,,,,,,,,,,,,,
1331,0,0.0,0.5,,,,,,,,,,,,,,,,,,
1333,0,0.0,0.5,,-0.18,0.15,0.98,-0,-0,0,0.23,,,,,,,,,,
1335,0,0.0,0.5,,,,,,,,,,,,,,,,,,
1337,0,0.0,0.49,,,,,,,,,,,,,,,,,,
1339,0,0.0,0.5,,,,,,,,,,,,,,,,,,
1341,0,0.0,0.5,,,,,,,,,,,,,,,,,,
1343,0,0.0,0.5,,-0.03,0.05,0.96,0,-1,0,0.06,0,2160,0,0.0,0.0,0.0,0.0,0,0,0.0
1345,0,0.0,0.5,,,,,,,,,,,,,,,,,,
1347,0,0.0,0.5,,,,,,,,,,,,,,,,,,
1349,0,0.0,0.5,,,,,,,,,,,,,,,,,,
1351,0,0.0,0.5,,,,,,,,,,,,,,,,,,
1353,0,0.0,0.51,,-0.02,0.14,1.03,-0,0,-0,0.14,,,,,,,,,,
1355,0,0.0,0.5,,,,,,,,,,,,,,,,,,
1357,0,0.0,0.5,,,,,,,,,,,,,,,,,,
1359,0,0.0,0.5,,,,,,,,,,,,,,,,,,
1361,0,0.0,0.5,,,,,,,,,,,,,,,,,,
1363,0,0.0,0.5,,-0.3,0.15,1.05,0,-0,-0,0.34,0,2100,0,0.0,0.0,0.0,0.0,0,0,0.0
1365,0,0.0,0.5,,,,,,,,,,,,,,,,,,
1367,0,0.0,0.5,,,,,,,,,,,,,,,,,,
1369,0,0.0,0.5,,,,,,,,,,,,,,,,,,
1371,0,0.0,0.5,,,,,,,,,,,,,,,,,,
1373,0,0.0,0.5,,0.08,0.04,0.98,0,-1,-0,0.09,,,,,,,,,,
1375,0,0.0,0.5,,,,,,,,,,,,,,,,,,
1377,0,0.0,0.51,,,,,,,,,,,,,,,,,,
1379,0,0.0,0.51,,,,,,,,,,,,,,,,,,
1381,0,0.0,0.52,,,,,,,,,,,,,,,,,,
1383,0,0.0,0.51,,-0.09,0.14,1.01,-0,1,-0,0.17,0,2160,0,0.0,0.0,0.0,0.0,0,0,0.0
1385,0,0.0,0.51,,,,,,,,,,,,,,,,,,
1387,0,0.0,0.51,,,,,,,,,,,,,,,,,,
1389,0,0.0,0.5,,,,,,,,,,,,,,,,,,
1391,0,0.0,0.51,,,,,,,,,,,,,,,,,,
1393,0,0.0,0.5,,-0.24,0.15,1.08,0,-1,-1,0.28,,,,,,,,,,
1395,0,0.0,0.51,,,,,,,,,,,,,,,,,,
1397,0,0.0,0.5,,,,,,,,,,,,,,,,,,
1399,0,0.0,0.51,,,,,,,,,,,,,,,,,,
1401,0,0.0,0.51,,,,,,,,,,,,,,,,,,
1403,0,0.0,0.51,,0.05,0.04,0.87,0,-1,-1,0.06,0,2160,0,0.0,0.0,0.0,0.0,0,0,0.0
1405,0,0.0,0.51,,,,,,,,,,,,,,,,,,
1407,0,0.0,0.51,,,,,,,,,,,,,,,,,,
1409,0,0.0,0.52,,,,,,,,,,,,,,,,,,
1411,0,0.0,0.51,,,,,,,,,,,,,,,,,,
1413,0,0.0,0.51,,-0.1,0.14,0.99,-0,1,-1,0.17,,,,,,,,,,
1415,0,0.0,0.51,,,,,,,,,,,,,,,,,,
1417,0,0.0,0.51,,,,,,,,,,,,,,,,,,
1419,0,0.0,0.51,,,,,,,,,,,,,,,,,,
1421,0,0.0,0.51,,,,,,,,,,,,,,,,,,
1423,0,0.0,0.51,,-0.16,0.09,1.04,0,-0,-1,0.19,0,2100,0,0.0,0.0,0.0,0.0,0,0,0.0
1425,0,0.0,0.51,,,,,,,,,,,,,,,,,,
1427,0,0.0,0.51,,,,,,,,,,,,,,,,,,
1429,0,0.0,0.51,,,,,,,,,,,,,,,,,,
1431,0,0.0,0.51,,,,,,,,,,,,,,,,,,
1433,0,0.0,0.51,,0.05,0.04,0.96,-0,0,-1,0.06,,,,,,,,,,
1435,0,0.0,0.51,,,,,,,,,,,,,,,,,,
1437,0,0.0,0.53,,,,,,,,,,,,,,,,,,
1439,0,0.0,0.52,,,,,,,,,,,,,,,,,,
1441,0,0.0,0.52,,,,,,,,,,,,,,,,,,
1443,0,0.0,0.51,,-0.24,0.09,0.99,-0,1,-1,0.25,0,2160,0,0.0,0.0,0.0,0.0,0,0,0.0
1445,0,0.0,0.51,,,,,,,,,,,,,,,,,,
1447,0,0.0,0.51,,,,,,,,,,,,,,,,,,
1449,0,0.0,0.51,,,,,,,,,,,,,,,,,,
1451,0,0.0,0.51,,,,,,,,,,,,,,,,,,
1453,0,0.0,0.51,,-0.16,0.09,1.02,0,0,-1,0.18,,,,,,,,,,
1455,0,0.0,0.52,,,,,,,,,,,,,,,,,,
1457,0,0.0,0.51,,,,,,,,,,,,,,,,,,
1459,0,0.0,0.51,,,,,,,,,,,,,,,,,,
1461,0,0.0,0.51,,,,,,,,,,,,,,,,,,
1463,0,0.0,0.52,,-0.04,0.02,1.01,-0,0,-1,0.04,0,2160,0,0.0,0.0,0.0,0.0,0,0,0.0
1465,0,0.0,0.53,,,,,,,,,,,,,,,,,,
1467,0,0.0,0.52,,,,,,,,,,,,,,,,,,
1469,0,0.0,0.52,,,,,,,,,,,,,,,,,,
1471,0,0.0,0.52,,,,,,,,,,,,,,,,,,
1473,0,0.0,0.52,,-0.31,0.09,0.98,-0,1,-1,0.32,,,,,,,,,,
1475,0,0.0,0.52,,,,,,,,,,,,,,,,,,
1477,0,0.0,0.52,,,,,,,,,,,,,,,,,,
1479,0,0.0,0.52,,,,,,,,,,,,,,,,,,
1481,0,0.0,0.52,,,,,,,,,,,,,,,,,,
1483,0,0.0,0.52,,-0.07,0.03,1.03,1,-0,-1,0.08,0,2100,0,0.0,0.0,0.0,0.0,0,0,0.0
1485,0,0.0,0.52,,,,,,,,,,,,,,,,,,
1487,0,0.0,0.52,,,,,,,,,,,,,,,,,,
1489,0,0.0,0.52,,,,,,,,,,,,,,,,,,
1491,0,0.0,0.52,,,,,,,,,,,,,,,,,,
1493,0,0.0,0.53,,-0.07,0.03,0.98,-0,1,-1,0.08,,,,,,,,,,
1495,0,0.0,0.53,,,,,,,,,,,,,,,,,,
1497,0,0.0,0.52,,,,,,,,,,,,,,,,,,
1499,0,0.0,0.52,,,,,,,,,,,,,,,,,,
1501,0,0.0,0.52,,,,,,,,,,,,,,,,,,
1503,0,0.0,0.52,,-0.28,0.12,0.98,0,0,-1,0.3,0,2100,0,0.0,0.0,0.0,0.0,0,0,0.0
1505,0,0.0,0.52,,,,,,,,,,,,,,,,,,
1507,0,0.0,0.52,,,,,,,,,,,,,,,,,,
1509,0,0.0,0.52,,,,,,,,,,,,,,,,,,
1511,0,0.0,0.53,,,,,,,,,,,,,,,,,,
1513,0,0.0,0.52,,-0.05,0.02,0.89,1,-1,-1,0.05,,,,,,,,,,
1515,0,0.0,0.53,,,,,,,,,,,,,,,,,,
1517,0,0.0,0.53,,,,,,,,,,,,,,,,,,
1519,0,0.0,0.53,,,,,,,,,,,,,,,,,,
1521,0,0.0,0.54,,,,,,,,,,,,,,,,,,
1523,0,0.0,0.53,,-0.14,0.07,0.99,0,1,-1,0.16,0,2100,0,0.0,0.0,0.0,0.0,0,0,0.0
1525,0,0.0,0.53,,,,,,,,,,,,,,,,,,
1527,0,0.0,0.53,,,,,,,,,,,,,,,,,,
1529,0,0.0,0.53,,,,,,,,,,,,,,,,,,
1531,0,0.0,0.53,,,,,,,,,,,,,,,,,,
1533,0,0.01,0.53,,-0.34,0.13,1.05,0,-1,-1,0.36,,,,,,,,,,
1535,0,0.0,0.53,,,,,,,,,,,,,,,,,,
1537,0,0.0,0.53,,,,,,,,,,,,,,,,,,
1539,0,0.0,0.53,,,,,,,,,,,,,,,,,,
1541,0,0.0,0.53,,,,,,,,,,,,,,,,,,
1543,0,0.0,0.53,,0.04,0.03,0.9,1,-0,-1,0.05,0,2100,0,0.0,0.0,0.0,0.0,0,0,0.0
1545,0,0.0,0.53,,,,,,,,,,,,,,,,,,
1547,0,0.0,0.53,,,,,,,,,,,,,,,,,,
1549,0,0.0,0.55,,,,,,,,,,,,,,,,,,
1551,0,0.0,0.53,,,,,,,,,,,,,,,,,,
1553,0,0.0,0.53,,-0.26,0.09,1.0,-0,1,-1,0.28,,,,,,,,,,
1555,0,0.0,0.53,,,,,,,,,,,,,,,,,,
1557,0,0.0,0.53,,,,,,,,,,,,,,,,,,
1559,0,0.0,0.53,,,,,,,,,,,,,,,,,,
1561,0,0.0,0.53,,,,,,,,,,,,,,,,,,
1563,0,0.0,0.53,,-0.27,0.13,1.02,0,-1,-1,0.3,0,2100,0,0.0,0.0,0.0,0.0,0,0,0.0
1565,0,0.0,0.53,,,,,,,,,,,,,,,,,,
1567,0,0.0,0.53,,,,,,,,,,,,,,,,,,
1569,0,0.0,0.53,,,,,,,,,,,,,,,,,,
1571,0,0.0,0.54,,,,,,,,,,,,,,,,,,
1573,0,0.0,0.54,,-0.01,0.03,0.9,0,-0,-1,0.03,,,,,,,,,,
1575,0,0.0,0.53,,,,,,,,,,,,,,,,,,
1577,0,0.0,0.55,,,,,,,,,,,,,,,,,,
1579,0,0.0,0.54,,,,,,,,,,,,,,,,,,
1581,0,0.0,0.54,,,,,,,,,,,,,,,,,,
1583,0,0.0,0.53,,-0.19,0.09,0.95,-0,0,-1,0.21,0,2100,0,0.0,0.0,0.0,0.0,0,0,0.0
1585,0,0.0,0.54,,,,,,,,,,,,,,,,,,
1587,0,0.0,0.54,,,,,,,,,,,,,,,,,,
1589,0,0.0,0.54,,,,,,,,,,,,,,,,,,
1591,0,0.0,0.54,,,,,,,,,,,,,,,,,,
1593,0,0.0,0.54,,-0.15,0.12,1.04,0,-0,-1,0.19,,,,,,,,,,
1595,0,0.0,0.54,,,,,,,,,,,,,,,,,,
1597,0,0.0,0.54,,,,,,,,,,,,,,,,,,
1599,0,0.0,0.54,,,,,,,,,,,,,,,,,,
1601,0,0.0,0.54,,,,,,,,,,,,,,,,,,
1603,0,0.0,0.54,,-0.02,0.04,0.98,-0,-0,-1,0.05,0,2100,0,0.0,0.0,0.0,0.0,0,0,0.0
1605,0,0.0,0.56,,,,,,,,,,,,,,,,,,
1607,0,0.0,0.55,,,,,,,,,,,,,,,,,,
1609,0,0.0,0.54,,,,,,,,,,,,,,,,,,
1611,0,0.0,0.54,,,,,,,,,,,,,,,,,,
1613,0,0.0,0.54,,-0.25,0.11,0.94,-0,0,-1,0.27,,,,,,,,,,
1615,0,0.0,0.54,,,,,,,,,,,,,,,,,,
1617,0,0.0,0.54,,,,,,,,,,,,,,,,,,
1619,0,0.0,0.54,,,,,,,,,,,,,,,,,,
1621,0,0.0,0.54,,,,,,,,,,,,,,,,,,
1623,0,0.0,0.53,,-0.13,0.1,0.97,0,-0,-1,0.17,0,2100,0,0.0,0.0,0.0,0.0,0,0,0.0
1625,0,0.0,0.54,,,,,,,,,,,,,,,,,,
1627,0,0.0,0.53,,,,,,,,,,,,,,,,,,
1629,0,0.0,0.53,,,,,,,,,,,,,,,,,,
1631,0,0.0,0.53,,,,,,,,,,,,,,,,,,
1633,0,0.0,0.54,,-0.05,0.07,1.01,-0,0,-1,0.09,,,,,,,,,,
1635,0,0.0,0.53,,,,,,,,,,,,,,,,,,
1637,0,0.0,0.53,,,,,,,,,,,,,,,,,,
1639,0,0.0,0.53,,,,,,,,,,,,,,,,,,
1641,0,0.0,0.53,,,,,,,,,,,,,,,,,,
1643,0,0.0,0.53,,-0.34,0.1,0.99,-0,0,-1,0.36,0,2100,0,0.0,0.0,0.0,0.0,0,0,0.0
1645,0,0.0,0.53,,,,,,,,,,,,,,,,,,
1647,0,0.0,0.53,,,,,,,,,,,,,,,,,,
1649,0,0.0,0.53,,,,,,,,,,,,,,,,,,
1651,0,0.0,0.53,,,,,,,,,,,,,,,,,,
1653,0,0.0,0.53,,-0.04,0.06,1.01,0,-1,-1,0.07,,,,,,,,,,
1655,0,0.0,0.53,,,,,,,,,,,,,,,,,,
1657,0,0.0,0.53,,,,,,,,,,,,,,,,,,
1659,0,0.0,0.53,,,,,,,,,,,,,,,,,,
1661,0,0.0,0.54,,,,,,,,,,,,,,,,,,
1663,0,0.0,0.53,,-0.08,0.06,0.97,-0,1,-1,0.1,0,2100,0,0.0,0.0,0.0,0.0,0,0,0.0
1665,0,0.0,0.53,,,,,,,,,,,,,,,,,,
1667,0,0.0,0.53,,,,,,,,,,,,,,,,,,
1669,0,0.0,0.53,,,,,,,,,,,,,,,,,,
1671,0,0.0,0.53,,,,,,,,,,,,,,,,,,
1673,0,0.0,0.53,,-0.31,0.14,1.02,-0,-0,-1,0.34,,,,,,,,,,
1675,0,0.0,0.53,,,,,,,,,,,,,,,,,,
1677,0,0.0,0.53,,,,,,,,,,,,,,,,,,
1679,0,0.0,0.52,,,,,,,,,,,,,,,,,,
1681,0,0.0,0.53,,,,,,,,,,,,,,,,,,
1683,0,0.0,0.53,,-0.07,0.02,0.9,0,-0,-1,0.07,0,2100,0,0.0,0.0,0.0,0.0,0,0,0.0
1685,0,0.0,0.53,,,,,,,,,,,,,,,,,,
1687,0,0.0,0.53,,,,,,,,,,,,,,,,,,
1689,0,0.0,0.52,,,,,,,,,,,,,,,,,,
1691,0,0.0,0.53,,,,,,,,,,,,,,,,,,
1693,0,0.0,0.52,,-0.14,0.1,1.02,-0,1,-1,0.17,,,,,,,,,,
1695,0,0.0,0.53,,,,,,,,,,,,,,,,,,
1697,0,0.0,0.53,,,,,,,,,,,,,,,,,,
1699,0,0.0,0.53,,,,,,,,,,,,,,,,,,
1701,0,0.0,0.52,,,,,,,,,,,,,,,,,,
1703,0,0.0,0.52,,-0.31,0.12,1.08,0,-0,-1,0.33,0,2040,0,0.0,0.0,0.0,0.0,0,0,0.0
1705,0,0.0,0.52,,,,,,,,,,,,,,,,,,
1707,0,0.0,0.52,,,,,,,,,,,,,,,,,,
1709,0,0.0,0.52,,,,,,,,,,,,,,,,,,
1711,0,0.0,0.53,,,,,,,,,,,,,,,,,,
1713,0,0.0,0.53,,0.01,0.02,0.93,0,1,-1,0.02,,,,,,,,,,
1715,0,0.0,0.53,,,,,,,,,,,,,,,,,,
1717,0,0.0,0.53,,,,,,,,,,,,,,,,,,
1719,0,0.0,0.54,,,,,,,,,,,,,,,,,,
1721,0,0.0,0.53,,,,,,,,,,,,,,,,,,
1723,0,0.0,0.53,,-0.27,0.09,1.01,-0,1,-1,0.28,0,2100,0,0.0,0.0,0.0,0.0,0,0,0.0
1725,0,0.0,0.52,,,,,,,,,,,,,,,,,,
1727,0,0.0,0.53,,,,,,,,,,,,,,,,,,
1729,0,0.0,0.53,,,,,,,,,,,,,,,,,,
1731,0,0.0,0.53,,,,,,,,,,,,,,,,,,
1733,0,0.01,0.53,,-0.27,0.12,1.04,1,0,-1,0.29,,,,,,,,,,
1735,0,0.0,0.53,,,,,,,,,,,,,,,,,,
1737,0,0.0,0.54,,,,,,,,,,,,,,,,,,
1739,0,0.0,0.54,,,,,,,,,,,,,,,,,,
1741,0,0.0,0.54,,,,,,,,,,,,,,,,,,
1743,0,0.0,0.54,,-0.06,0.01,0.94,0,1,-2,0.06,0,2100,0,0.0,0.0,0.0,0.0,0,0,0.0
1745,0,0.0,0.54,,,,,,,,,,,,,,,,,,
1747,0,0.0,0.55,,,,,,,,,,,,,,,,,,
1749,0,0.0,0.54,,,,,,,,,,,,,,,,,,
1751,0,0.0,0.54,,,,,,,,,,,,,,,,,,
1753,0,0.0,0.54,,-0.23,0.09,0.95,0,1,-1,0.25,,,,,,,,,,
1755,0,0.0,0.54,,,,,,,,,,,,,,,,,,
1757,0,0.0,0.54,,,,,,,,,,,,,,,,,,
1759,0,0.0,0.54,,,,,,,,,,,,,,,,,,
1761,0,0.0,0.54,,,,,,,,,,,,,,,,,,
1763,0,0.0,0.54,,-0.15,0.08,1.01,1,1,-1,0.17,0,2040,0,0.0,0.0,0.0,0.0,0,0,0.0
1765,0,0.0,0.54,,,,,,,,,,,,,,,,,,
1767,0,0.0,0.54,,,,,,,,,,,,,,,,,,
1769,0,0.0,0.54,,,,,,,,,,,,,,,,,,
1771,0,0.0,0.54,,,,,,,,,,,,,,,,,,
1773,0,0.0,0.55,,-0.03,0.02,0.95,0,-0,-1,0.03,,,,,,,,,,
1775,0,0.0,0.56,,,,,,,,,,,,,,,,,,
1777,0,0.0,0.55,,,,,,,,,,,,,,,,,,
1779,0,0.0,0.55,,,,,,,,,,,,,,,,,,
1781,0,0.0,0.55,,,,,,,,,,,,,,,,,,
1783,0,0.0,0.55,,-0.24,0.09,0.91,0,-0,-1,0.26,0,2100,0,0.0,0.0,0.0,0.0,0,0,0.0
1785,0,0.0,0.55,,,,,,,,,,,,,,,,,,
1787,0,0.0,0.54,,,,,,,,,,,,,,,,,,
1789,0,0.0,0.54,,,,,,,,,,,,,,,,,,
1791,0,0.0,0.55,,,,,,,,,,,,,,,,,,
1793,0,0.0,0.54,,-0.13,0.06,0.95,1,-1,-1,0.14,,,,,,,,,,
1795,0,0.0,0.54,,,,,,,,,,,,,,,,,,
1797,0,0.0,0.55,,,,,,,,,,,,,,,,,,
1799,0,0.0,0.55,,,,,,,,,,,,,,,,,,
1801,0,0.0,0.55,,,,,,,,,,,,,,,,,,
1803,0,0.0,0.55,,-0.02,0.07,0.99,0,-1,-1,0.07,0,2040,0,0.0,0.0,0.0,0.0,0,0,0.0
1805,0,0.01,0.55,,,,,,,,,,,,,,,,,,
1807,0,0.0,0.55,,,,,,,,,,,,,,,,,,
1809,0,0.0,0.55,,,,,,,,,,,,,,,,,,
1811,0,0.0,0.55,,,,,,,,,,,,,,,,,,
1813,0,0.0,0.55,,-0.32,0.09,0.96,0,-1,-1,0.33,,,,,,,,,,
1815,0,0.0,0.55,,,,,,,,,,,,,,,,,,
1817,0,0.0,0.55,,,,,,,,,,,,,,,,,,
1819,0,0.0,0.55,,,,,,,,,,,,,,,,,,
1821,0,0.0,0.55,,,,,,,,,,,,,,,,,,
1823,0,0.0,0.55,,-0.03,0.03,1.07,1,-2,-1,0.05,0,2040,0,0.0,0.0,0.0,0.0,0,0,0.0
1825,0,0.0,0.55,,,,,,,,,,,,,,,,,,
1827,0,0.0,0.55,,,,,,,,,,,,,,,,,,
1829,0,0.0,0.55,,,,,,,,,,,,,,,,,,
1831,0,0.0,0.57,,,,,,,,,,,,,,,,,,
1833,0,0.0,0.56,,-0.04,0.06,1.01,-0,-1,-1,0.07,,,,,,,,,,
1835,0,0.0,0.56,,,,,,,,,,,,,,,,,,
1837,0,0.0,0.56,,,,,,,,,,,,,,,,,,
1839,0,0.0,0.56,,,,,,,,,,,,,,,,,,
1841,0,0.0,0.55,,,,,,,,,,,,,,,,,,
1843,0,0.0,0.55,,-0.28,0.11,1.03,0,-1,-1,0.31,0,2100,0,0.0,0.0,0.0,0.0,0,0,0.0
1845,0,0.0,0.55,,,,,,,,,,,,,,,,,,
1847,0,0.0,0.55,,,,,,,,,,,,,,,,,,
1849,0,0.0,0.55,,,,,,,,,,,,,,,,,,
1851,0,0.0,0.55,,,,,,,,,,,,,,,,,,
1853,0,0.0,0.56,,-0.01,0.01,0.91,0,-1,-0,0.02,,,,,,,,,,
1855,0,0.0,0.56,,,,,,,,,,,,,,,,,,
1857,0,0.0,0.55,,,,,,,,,,,,,,,,,,
1859,0,0.0,0.56,,,,,,,,,,,,,,,,,,
1861,0,0.0,0.57,,,,,,,,,,,,,,,,,,
1863,0,0.0,0.56,,-0.04,0.09,1.0,-0,-0,-1,0.1,0,2100,0,0.0,0.0,0.0,0.0,0,0,0.0
1865,0,0.0,0.55,,,,,,,,,,,,,,,,,,
1867,0,0.0,0.55,,,,,,,,,,,,,,,,,,
1869,0,0.0,0.55,,,,,,,,,,,,,,,,,,
1871,0,0.0,0.55,,,,,,,,,,,,,,,,,,
1873,0,0.0,0.55,,-0.28,0.1,1.07,0,-1,-1,0.3,,,,,,,,,,
1875,0,0.0,0.55,,,,,,,,,,,,,,,,,,
1877,0,0.0,0.55,,,,,,,,,,,,,,,,,,
1879,0,0.0,0.55,,,,,,,,,,,,,,,,,,
1881,0,0.0,0.55,,,,,,,,,,,,,,,,,,
1883,0,0.0,0.55,,0.08,0.02,0.93,0,-1,-0,0.08,1148,2100,0,0.0,0.0,0.0,0.0,0,0,0.0
1885,0,0.0,0.55,,,,,,,,,,,,,,,,,,
1887,0,0.0,0.55,,,,,,,,,,,,,,,,,,
1889,0,0.0,0.56,,,,,,,,,,,,,,,,,,
1891,0,0.0,0.55,,,,,,,,,,,,,,,,,,
1893,0,0.0,0.55,,-0.16,0.08,1.0,-0,1,-1,0.18,,,,,,,,,,
1895,0,0.0,0.55,,,,,,,,,,,,,,,,,,
1897,0,0.0,0.55,,,,,,,,,,,,,,,,,,
1899,0,0.0,0.55,,,,,,,,,,,,,,,,,,
1901,0,0.0,0.54,,,,,,,,,,,,,,,,,,
1903,0,0.0,0.54,,-0.25,0.11,1.05,0,-0,-1,0.27,1148,2100,0,0.0,0.0,0.0,0.0,0,0,0.0
1905,0,0.0,0.54,,,,,,,,,,,,,,,,,,
1907,0,0.0,0.54,,,,,,,,,,,,,,,,,,
1909,0,0.0,0.54,,,,,,,,,,,,,,,,,,
1911,0,0.0,0.55,,,,,,,,,,,,,,,,,,
1913,0,0.0,0.54,,-0.03,0.02,0.97,-0,0,-1,0.04,,,,,,,,,,
1915,0,0.0,0.55,,,,,,,,,,,,,,,,,,
1917,0,0.0,0.56,,,,,,,,,,,,,,,,,,
1919,0,0.0,0.55,,,,,,,,,,,,,,,,,,
1921,0,0.0,0.55,,,,,,,,,,,,,,,,,,
1923,0,0.0,0.55,,-0.23,0.11,1.03,-0,2,-1,0.26,1148,2100,0,0.0,0.0,0.0,0.0,0,0,0.0
1925,0,0.0,0.55,,,,,,,,,,,,,,,,,,
1927,0,0.0,0.55,,,,,,,,,,,,,,,,,,
1929,0,0.0,0.56,,,,,,,,,,,,,,,,,,
1931,0,0.0,0.55,,,,,,,,,,,,,,,,,,
1933,0,0.0,0.55,,-0.22,0.1,1.06,1,2,-1,0.24,,,,,,,,,,
1935,0,0.0,0.56,,,,,,,,,,,,,,,,,,
1937,0,0.0,0.56,,,,,,,,,,,,,,,,,,
1939,0,0.0,0.56,,,,,,,,,,,,,,,,,,
1941,0,0.0,0.56,,,,,,,,,,,,,,,,,,
1943,0,0.0,0.56,,-0.04,0.04,0.99,-0,2,-1,0.06,1148,2100,0,0.0,0.0,0.0,0.0,0,0,0.0
1945,0,0.0,0.57,,,,,,,,,,,,,,,,,,
1947,0,0.0,0.56,,,,,,,,,,,,,,,,,,
1949,0,0.0,0.56,,,,,,,,,,,,,,,,,,
1951,0,0.0,0.56,,,,,,,,,,,,,,,,,,
1953,0,0.0,0.56,,-0.34,0.14,0.94,-0,3,-1,0.36,,,,,,,,,,
1955,0,0.0,0.56,,,,,,,,,,,,,,,,,,
1957,0,0.0,0.56,,,,,,,,,,,,,,,,,,
1959,0,0.0,0.56,,,,,,,,,,,,,,,,,,
1961,0,0.0,0.56,,,,,,,,,,,,,,,,,,
1963,0,0.0,0.56,,-0.26,0.1,0.95,1,2,-1,0.28,1148,2100,0,0.0,0.0,0.0,0.0,0,0,0.0
1965,0,0.0,0.56,,,,,,,,,,,,,,,,,,
1967,0,0.0,0.56,,,,,,,,,,,,,,,,,,
1969,0,0.0,0.56,,,,,,,,,,,,,,,,,,
1971,0,0.0,0.57,,,,,,,,,,,,,,,,,,
1973,0,0.0,0.58,,-0.06,0.08,0.91,-0,3,-2,0.1,,,,,,,,,,
1975,0,0.0,0.57,,,,,,,,,,,,,,,,,,
1977,0,0.0,0.57,,,,,,,,,,,,,,,,,,
1979,0,0.0,0.57,,,,,,,,,,,,,,,,,,
1981,0,0.0,0.57,,,,,,,,,,,,,,,,,,
1983,0,0.0,0.57,,-0.43,0.14,0.89,0,2,-1,0.45,1148,2040,0,0.0,0.0,0.0,0.0,0,0,0.0
1985,0,0.0,0.57,,,,,,,,,,,,,,,,,,
1987,0,0.0,0.57,,,,,,,,,,,,,,,,,,
1989,0,0.0,0.56,,,,,,,,,,,,,,,,,,
1991,0,0.0,0.57,,,,,,,,,,,,,,,,,,
1993,0,0.0,0.57,,-0.18,0.05,0.97,1,1,-1,0.19,,,,,,,,,,
1995,0,0.0,0.57,,,,,,,,,,,,,,,,,,
1997,0,0.0,0.57,,,,,,,,,,,,,,,,,,
1999,0,0.0,0.57,,,,,,,,,,,,,,,,,,
2001,0,0.0,0.58,,,,,,,,,,,,,,,,,,
2003,0,0.0,0.57,,-0.11,0.05,0.89,-0,1,-1,0.12,1148,2100,0,0.0,0.0,0.0,0.0,0,0,0.0
2005,0,0.0,0.57,,,,,,,,,,,,,,,,,,
2007,0,0.0,0.57,,,,,,,,,,,,,,,,,,
2009,0,0.0,0.56,,,,,,,,,,,,,,,,,,
2011,0,0.0,0.56,,,,,,,,,,,,,,,,,,
2013,0,0.0,0.56,,-0.41,0.16,0.99,0,0,-1,0.44,,,,,,,,,,
2015,0,0.0,0.56,,,,,,,,,,,,,,,,,,
2017,0,0.0,0.56,,,,,,,,,,,,,,,,,,
2019,0,0.0,0.56,,,,,,,,,,,,,,,,,,
2021,0,0.0,0.56,,,,,,,,,,,,,,,,,,
2023,0,0.0,0.56,,-0.18,0.02,0.87,1,-1,-1,0.18,12,2100,0,0.0,0.0,0.0,0.0,0,0,0.0
2025,0,0.0,0.56,,,,,,,,,,,,,,,,,,
2027,0,0.0,0.56,,,,,,,,,,,,,,,,,,
2029,0,0.0,0.56,,,,,,,,,,,,,,,,,,
2031,0,0.0,0.57,,,,,,,,,,,,,,,,,,
2033,0,0.0,0.56,,-0.16,0.09,1.0,-0,0,-2,0.19,,,,,,,,,,
2035,0,0.0,0.56,,,,,,,,,,,,,,,,,,
2037,0,0.0,0.56,,,,,,,,,,,,,,,,,,
2039,0,0.0,0.56,,,,,,,,,,,,,,,,,,
2041,0,0.0,0.56,,,,,,,,,,,,,,,,,,
2043,0,0.0,0.56,13.42,-0.44,0.16,1.12,0,-0,-2,0.46,12,2040,0,0.0,0.0,0.0,0.0,0,0,0.0
2045,0,0.0,0.56,,,,,,,,,,,,,,,,,,
2047,0,0.0,0.56,,,,,,,,,,,,,,,,,,
2049,0,0.0,0.56,,,,,,,,,,,,,,,,,,
2051,0,0.0,0.57,,,,,,,,,,,,,,,,,,
2053,0,0.0,0.57,,-0.12,-0.01,0.98,1,0,-2,0.12,,,,,,,,,,
2055,0,0.0,0.57,,,,,,,,,,,,,,,,,,
2057,0,0.0,0.57,,,,,,,,,,,,,,,,,,
2059,0,0.0,0.58,,,,,,,,,,,,,,,,,,
2061,0,0.0,0.57,,,,,,,,,,,,,,,,,,
2063,0,0.0,0.57,,-0.34,0.06,1.08,-0,2,-2,0.34,12,2100,0,0.0,0.0,0.0,0.0,0,0,0.0
2065,0,0.0,0.57,,,,,,,,,,,,,,,,,,
2067,0,0.0,0.57,,,,,,,,,,,,,,,,,,
2069,0,0.0,0.57,,,,,,,,,,,,,,,,,,
2071,0,0.0,0.57,,,,,,,,,,,,,,,,,,
2073,0,0.0,0.57,,-0.43,0.13,1.13,1,1,-2,0.45,,,,,,,,,,
2075,0,0.0,0.57,,,,,,,,,,,,,,,,,,
2077,0,0.0,0.57,,,,,,,,,,,,,,,,,,
2079,0,0.0,0.57,,,,,,,,,,,,,,,,,,
2081,0,0.0,0.57,,,,,,,,,,,,,,,,,,
2083,0,0.0,0.57,,-0.12,-0.02,0.94,1,1,-2,0.12,12,2100,0,0.0,0.0,0.0,0.0,0,0,0.0
2085,0,0.0,0.57,,,,,,,,,,,,,,,,,,
2087,0,0.0,0.59,,,,,,,,,,,,,,,,,,
2089,0,0.0,0.58,,,,,,,,,,,,,,,,,,
2091,0,0.0,0.58,,,,,,,,,,,,,,,,,,
2093,0,0.0,0.58,,-0.27,0.09,0.97,0,3,-2,0.28,,,,,,,,,,
2095,0,0.0,0.58,,,,,,,,,,,,,,,,,,
2097,0,0.0,0.58,,,,,,,,,,,,,,,,,,
2099,0,0.0,0.58,,,,,,,,,,,,,,,,,,
2101,0,0.0,0.58,,,,,,,,,,,,,,,,,,
2103,0,0.0,0.58,,-0.31,0.1,1.04,1,2,-2,0.32,12,2040,0,0.0,0.0,0.0,0.0,0,0,0.0
2105,0,0.0,0.58,,,,,,,,,,,,,,,,,,
2107,0,0.0,0.58,,,,,,,,,,,,,,,,,,
2109,0,0.0,0.57,,,,,,,,,,,,,,,,,,
2111,0,0.0,0.57,,,,,,,,,,,,,,,,,,
2113,0,0.0,0.57,,-0.05,0.02,0.86,0,2,-2,0.06,,,,,,,,,,
2131,0,0.0,0.57,,,,,,,,,,,,,,,,,,
2133,0,0.0,0.57,,-0.36,0.11,0.99,1,1,-2,0.38,,,,,,,,,,
2149,0,0.0,0.57,,,,,,,,,,,,,,,,,,
2151,0,0.0,0.57,,,,,,,,,,,,,,,,,,
2153,0,0.0,0.57,,-0.46,0.13,0.92,0,1,-2,0.48,,,,,,,,,,
2155,0,0.0,0.57,,,,,,,,,,,,,,,,,,
2157,0,0.0,0.57,,,,,,,,,,,,,,,,,,
2159,0,0.0,0.58,,,,,,,,,,,,,,,,,,
2161,0,0.0,0.57,,,,,,,,,,,,,,,,,,
2163,0,0.0,0.58,,-0.24,0.04,0.98,1,-1,-2,0.25,18,2040,0,0.0,0.0,0.0,0.0,0,0,0.0
2165,0,0.0,0.58,,,,,,,,,,,,,,,,,,
2167,0,0.0,0.58,,,,,,,,,,,,,,,,,,
2169,0,0.0,0.58,,,,,,,,,,,,,,,,,,
2171,0,0.0,0.58,,,,,,,,,,,,,,,,,,
2173,0,0.0,0.6,,-0.05,0.06,0.87,-0,-1,-2,0.07,,,,,,,,,,
2175,0,0.0,0.58,,,,,,,,,,,,,,,,,,
2177,0,0.0,0.58,,,,,,,,,,,,,,,,,,
2179,0,0.0,0.59,,,,,,,,,,,,,,,,,,
2181,0,0.0,0.58,,,,,,,,,,,,,,,,,,
2183,0,0.0,0.58,,-0.29,0.12,0.88,0,-1,-2,0.32,18,2100,0,0.0,0.0,0.0,0.0,0,0,0.0
2185,0,0.0,0.58,,,,,,,,,,,,,,,,,,
2187,0,0.0,0.59,,,,,,,,,,,,,,,,,,
2189,0,0.0,0.58,,,,,,,,,,,,,,,,,,
2191,0,0.0,0.58,,,,,,,,,,,,,,,,,,
2193,0,0.0,0.58,,-0.09,-0.03,0.86,1,-2,-1,0.09,,,,,,,,,,
2195,0,0.0,0.58,,,,,,,,,,,,,,,,,,
2197,0,0.0,0.58,,,,,,,,,,,,,,,,,,
2199,0,0.0,0.58,,,,,,,,,,,,,,,,,,
2201,0,0.0,0.59,,,,,,,,,,,,,,,,,,
2203,0,0.0,0.58,,0.03,0.03,0.97,0,-1,-1,0.05,25,2100,0,0.0,0.0,0.0,0.0,0,0,0.0
2205,0,0.0,0.58,,,,,,,,,,,,,,,,,,
2207,0,0.0,0.58,,,,,,,,,,,,,,,,,,
2209,0,0.0,0.57,,,,,,,,,,,,,,,,,,
2211,0,0.0,0.58,,,,,,,,,,,,,,,,,,
2213,0,0.0,0.57,,-0.4,0.12,1.09,0,-1,-1,0.42,,,,,,,,,,
2215,0,0.0,0.57,,,,,,,,,,,,,,,,,,
2217,0,0.0,0.57,,,,,,,,,,,,,,,,,,
2219,0,0.0,0.57,,,,,,,,,,,,,,,,,,
2221,0,0.0,0.58,,,,,,,,,,,,,,,,,,
2223,0,0.0,0.58,,-0.12,-0.01,1.12,1,-1,-0,0.12,25,2100,0,0.0,0.0,0.0,0.0,0,0,0.0
2225,0,0.0,0.58,,,,,,,,,,,,,,,,,,
2227,0,0.0,0.58,,,,,,,,,,,,,,,,,,
2229,0,0.0,0.6,,,,,,,,,,,,,,,,,,
2231,0,0.0,0.59,,,,,,,,,,,,,,,,,,
2233,0,0.0,0.59,,-0.23,0.03,1.11,0,1,-0,0.23,,,,,,,,,,
2235,0,0.0,0.59,,,,,,,,,,,,,,,,,,
2237,0,0.0,0.58,,,,,,,,,,,,,,,,,,
2239,0,0.0,0.59,,,,,,,,,,,,,,,,,,
2241,0,0.0,0.59,,,,,,,,,,,,,,,,,,
2243,0,0.0,0.58,,-0.48,0.14,1.15,0,1,-1,0.5,25,2100,0,0.0,0.0,0.0,0.0,0,0,0.0
2245,0,0.0,0.58,,,,,,,,,,,,,,,,,,
2247,0,0.0,0.59,,,,,,,,,,,,,,,,,,
2249,0,0.0,0.59,,,,,,,,,,,,,,,,,,
2251,0,0.0,0.59,,,,,,,,,,,,,,,,,,
2253,0,0.0,0.59,,-0.12,-0.02,0.92,1,0,-2,0.12,,,,,,,,,,
2255,0,0.0,0.59,,,,,,,,,,,,,,,,,,
2257,0,0.0,0.6,,,,,,,,,,,,,,,,,,
2259,0,0.0,0.59,,,,,,,,,,,,,,,,,,
2261,0,0.0,0.6,,,,,,,,,,,,,,,,,,
2263,0,0.0,0.59,,-0.2,0.03,0.88,0,2,-2,0.2,25,2040,0,0.0,0.0,0.0,0.0,0,0,0.0
2265,0,0.0,0.59,,,,,,,,,,,,,,,,,,
2267,0,0.0,0.6,,,,,,,,,,,,,,,,,,
2269,0,0.0,0.59,,,,,,,,,,,,,,,,,,
2271,0,0.0,0.59,,,,,,,,,,,,,,,,,,
2273,0,0.0,0.6,,-0.27,0.14,0.94,1,1,-2,0.3,,,,,,,,,,
2275,0,0.0,0.59,,,,,,,,,,,,,,,,,,
2277,0,0.0,0.6,,,,,,,,,,,,,,,,,,
2279,0,0.0,0.59,,,,,,,,,,,,,,,,,,
2281,0,0.0,0.59,,,,,,,,,,,,,,,,,,
2283,0,0.0,0.59,,0.05,-0.0,0.75,1,0,-1,0.05,30,2040,0,0.0,0.0,0.0,0.0,0,0,0.0
2285,0,0.0,0.6,,,,,,,,,,,,,,,,,,
2287,0,0.0,0.59,,,,,,,,,,,,,,,,,,
2289,0,0.0,0.59,,,,,,,,,,,,,,,,,,
2291,0,0.0,0.58,,,,,,,,,,,,,,,,,,
2293,0,0.0,0.58,,-0.22,0.03,0.83,-0,1,-1,0.22,,,,,,,,,,
2295,0,0.0,0.58,,,,,,,,,,,,,,,,,,
2297,0,0.0,0.58,,,,,,,,,,,,,,,,,,
2299,0,0.0,0.59,,,,,,,,,,,,,,,,,,
2301,0,0.0,0.59,,,,,,,,,,,,,,,,,,
2303,0,0.0,0.59,,-0.28,0.13,0.97,1,-0,0,0.31,30,2100,0,0.0,0.0,0.0,0.0,0,0,0.0
2305,0,0.0,0.59,,,,,,,,,,,,,,,,,,
2307,0,0.0,0.59,,,,,,,,,,,,,,,,,,
2309,0,0.0,0.59,,,,,,,,,,,,,,,,,,
2311,0,0.0,0.59,,,,,,,,,,,,,,,,,,
2313,0,0.0,0.59,,-0.07,0.03,1.02,0,-1,-0,0.08,,,,,,,,,,
2315,0,0.0,0.61,,,,,,,,,,,,,,,,,,
2317,0,0.0,0.59,,,,,,,,,,,,,,,,,,
2319,0,0.0,0.59,,,,,,,,,,,,,,,,,,
2321,0,0.0,0.59,,,,,,,,,,,,,,,,,,
2323,0,0.0,0.59,,-0.42,0.1,1.04,-0,1,-1,0.43,30,2100,0,0.0,0.0,0.0,0.0,0,0,0.0
2325,0,0.0,0.6,,,,,,,,,,,,,,,,,,
2327,0,0.0,0.59,,,,,,,,,,,,,,,,,,
2329,0,0.0,0.6,,,,,,,,,,,,,,,,,,
2331,0,0.0,0.6,,,,,,,,,,,,,,,,,,
2333,0,0.0,0.6,,-0.31,0.11,1.17,1,0,-1,0.33,,,,,,,,,,
2335,0,0.0,0.59,,,,,,,,,,,,,,,,,,
2337,0,0.0,0.6,,,,,,,,,,,,,,,,,,
2339,0,0.0,0.6,,,,,,,,,,,,,,,,,,
2341,0,0.0,0.6,,,,,,,,,,,,,,,,,,
2343,0,0.0,0.61,,-0.11,0.04,0.99,-0,1,-1,0.12,30,2100,0,0.0,0.0,0.0,0.0,0,0,0.0
2345,0,0.0,0.6,,,,,,,,,,,,,,,,,,
2347,0,0.0,0.59,,,,,,,,,,,,,,,,,,
2349,0,0.0,0.6,,,,,,,,,,,,,,,,,,
2351,0,0.0,0.59,,,,,,,,,,,,,,,,,,
2353,0,0.0,0.59,,-0.32,0.11,0.92,-0,1,-1,0.34,,,,,,,,,,
2355,0,0.0,0.59,,,,,,,,,,,,,,,,,,
2357,0,0.0,0.59,,,,,,,,,,,,,,,,,,
2359,0,0.0,0.59,,,,,,,,,,,,,,,,,,
2361,0,0.0,0.59,,,,,,,,,,,,,,,,,,
2363,0,0.0,0.59,,-0.13,0.05,0.83,1,-1,0,0.14,30,2100,0,0.0,0.0,0.0,0.0,0,0,0.0
2365,0,0.0,0.59,,,,,,,,,,,,,,,,,,
2367,0,0.0,0.59,,,,,,,,,,,,,,,,,,
2369,0,0.0,0.59,,,,,,,,,,,,,,,,,,
2371,0,0.0,0.6,,,,,,,,,,,,,,,,,,
2373,0,0.0,0.59,,-0.02,0.04,0.86,0,0,-0,0.04,,,,,,,,,,
2375,0,0.0,0.58,,,,,,,,,,,,,,,,,,
2377,0,0.0,0.6,,,,,,,,,,,,,,,,,,
2379,0,0.0,0.59,,,,,,,,,,,,,,,,,,
2381,0,0.0,0.6,,,,,,,,,,,,,,,,,,
2383,0,0.0,0.6,,-0.39,0.16,0.98,0,-1,-1,0.42,30,2040,0,0.0,0.0,0.0,0.0,0,0,0.0
2385,0,0.0,0.6,,,,,,,,,,,,,,,,,,
2387,0,0.0,0.6,,,,,,,,,,,,,,,,,,
2389,0,0.0,0.6,,,,,,,,,,,,,,,,,,
2391,0,0.0,0.6,,,,,,,,,,,,,,,,,,
2393,0,0.0,0.6,,-0.07,-0.02,0.97,1,-1,-1,0.07,,,,,,,,,,
2395,0,0.0,0.6,,,,,,,,,,,,,,,,,,
2397,0,0.0,0.59,,,,,,,,,,,,,,,,,,
2399,0,0.0,0.61,,,,,,,,,,,,,,,,,,
2401,0,0.0,0.59,,,,,,,,,,,,,,,,,,
2403,0,0.0,0.59,,-0.24,-0.01,1.07,-0,0,-0,0.24,32,2100,0,0.0,0.0,0.0,0.0,0,0,0.0
2405,0,0.0,0.59,,,,,,,,,,,,,,,,,,
2407,0,0.0,0.59,,,,,,,,,,,,,,,,,,
2409,0,0.0,0.59,,,,,,,,,,,,,,,,,,
2411,0,0.0,0.59,,,,,,,,,,,,,,,,,,
2413,0,0.0,0.59,,-0.47,0.16,1.18,1,-1,-0,0.49,,,,,,,,,,
2415,0,0.0,0.59,,,,,,,,,,,,,,,,,,
2417,0,0.0,0.59,,,,,,,,,,,,,,,,,,
2419,0,0.0,0.59,,,,,,,,,,,,,,,,,,
2421,0,0.0,0.59,,,,,,,,,,,,,,,,,,
2423,0,0.0,0.59,,-0.14,-0.04,1.01,1,-0,0,0.14,32,2100,0,0.0,0.0,0.0,0.0,0,0,0.0
2425,0,0.0,0.59,,,,,,,,,,,,,,,,,,
2427,0,0.0,0.6,,,,,,,,,,,,,,,,,,
2429,0,0.0,0.6,,,,,,,,,,,,,,,,,,
2431,0,0.0,0.6,,,,,,,,,,,,,,,,,,
2433,0,0.0,0.6,,-0.18,0.02,0.95,1,1,0,0.18,,,,,,,,,,
2435,0,0.0,0.6,,,,,,,,,,,,,,,,,,
2437,0,0.0,0.6,,,,,,,,,,,,,,,,,,
2439,0,0.0,0.6,,,,,,,,,,,,,,,,,,
2441,0,0.0,0.6,,,,,,,,,,,,,,,,,,
2443,0,0.0,0.6,,-0.29,0.13,1.02,2,0,0,0.32,32,2040,0,0.0,0.0,0.0,0.0,0,0,0.0
2445,0,0.0,0.6,,,,,,,,,,,,,,,,,,
2447,0,0.0,0.6,,,,,,,,,,,,,,,,,,
2449,0,0.0,0.6,,,,,,,,,,,,,,,,,,
2451,0,0.0,0.6,,,,,,,,,,,,,,,,,,
2453,0,0.0,0.6,,0.03,0.02,0.8,1,-0,-1,0.03,,,,,,,,,,
2455,0,0.0,0.62,,,,,,,,,,,,,,,,,,
2457,0,0.0,0.61,,,,,,,,,,,,,,,,,,
2459,0,0.0,0.61,,,,,,,,,,,,,,,,,,
2461,0,0.0,0.61,,,,,,,,,,,,,,,,,,
2463,0,0.0,0.61,,-0.16,0.13,0.81,1,-0,-1,0.2,32,2100,0,0.0,0.0,0.0,0.0,0,0,0.0
2465,0,0.0,0.61,,,,,,,,,,,,,,,,,,
2467,0,0.0,0.61,,,,,,,,,,,,,,,,,,
2469,0,0.0,0.6,,,,,,,,,,,,,,,,,,
2471,0,0.0,0.6,,,,,,,,,,,,,,,,,,
2473,0,0.0,0.6,,-0.22,0.15,0.94,2,-1,-1,0.27,,,,,,,,,,
2475,0,0.0,0.6,,,,,,,,,,,,,,,,,,
2477,0,0.0,0.6,,,,,,,,,,,,,,,,,,
2479,0,0.0,0.6,,,,,,,,,,,,,,,,,,
2481,0,0.0,0.59,,,,,,,,,,,,,,,,,,
2483,0,0.0,0.6,,-0.02,-0.01,0.99,1,-2,-0,0.02,42,2100,0,0.0,0.0,0.0,0.0,0,0,0.0
2485,0,0.0,0.61,,,,,,,,,,,,,,,,,,
2487,0,0.0,0.6,,,,,,,,,,,,,,,,,,
2489,0,0.0,0.6,,,,,,,,,,,,,,,,,,
2491,0,0.0,0.6,,,,,,,,,,,,,,,,,,
2493,0,0.0,0.6,,-0.29,0.1,0.99,0,-1,-0,0.31,,,,,,,,,,
2495,0,0.0,0.6,,,,,,,,,,,,,,,,,,
2497,0,0.0,0.6,,,,,,,,,,,,,,,,,,
2499,0,0.0,0.6,,,,,,,,,,,,,,,,,,
2501,0,0.0,0.6,,,,,,,,,,,,,,,,,,
2503,0,0.0,0.6,,-0.28,0.13,1.14,1,-1,0,0.31,42,2100,0,0.0,0.0,0.0,0.0,0,0,0.0
2505,0,0.0,0.61,,,,,,,,,,,,,,,,,,
2507,0,0.0,0.61,,,,,,,,,,,,,,,,,,
2509,0,0.0,0.61,,,,,,,,,,,,,,,,,,
2511,0,0.0,0.61,,,,,,,,,,,,,,,,,,
2513,0,0.0,0.62,,-0.13,0.04,1.07,0,-0,-0,0.14,,,,,,,,,,
2515,0,0.0,0.61,,,,,,,,,,,,,,,,,,
2517,0,0.0,0.61,,,,,,,,,,,,,,,,,,
2519,0,0.0,0.61,,,,,,,,,,,,,,,,,,
2521,0,0.0,0.6,,,,,,,,,,,,,,,,,,
2523,0,0.0,0.6,,-0.35,0.16,0.98,0,0,-1,0.38,42,2100,0,0.0,0.0,0.0,0.0,0,0,0.0
2525,0,0.0,0.6,,,,,,,,,,,,,,,,,,
2527,0,0.0,0.6,,,,,,,,,,,,,,,,,,
2529,0,0.0,0.6,,,,,,,,,,,,,,,,,,
2531,0,0.0,0.6,,,,,,,,,,,,,,,,,,
2533,0,0.0,0.6,,-0.17,0.05,0.9,1,-0,-0,0.18,,,,,,,,,,
2535,0,0.0,0.6,,,,,,,,,,,,,,,,,,
2537,0,0.0,0.6,,,,,,,,,,,,,,,,,,
2539,0,0.01,0.6,,,,,,,,,,,,,,,,,,
2541,0,0.0,0.61,,,,,,,,,,,,,,,,,,
2543,0,0.0,0.6,,-0.02,0.02,0.88,-0,0,-0,0.03,42,2100,0,0.0,0.0,0.0,0.0,0,0,0.0
2545,0,0.0,0.6,,,,,,,,,,,,,,,,,,
2547,0,0.0,0.6,,,,,,,,,,,,,,,,,,
2549,0,0.0,0.61,,,,,,,,,,,,,,,,,,
2551,0,0.0,0.61,,,,,,,,,,,,,,,,,,
2553,0,0.0,0.61,,-0.3,0.17,0.93,-0,-1,-1,0.34,,,,,,,,,,
2555,0,0.0,0.61,,,,,,,,,,,,,,,,,,
2557,0,0.0,0.61,,,,,,,,,,,,,,,,,,
2559,0,0.0,0.61,,,,,,,,,,,,,,,,,,
2561,0,0.0,0.61,,,,,,,,,,,,,,,,,,
2563,0,0.0,0.61,,0.03,0.06,0.82,0,-1,-1,0.06,42,2100,0,0.0,0.0,0.0,0.0,0,0,0.0
2565,0,0.0,0.61,,,,,,,,,,,,,,,,,,
2567,0,0.0,0.61,,,,,,,,,,,,,,,,,,
2569,0,0.0,0.62,,,,,,,,,,,,,,,,,,
2571,0,0.0,0.61,,,,,,,,,,,,,,,,,,
2573,0,0.0,0.61,,-0.08,0.03,0.88,-0,-1,-2,0.09,,,,,,,,,,
2575,0,0.0,0.6,,,,,,,,,,,,,,,,,,
2577,0,0.0,0.6,,,,,,,,,,,,,,,,,,
2579,0,0.0,0.6,,,,,,,,,,,,,,,,,,
2581,0,0.0,0.6,,,,,,,,,,,,,,,,,,
2583,0,0.0,0.6,,-0.32,0.12,1.09,0,-2,-2,0.35,38,2100,0,0.0,0.0,0.0,0.0,0,0,0.0
2585,0,0.0,0.6,,,,,,,,,,,,,,,,,,
2587,0,0.0,0.6,,,,,,,,,,,,,,,,,,
2589,0,0.0,0.6,,,,,,,,,,,,,,,,,,
2591,0,0.0,0.6,,,,,,,,,,,,,,,,,,
2593,0,0.0,0.61,,-0.17,-0.07,1.05,0,-2,-1,0.19,,,,,,,,,,
2595,0,0.0,0.61,,,,,,,,,,,,,,,,,,
2597,0,0.0,0.61,,,,,,,,,,,,,,,,,,
2599,0,0.0,0.61,,,,,,,,,,,,,,,,,,
2601,0,0.0,0.61,,,,,,,,,,,,,,,,,,
2603,0,0.0,0.61,,-0.24,-0.03,1.08,0,-1,-0,0.25,38,2040,0,0.0,0.0,0.0,0.0,0,0,0.0
2605,0,0.0,0.61,,,,,,,,,,,,,,,,,,
2607,0,0.0,0.61,,,,,,,,,,,,,,,,,,
2609,0,0.0,0.61,,,,,,,,,,,,,,,,,,
2611,0,0.0,0.61,,,,,,,,,,,,,,,,,,
2613,0,0.0,0.61,,-0.29,0.1,1.15,1,-1,0,0.31,,,,,,,,,,
2615,0,0.0,0.61,,,,,,,,,,,,,,,,,,
2617,0,0.0,0.61,,,,,,,,,,,,,,,,,,
2619,0,0.0,0.61,,,,,,,,,,,,,,,,,,
2621,0,0.0,0.62,,,,,,,,,,,,,,,,,,
2623,0,0.0,0.61,,0.01,0.03,0.9,1,-1,-1,0.04,38,2040,0,0.0,0.0,0.0,0.0,0,0,0.0
2625,0,0.0,0.62,,,,,,,,,,,,,,,,,,
2627,0,0.0,0.63,,,,,,,,,,,,,,,,,,
2629,0,0.0,0.62,,,,,,,,,,,,,,,,,,
2631,0,0.0,0.62,,,,,,,,,,,,,,,,,,
2633,0,0.0,0.62,,-0.21,0.09,0.85,1,0,-1,0.23,,,,,,,,,,
2635,0,0.0,0.62,,,,,,,,,,,,,,,,,,
2637,0,0.0,0.61,,,,,,,,,,,,,,,,,,
2639,0,0.0,0.61,,,,,,,,,,,,,,,,,,
2641,0,0.0,0.61,,,,,,,,,,,,,,,,,,
2643,0,0.0,0.61,,-0.2,0.09,0.96,2,-1,-1,0.21,52,2100,0,0.0,0.0,0.0,0.0,0,0,0.0
2645,0,0.0,0.61,,,,,,,,,,,,,,,,,,
2647,0,0.0,0.61,,,,,,,,,,,,,,,,,,
2649,0,0.0,0.61,,,,,,,,,,,,,,,,,,
2651,0,0.0,0.61,,,,,,,,,,,,,,,,,,
2653,0,0.0,0.61,,0.06,-0.01,0.9,1,-1,-1,0.07,,,,,,,,,,
2655,0,0.0,0.63,,,,,,,,,,,,,,,,,,
2657,0,0.0,0.62,,,,,,,,,,,,,,,,,,
2659,0,0.0,0.61,,,,,,,,,,,,,,,,,,
2661,0,0.0,0.62,,,,,,,,,,,,,,,,,,
2663,0,0.0,0.62,,-0.28,0.13,0.94,1,-0,-1,0.3,52,2040,0,0.0,0.0,0.0,0.0,0,0,0.0
2665,0,0.0,0.61,,,,,,,,,,,,,,,,,,
2667,0,0.0,0.62,,,,,,,,,,,,,,,,,,
2669,0,0.0,0.62,,,,,,,,,,,,,,,,,,
2671,0,0.0,0.62,,,,,,,,,,,,,,,,,,
2673,0,0.0,0.61,,-0.26,0.11,1.17,2,-1,-0,0.28,,,,,,,,,,
2675,0,0.0,0.61,,,,,,,,,,,,,,,,,,
2677,0,0.0,0.61,,,,,,,,,,,,,,,,,,
2679,0,0.0,0.61,,,,,,,,,,,,,,,,,,
2681,0,0.0,0.61,,,,,,,,,,,,,,,,,,
2683,0,0.0,0.62,,-0.05,0.02,1.06,1,0,-0,0.05,42,2100,0,0.0,0.0,0.0,0.0,0,0,0.0
2685,0,0.0,0.61,,,,,,,,,,,,,,,,,,
2687,0,0.0,0.61,,,,,,,,,,,,,,,,,,
2689,0,0.0,0.61,,,,,,,,,,,,,,,,,,
2691,0,0.0,0.61,,,,,,,,,,,,,,,,,,
2693,0,0.0,0.61,,-0.4,0.14,1.01,1,1,0,0.42,,,,,,,,,,
2695,0,0.0,0.61,,,,,,,,,,,,,,,,,,
2697,0,0.0,0.61,,,,,,,,,,,,,,,,,,
2699,0,0.0,0.61,,,,,,,,,,,,,,,,,,
2701,0,0.0,0.61,,,,,,,,,,,,,,,,,,
2703,0,0.0,0.61,,-0.22,0.05,0.99,2,-1,0,0.23,42,2100,0,0.0,0.0,0.0,0.0,0,0,0.0
2705,0,0.0,0.61,,,,,,,,,,,,,,,,,,
2707,0,0.0,0.62,,,,,,,,,,,,,,,,,,
2709,0,0.0,0.62,,,,,,,,,,,,,,,,,,
2711,0,0.0,0.63,,,,,,,,,,,,,,,,,,
2713,0,0.0,0.62,,0.02,0.04,0.89,0,1,-0,0.04,,,,,,,,,,
2715,0,0.0,0.62,,,,,,,,,,,,,,,,,,
2717,0,0.0,0.62,,,,,,,,,,,,,,,,,,
2719,0,0.0,0.62,,,,,,,,,,,,,,,,,,
2721,0,0.0,0.62,,,,,,,,,,,,,,,,,,
2723,0,0.0,0.62,,-0.37,0.2,0.94,0,0,-1,0.42,42,2040,0,0.0,0.0,0.0,0.0,0,0,0.0
2725,0,0.0,0.62,,,,,,,,,,,,,,,,,,
2727,0,0.0,0.62,,,,,,,,,,,,,,,,,,
2729,0,0.0,0.62,,,,,,,,,,,,,,,,,,
2731,0,0.0,0.61,,,,,,,,,,,,,,,,,,
2733,0,0.0,0.61,,-0.01,0.08,0.9,1,-1,-2,0.08,,,,,,,,,,
2735,0,0.0,0.61,,,,,,,,,,,,,,,,,,
2737,0,0.0,0.61,,,,,,,,,,,,,,,,,,
2739,0,0.0,0.62,,,,,,,,,,,,,,,,,,
2741,0,0.0,0.61,,,,,,,,,,,,,,,,,,
2743,0,0.0,0.61,,-0.02,-0.02,0.93,-1,1,-1,0.03,48,2100,0,0.0,0.0,0.0,0.0,0,0,0.0
2745,0,0.0,0.61,,,,,,,,,,,,,,,,,,
2747,0,0.0,0.61,,,,,,,,,,,,,,,,,,
2749,0,0.0,0.62,,,,,,,,,,,,,,,,,,
2751,0,0.0,0.62,,,,,,,,,,,,,,,,,,
2753,0,0.0,0.62,,-0.46,0.12,1.14,-0,-0,-1,0.47,,,,,,,,,,
2755,0,0.0,0.62,,,,,,,,,,,,,,,,,,
2757,0,0.0,0.62,,,,,,,,,,,,,,,,,,
2759,0,0.0,0.62,,,,,,,,,,,,,,,,,,
2761,0,0.0,0.62,,,,,,,,,,,,,,,,,,
2763,0,0.0,0.62,,-0.22,-0.04,1.02,0,-1,-0,0.22,48,2100,0,0.0,0.0,0.0,0.0,0,0,0.0
2765,0,0.0,0.62,,,,,,,,,,,,,,,,,,
2767,0,0.0,0.62,,,,,,,,,,,,,,,,,,
2769,0,0.0,0.63,,,,,,,,,,,,,,,,,,
2771,0,0.0,0.63,,,,,,,,,,,,,,,,,,
2773,0,0.0,0.62,,-0.09,-0.01,0.99,-0,0,-0,0.09,,,,,,,,,,
2775,0,0.0,0.62,,,,,,,,,,,,,,,,,,
2777,0,0.0,0.62,,,,,,,,,,,,,,,,,,
2779,0,0.0,0.62,,,,,,,,,,,,,,,,,,
2781,0,0.0,0.61,,,,,,,,,,,,,,,,,,
2783,0,0.0,0.61,,-0.33,0.11,1.09,0,1,-0,0.34,58,2040,0,0.0,0.0,0.0,0.0,0,0,0.0
2785,0,0.0,0.61,,,,,,,,,,,,,,,,,,
2787,0,0.0,0.61,,,,,,,,,,,,,,,,,,
2789,0,0.0,0.61,,,,,,,,,,,,,,,,,,
2791,0,0.0,0.61,,,,,,,,,,,,,,,,,,
2793,0,0.0,0.61,,-0.07,-0.09,0.91,1,-0,-0,0.11,,,,,,,,,,
2795,0,0.0,0.62,,,,,,,,,,,,,,,,,,
2797,0,0.0,0.63,,,,,,,,,,,,,,,,,,
2799,0,0.0,0.62,,,,,,,,,,,,,,,,,,
2801,0,0.0,0.62,,,,,,,,,,,,,,,,,,
2803,0,0.0,0.62,,-0.18,-0.07,0.87,0,1,1,0.2,58,2100,0,0.0,0.0,0.0,0.0,0,0,0.0
2805,0,0.0,0.62,,,,,,,,,,,,,,,,,,
2807,0,0.0,0.63,,,,,,,,,,,,,,,,,,
2809,0,0.0,0.63,,,,,,,,,,,,,,,,,,
2811,0,0.0,0.62,,,,,,,,,,,,,,,,,,
2813,0,0.0,0.63,,-0.33,0.09,0.99,1,0,1,0.34,,,,,,,,,,
2815,0,0.0,0.62,,,,,,,,,,,,,,,,,,
2817,0,0.0,0.62,,,,,,,,,,,,,,,,,,
2819,0,0.0,0.62,,,,,,,,,,,,,,,,,,
2821,0,0.0,0.62,,,,,,,,,,,,,,,,,,
2823,0,0.0,0.62,,-0.08,-0.03,0.9,1,-0,0,0.09,48,2100,0,0.0,0.0,0.0,0.0,0,0,0.0
2825,0,0.0,0.63,,,,,,,,,,,,,,,,,,
2827,0,0.0,0.62,,,,,,,,,,,,,,,,,,
2829,0,0.0,0.62,,,,,,,,,,,,,,,,,,
2831,0,0.0,0.61,,,,,,,,,,,,,,,,,,
2833,0,0.0,0.61,,-0.27,0.06,0.86,1,1,0,0.28,,,,,,,,,,
2835,0,0.0,0.62,,,,,,,,,,,,,,,,,,
2837,0,0.0,0.62,,,,,,,,,,,,,,,,,,
2839,0,0.0,0.62,,,,,,,,,,,,,,,,,,
2841,0,0.0,0.62,,,,,,,,,,,,,,,,,,
2843,0,0.0,0.62,,-0.32,0.1,1.03,2,-1,1,0.34,48,2040,0,0.0,0.0,0.0,0.0,0,0,0.0
2845,0,0.0,0.62,,,,,,,,,,,,,,,,,,
2847,0,0.0,0.62,,,,,,,,,,,,,,,,,,
2849,0,0.0,0.63,,,,,,,,,,,,,,,,,,
2851,0,0.0,0.63,,,,,,,,,,,,,,,,,,
2853,0,0.0,0.64,,-0.05,-0.05,0.91,2,-1,1,0.07,,,,,,,,,,
2855,0,0.0,0.63,,,,,,,,,,,,,,,,,,
2857,0,0.0,0.63,,,,,,,,,,,,,,,,,,
2859,0,0.0,0.63,,,,,,,,,,,,,,,,,,
2861,0,0.0,0.63,,,,,,,,,,,,,,,,,,
2863,0,0.0,0.63,,-0.31,0.11,0.92,1,-0,1,0.33,60,2100,0,0.0,0.0,0.0,0.0,0,0,0.0
2865,0,0.0,0.62,,,,,,,,,,,,,,,,,,
2867,0,0.0,0.62,,,,,,,,,,,,,,,,,,
2869,0,0.0,0.62,,,,,,,,,,,,,,,,,,
2871,0,0.0,0.62,,,,,,,,,,,,,,,,,,
2873,0,0.0,0.62,,-0.29,0.16,1.0,2,-1,1,0.33,,,,,,,,,,
2875,0,0.0,0.62,,,,,,,,,,,,,,,,,,
2877,0,0.0,0.62,,,,,,,,,,,,,,,,,,
2879,0,0.0,0.62,,,,,,,,,,,,,,,,,,
2881,0,0.0,0.62,,,,,,,,,,,,,,,,,,
2883,0,0.0,0.64,,-0.04,0.06,0.94,1,-1,0,0.07,60,2040,0,0.0,0.0,0.0,0.0,0,0,0.0
2885,0,0.0,0.62,,,,,,,,,,,,,,,,,,
2887,0,0.0,0.63,,,,,,,,,,,,,,,,,,
2889,0,0.0,0.63,,,,,,,,,,,,,,,,,,
2891,0,0.0,0.63,,,,,,,,,,,,,,,,,,
2893,0,0.0,0.63,,-0.39,0.15,0.94,1,-0,-0,0.41,,,,,,,,,,
2895,0,0.0,0.62,,,,,,,,,,,,,,,,,,
2897,0,0.0,0.63,,,,,,,,,,,,,,,,,,
2899,0,0.0,0.63,,,,,,,,,,,,,,,,,,
2901,0,0.0,0.63,,,,,,,,,,,,,,,,,,
2903,0,0.0,0.63,,-0.09,0.07,1.02,1,-2,-0,0.11,60,2040,0,0.0,0.0,0.0,0.0,0,0,0.0
2905,0,0.0,0.63,,,,,,,,,,,,,,,,,,
2907,0,0.0,0.62,,,,,,,,,,,,,,,,,,
2909,0,0.0,0.62,,,,,,,,,,,,,,,,,,
2911,0,0.0,0.64,,,,,,,,,,,,,,,,,,
2913,0,0.0,0.63,,-0.08,0.05,0.99,0,-1,-0,0.1,,,,,,,,,,
2915,0,0.0,0.62,,,,,,,,,,,,,,,,,,
2917,0,0.0,0.63,,,,,,,,,,,,,,,,,,
2919,0,0.0,0.63,,,,,,,,,,,,,,,,,,
2921,0,0.0,0.63,,,,,,,,,,,,,,,,,,
2923,0,0.0,0.63,,-0.35,0.21,1.09,0,-1,-1,0.4,55,2100,0,0.0,0.0,0.0,0.0,0,0,0.0
2925,0,0.0,0.63,,,,,,,,,,,,,,,,,,
2927,0,0.0,0.63,,,,,,,,,,,,,,,,,,
2929,0,0.0,0.63,,,,,,,,,,,,,,,,,,
2931,0,0.0,0.63,,,,,,,,,,,,,,,,,,
2933,0,0.0,0.63,,-0.07,-0.02,0.93,1,-2,-0,0.07,,,,,,,,,,
2935,0,0.0,0.63,,,,,,,,,,,,,,,,,,
2937,0,0.0,0.63,,,,,,,,,,,,,,,,,,
2939,0,0.0,0.64,,,,,,,,,,,,,,,,,,
2941,0,0.0,0.63,,,,,,,,,,,,,,,,,,
2943,0,0.0,0.64,,-0.04,0.03,1.06,0,0,-0,0.05,55,2040,0,0.0,0.0,0.0,0.0,0,0,0.0
2945,0,0.0,0.63,,,,,,,,,,,,,,,,,,
2947,0,0.0,0.62,,,,,,,,,,,,,,,,,,
2949,0,0.0,0.62,,,,,,,,,,,,,,,,,,
2951,0,0.0,0.63,,,,,,,,,,,,,,,,,,
2953,0,0.0,0.62,,-0.27,0.15,1.14,1,-1,-1,0.31,,,,,,,,,,
2955,0,0.0,0.62,,,,,,,,,,,,,,,,,,
2957,0,0.0,0.62,,,,,,,,,,,,,,,,,,
2959,0,0.0,0.62,,,,,,,,,,,,,,,,,,
2961,0,0.0,0.62,,,,,,,,,,,,,,,,,,
2963,0,0.0,0.62,,0.07,-0.02,0.95,1,-1,-1,0.07,62,2040,0,0.0,0.0,0.0,0.0,0,0,0.0
2965,0,0.0,0.63,,,,,,,,,,,,,,,,,,
2967,0,0.0,0.64,,,,,,,,,,,,,,,,,,
2969,0,0.0,0.63,,,,,,,,,,,,,,,,,,
2971,0,0.0,0.63,,,,,,,,,,,,,,,,,,
2973,0,0.0,0.64,,-0.06,-0.02,0.95,0,-1,-0,0.06,,,,,,,,,,
2975,0,0.0,0.63,,,,,,,,,,,,,,,,,,
2977,0,0.0,0.64,,,,,,,,,,,,,,,,,,
2979,0,0.0,0.64,,,,,,,,,,,,,,,,,,
2981,0,0.0,0.64,,,,,,,,,,,,,,,,,,
2983,0,0.0,0.64,,-0.17,0.1,1.07,1,-1,-1,0.19,62,2100,0,0.0,0.0,0.0,0.0,0,0,0.0
2985,0,0.0,0.64,,,,,,,,,,,,,,,,,,
2987,0,0.0,0.63,,,,,,,,,,,,,,,,,,
2989,0,0.0,0.63,,,,,,,,,,,,,,,,,,
2991,0,0.0,0.63,,,,,,,,,,,,,,,,,,
2993,0,0.0,0.63,,0.06,0.04,0.96,1,-2,-1,0.08,,,,,,,,,,
2995,0,0.0,0.64,,,,,,,,,,,,,,,,,,
2997,0,0.0,0.63,,,,,,,,,,,,,,,,,,
2999,0,0.0,0.63,,,,,,,,,,,,,,,,,,
3001,0,0.0,0.63,,,,,,,,,,,,,,,,,,
3003,0,0.0,0.63,,-0.03,0.04,0.97,1,-1,-1,0.05,55,2100,0,0.0,0.0,0.0,0.0,0,0,0.0
3005,0,0.0,0.63,,,,,,,,,,,,,,,,,,
3007,0,0.0,0.63,,,,,,,,,,,,,,,,,,
3009,0,0.0,0.63,,,,,,,,,,,,,,,,,,
3011,0,0.0,0.63,,,,,,,,,,,,,,,,,,
3013,0,0.0,0.63,,-0.08,0.0,1.1,2,-1,-0,0.08,,,,,,,,,,
3015,0,0.0,0.63,,,,,,,,,,,,,,,,,,
3017,0,0.0,0.64,,,,,,,,,,,,,,,,,,
3019,0,0.0,0.64,,,,,,,,,,,,,,,,,,
3021,0,0.0,0.64,,,,,,,,,,,,,,,,,,
3023,0,0.0,0.65,,0.1,-0.04,1.0,2,-1,1,0.11,55,2100,0,0.0,0.0,0.0,0.0,0,0,0.0
3025,0,0.0,0.64,,,,,,,,,,,,,,,,,,
3027,0,0.0,0.64,,,,,,,,,,,,,,,,,,
3029,0,0.0,0.64,,,,,,,,,,,,,,,,,,
3031,0,0.0,0.63,,,,,,,,,,,,,,,,,,
3033,0,0.0,0.63,,-0.11,0.14,1.0,2,0,0,0.18,,,,,,,,,,
3035,0,0.0,0.63,,,,,,,,,,,,,,,,,,
3037,0,0.0,0.63,,,,,,,,,,,,,,,,,,
3039,0,0.0,0.63,,,,,,,,,,,,,,,,,,
3041,0,0.0,0.63,,,,,,,,,,,,,,,,,,
3043,0,0.0,0.63,13.38,-0.04,0.13,1.06,3,0,0,0.13,62,2100,0,0.0,0.0,0.0,0.0,0,0,0.0
3045,0,0.0,0.63,,,,,,,,,,,,,,,,,,
3047,0,0.0,0.64,,,,,,,,,,,,,,,,,,
3049,0,0.0,0.64,,,,,,,,,,,,,,,,,,
3051,0,0.0,0.64,,,,,,,,,,,,,,,,,,
3053,0,0.0,0.65,,0.1,0.07,1.0,2,1,-0,0.12,,,,,,,,,,
3055,0,0.0,0.64,,,,,,,,,,,,,,,,,,
3057,0,0.0,0.64,,,,,,,,,,,,,,,,,,
3059,0,0.0,0.64,,,,,,,,,,,,,,,,,,
3061,0,0.0,0.64,,,,,,,,,,,,,,,,,,
3063,0,0.0,0.64,,-0.26,0.1,0.97,2,1,0,0.28,62,2040,0,0.0,0.0,0.0,0.0,0,0,0.0
3065,0,0.0,0.64,,,,,,,,,,,,,,,,,,
3067,0,0.0,0.64,,,,,,,,,,,,,,,,,,
3069,0,0.0,0.64,,,,,,,,,,,,,,,,,,
3071,0,0.0,0.64,,,,,,,,,,,,,,,,,,
3073,0,0.0,0.64,,0.05,0.11,0.96,2,-0,-0,0.12,,,,,,,,,,
3075,0,0.0,0.64,,,,,,,,,,,,,,,,,,
3077,0,0.0,0.64,,,,,,,,,,,,,,,,,,
3079,0,0.0,0.64,,,,,,,,,,,,,,,,,,
3081,0,0.0,0.65,,,,,,,,,,,,,,,,,,
3083,0,0.0,0.64,,0.12,0.14,0.86,1,0,-0,0.19,60,2100,0,0.0,0.0,0.0,0.0,0,0,0.0
3085,0,0.0,0.64,,,,,,,,,,,,,,,,,,
3087,0,0.0,0.64,,,,,,,,,,,,,,,,,,
3089,0,0.0,0.64,,,,,,,,,,,,,,,,,,
3091,0,0.0,0.64,,,,,,,,,,,,,,,,,,
3093,0,0.0,0.65,,-0.14,0.2,0.96,1,-0,-1,0.25,,,,,,,,,,
3095,0,0.0,0.64,,,,,,,,,,,,,,,,,,
3097,0,0.0,0.64,,,,,,,,,,,,,,,,,,
3099,0,0.0,0.64,,,,,,,,,,,,,,,,,,
3101,0,0.0,0.64,,,,,,,,,,,,,,,,,,
3103,0,0.0,0.64,,0.07,0.01,0.84,1,-2,0,0.07,60,2100,0,0.0,0.0,0.0,0.0,0,0,0.0
3105,0,0.0,0.64,,,,,,,,,,,,,,,,,,
3107,0,0.0,0.64,,,,,,,,,,,,,,,,,,
3109,0,0.0,0.66,,,,,,,,,,,,,,,,,,
3111,0,0.0,0.65,,,,,,,,,,,,,,,,,,
3113,0,0.0,0.64,,0.12,0.05,0.92,0,-0,0,0.13,,,,,,,,,,
3115,0,0.0,0.64,,,,,,,,,,,,,,,,,,
3117,0,0.0,0.64,,,,,,,,,,,,,,,,,,
3119,0,0.0,0.63,,,,,,,,,,,,,,,,,,
