"Interval"|"ms"|0|0|1,"Utc"|"ms"|0|0|1,"Analog4"|"Volts"|0.0|5.0|500,"Analog5"|"Volts"|0.0|5.0|500,"Battery"|"Volts"|0.0|20.0|1,"AccelX"|"G"|-3.0|3.0|200,"AccelY"|"G"|-3.0|3.0|200,"AccelZ"|"G"|-3.0|3.0|200,"Yaw"|"Deg/Sec"|-120|120|200,"Pitch"|"Deg/Sec"|-120|120|200,"Roll"|"Deg/Sec"|-120|120|200,"Gsum"|"G"|0.0|3.0|200,"RPM2"|"rpm"|0|8000|50,"RPM3"|"rpm"|0|8000|50,"GPIO1"|""|0.0|1.0|50,"Latitude"|"Degrees"|-180.0|180.0|50,"Longitude"|"Degrees"|-180.0|180.0|50,"Speed"|"mph"|0.0|150.0|50,"Altitude"|"ft"|0.0|4000.0|50,"GPSSats"|""|0|20|50,"GPSQual"|""|0|5|50,"GPSDOP"|""|0.0|20.0|50
121,0,0.0,0.25,,,,,,,,,,,,,,,,,,
123,0,0.0,0.25,,-0.07,0.07,1.04,1,0,-0,0.1,0,2100,0,0.0,0.0,0.0,0.0,0,0,0.0
125,0,0.0,0.25,,,,,,,,,,,,,,,,,,
127,0,0.0,0.25,,,,,,,,,,,,,,,,,,
129,0,0.0,0.25,,,,,,,,,,,,,,,,,,
131,0,0.0,0.25,,,,,,,,,,,,,,,,,,
133,0,0.0,0.26,,0.01,0.07,0.95,-0,-1,-0,0.07,,,,,,,,,,
135,0,0.0,0.25,,,,,,,,,,,,,,,,,,
137,0,0.0,0.25,,,,,,,,,,,,,,,,,,
139,0,0.0,0.25,,,,,,,,,,,,,,,,,,
141,0,0.0,0.25,,,,,,,,,,,,,,,,,,
143,0,0.0,0.25,,-0.14,0.06,0.94,0,-0,-0,0.15,0,2160,0,0.0,0.0,0.0,0.0,0,0,0.0
145,0,0.0,0.25,,,,,,,,,,,,,,,,,,
147,0,0.0,0.25,,,,,,,,,,,,,,,,,,
149,0,0.0,0.25,,,,,,,,,,,,,,,,,,
151,0,0.0,0.25,,,,,,,,,,,,,,,,,,
153,0,0.0,0.25,,-0.07,0.03,0.95,1,-1,-0,0.08,,,,,,,,,,
155,0,0.0,0.25,,,,,,,,,,,,,,,,,,
157,0,0.0,0.25,,,,,,,,,,,,,,,,,,
159,0,0.0,0.25,,,,,,,,,,,,,,,,,,
161,0,0.0,0.26,,,,,,,,,,,,,,,,,,
163,0,0.0,0.25,,0.0,0.11,1.03,0,0,-0,0.11,0,2100,0,0.0,0.0,0.0,0.0,0,0,0.0
165,0,0.0,0.25,,,,,,,,,,,,,,,,,,
167,0,0.0,0.25,,,,,,,,,,,,,,,,,,
169,0,0.0,0.25,,,,,,,,,,,,,,,,,,
171,0,0.0,0.25,,,,,,,,,,,,,,,,,,
173,0,0.0,0.25,,-0.26,0.08,0.97,0,-1,-1,0.27,,,,,,,,,,
175,0,0.0,0.25,,,,,,,,,,,,,,,,,,
177,0,0.0,0.25,,,,,,,,,,,,,,,,,,
179,0,0.0,0.25,,,,,,,,,,,,,,,,,,
181,0,0.0,0.25,,,,,,,,,,,,,,,,,,
183,0,0.0,0.25,,0.02,0.02,1.04,0,-1,-0,0.02,0,2100,0,0.0,0.0,0.0,0.0,0,0,0.0
185,0,0.0,0.25,,,,,,,,,,,,,,,,,,
187,0,0.0,0.25,,,,,,,,,,,,,,,,,,
189,0,0.01,0.26,,,,,,,,,,,,,,,,,,
191,0,0.0,0.25,,,,,,,,,,,,,,,,,,
193,0,0.0,0.25,,-0.05,0.11,0.93,0,0,-0,0.12,,,,,,,,,,
195,0,0.0,0.25,,,,,,,,,,,,,,,,,,
197,0,0.0,0.25,,,,,,,,,,,,,,,,,,
199,0,0.0,0.25,,,,,,,,,,,,,,,,,,
201,0,0.0,0.25,,,,,,,,,,,,,,,,,,
203,0,0.0,0.25,,-0.21,0.1,1.06,0,-0,-1,0.23,0,2160,0,0.0,0.0,0.0,0.0,0,0,0.0
205,0,0.0,0.25,,,,,,,,,,,,,,,,,,
207,0,0.0,0.25,,,,,,,,,,,,,,,,,,
209,0,0.0,0.25,,,,,,,,,,,,,,,,,,
211,0,0.0,0.25,,,,,,,,,,,,,,,,,,
213,0,0.0,0.25,,-0.01,0.03,0.96,0,-1,-0,0.03,,,,,,,,,,
215,0,0.0,0.25,,,,,,,,,,,,,,,,,,
217,0,0.0,0.26,,,,,,,,,,,,,,,,,,
219,0,0.0,0.25,,,,,,,,,,,,,,,,,,
221,0,0.0,0.26,,,,,,,,,,,,,,,,,,
223,0,0.0,0.25,,-0.04,0.08,0.97,0,-0,-1,0.09,0,2100,0,0.0,0.0,0.0,0.0,0,0,0.0
225,0,0.0,0.25,,,,,,,,,,,,,,,,,,
227,0,0.0,0.25,,,,,,,,,,,,,,,,,,
229,0,0.0,0.25,,,,,,,,,,,,,,,,,,
231,0,0.0,0.25,,,,,,,,,,,,,,,,,,
233,0,0.0,0.25,,-0.1,0.08,1.05,0,0,-1,0.13,,,,,,,,,,
235,0,0.0,0.25,,,,,,,,,,,,,,,,,,
237,0,0.0,0.25,,,,,,,,,,,,,,,,,,
239,0,0.0,0.25,,,,,,,,,,,,,,,,,,
241,0,0.0,0.25,,,,,,,,,,,,,,,,,,
243,0,0.0,0.25,,0.04,0.07,1.01,0,-1,-0,0.08,0,2100,0,0.0,0.0,0.0,0.0,0,0,0.0
245,0,0.0,0.26,,,,,,,,,,,,,,,,,,
247,0,0.0,0.26,,,,,,,,,,,,,,,,,,
249,0,0.0,0.25,,,,,,,,,,,,,,,,,,
251,0,0.0,0.25,,,,,,,,,,,,,,,,,,
253,0,0.0,0.25,,-0.1,0.06,0.95,0,-0,-0,0.12,,,,,,,,,,
255,0,0.0,0.25,,,,,,,,,,,,,,,,,,
257,0,0.0,0.25,,,,,,,,,,,,,,,,,,
259,0,0.0,0.25,,,,,,,,,,,,,,,,,,
261,0,0.0,0.25,,,,,,,,,,,,,,,,,,
263,0,0.0,0.25,,-0.11,0.05,1.0,0,-0,-0,0.12,0,2160,0,0.0,0.0,0.0,0.0,0,0,0.0
265,0,0.0,0.25,,,,,,,,,,,,,,,,,,
267,0,0.0,0.25,,,,,,,,,,,,,,,,,,
269,0,0.0,0.25,,,,,,,,,,,,,,,,,,
271,0,0.0,0.25,,,,,,,,,,,,,,,,,,
273,0,0.0,0.26,,0.03,0.11,0.99,-0,0,0,0.11,,,,,,,,,,
275,0,0.0,0.26,,,,,,,,,,,,,,,,,,
277,0,0.0,0.26,,,,,,,,,,,,,,,,,,
279,0,0.0,0.25,,,,,,,,,,,,,,,,,,
281,0,0.0,0.25,,,,,,,,,,,,,,,,,,
283,0,0.0,0.25,,-0.21,0.07,0.98,0,-1,-0,0.22,0,2100,0,0.0,0.0,0.0,0.0,0,0,0.0
285,0,0.0,0.26,,,,,,,,,,,,,,,,,,
287,0,0.0,0.25,,,,,,,,,,,,,,,,,,
289,0,0.0,0.25,,,,,,,,,,,,,,,,,,
291,0,0.0,0.25,,,,,,,,,,,,,,,,,,
293,0,0.0,0.25,,-0.05,0.03,1.05,0,-1,-0,0.06,,,,,,,,,,
295,0,0.0,0.26,,,,,,,,,,,,,,,,,,
297,0,0.0,0.26,,,,,,,,,,,,,,,,,,
299,0,0.0,0.25,,,,,,,,,,,,,,,,,,
301,0,0.0,0.27,,,,,,,,,,,,,,,,,,
303,0,0.0,0.26,,-0.04,0.09,0.98,-0,0,-0,0.1,0,2160,0,0.0,0.0,0.0,0.0,0,0,0.0
305,0,0.0,0.26,,,,,,,,,,,,,,,,,,
307,0,0.0,0.26,,,,,,,,,,,,,,,,,,
309,0,0.0,0.26,,,,,,,,,,,,,,,,,,
311,0,0.0,0.26,,,,,,,,,,,,,,,,,,
313,0,0.0,0.25,,-0.19,0.09,1.0,0,-0,-0,0.21,,,,,,,,,,
315,0,0.0,0.26,,,,,,,,,,,,,,,,,,
317,0,0.0,0.26,,,,,,,,,,,,,,,,,,
319,0,0.0,0.26,,,,,,,,,,,,,,,,,,
321,0,0.0,0.26,,,,,,,,,,,,,,,,,,
323,0,0.0,0.26,,-0.04,0.02,0.94,0,-1,-0,0.05,0,2160,0,0.0,0.0,0.0,0.0,0,0,0.0
325,0,0.0,0.26,,,,,,,,,,,,,,,,,,
327,0,0.0,0.26,,,,,,,,,,,,,,,,,,
329,0,0.0,0.27,,,,,,,,,,,,,,,,,,
331,0,0.0,0.26,,,,,,,,,,,,,,,,,,
333,0,0.0,0.26,,-0.02,0.1,0.99,-0,0,-0,0.1,,,,,,,,,,
335,0,0.0,0.26,,,,,,,,,,,,,,,,,,
337,0,0.0,0.26,,,,,,,,,,,,,,,,,,
339,0,0.0,0.26,,,,,,,,,,,,,,,,,,
341,0,0.0,0.26,,,,,,,,,,,,,,,,,,
343,0,0.0,0.26,,-0.14,0.09,1.01,0,0,-1,0.17,0,2100,0,0.0,0.0,0.0,0.0,0,0,0.0
345,0,0.0,0.26,,,,,,,,,,,,,,,,,,
347,0,0.0,0.26,,,,,,,,,,,,,,,,,,
349,0,0.0,0.26,,,,,,,,,,,,,,,,,,
351,0,0.0,0.26,,,,,,,,,,,,,,,,,,
353,0,0.0,0.26,,0.04,0.06,1.0,0,-1,-0,0.07,,,,,,,,,,
355,0,0.0,0.26,,,,,,,,,,,,,,,,,,
357,0,0.0,0.27,,,,,,,,,,,,,,,,,,
359,0,0.0,0.26,,,,,,,,,,,,,,,,,,
361,0,0.0,0.26,,,,,,,,,,,,,,,,,,
363,0,0.0,0.26,,-0.08,0.08,0.93,0,1,-0,0.11,0,2160,0,0.0,0.0,0.0,0.0,0,0,0.0
365,0,0.0,0.26,,,,,,,,,,,,,,,,,,
367,0,0.0,0.26,,,,,,,,,,,,,,,,,,
369,0,0.0,0.26,,,,,,,,,,,,,,,,,,
371,0,0.0,0.26,,,,,,,,,,,,,,,,,,
373,0,0.0,0.26,,-0.18,0.07,1.09,0,0,-0,0.2,,,,,,,,,,
375,0,0.0,0.26,,,,,,,,,,,,,,,,,,
377,0,0.0,0.26,,,,,,,,,,,,,,,,,,
379,0,0.0,0.26,,,,,,,,,,,,,,,,,,
381,0,0.0,0.26,,,,,,,,,,,,,,,,,,
383,0,0.0,0.26,,0.03,0.07,0.97,-0,-0,0,0.07,0,2160,0,0.0,0.0,0.0,0.0,0,0,0.0
385,0,0.0,0.27,,,,,,,,,,,,,,,,,,
387,0,0.0,0.26,,,,,,,,,,,,,,,,,,
389,0,0.0,0.26,,,,,,,,,,,,,,,,,,
391,0,0.0,0.26,,,,,,,,,,,,,,,,,,
393,0,0.0,0.26,,-0.12,0.06,0.96,0,-0,-0,0.13,,,,,,,,,,
395,0,0.0,0.26,,,,,,,,,,,,,,,,,,
397,0,0.0,0.26,,,,,,,,,,,,,,,,,,
399,0,0.0,0.26,,,,,,,,,,,,,,,,,,
401,0,0.0,0.26,,,,,,,,,,,,,,,,,,
403,0,0.0,0.26,,-0.07,0.05,1.05,0,0,-0,0.09,0,2100,0,0.0,0.0,0.0,0.0,0,0,0.0
405,0,0.0,0.26,,,,,,,,,,,,,,,,,,
407,0,0.0,0.26,,,,,,,,,,,,,,,,,,
409,0,0.0,0.26,,,,,,,,,,,,,,,,,,
411,0,0.0,0.26,,,,,,,,,,,,,,,,,,
413,0,0.0,0.28,,-0.01,0.09,0.98,-0,-0,-0,0.09,,,,,,,,,,
415,0,0.0,0.26,,,,,,,,,,,,,,,,,,
417,0,0.0,0.26,,,,,,,,,,,,,,,,,,
419,0,0.0,0.26,,,,,,,,,,,,,,,,,,
421,0,0.0,0.26,,,,,,,,,,,,,,,,,,
423,0,0.0,0.26,,-0.15,0.08,0.97,0,-0,-0,0.17,0,2160,0,0.0,0.0,0.0,0.0,0,0,0.0
425,0,0.0,0.26,,,,,,,,,,,,,,,,,,
427,0,0.0,0.26,,,,,,,,,,,,,,,,,,
429,0,0.0,0.26,,,,,,,,,,,,,,,,,,
431,0,0.0,0.26,,,,,,,,,,,,,,,,,,
433,0,0.0,0.26,,-0.05,0.02,0.94,0,-1,-0,0.06,,,,,,,,,,
435,0,0.0,0.26,,,,,,,,,,,,,,,,,,
437,0,0.0,0.26,,,,,,,,,,,,,,,,,,
439,0,0.0,0.26,,,,,,,,,,,,,,,,,,
441,0,0.0,0.28,,,,,,,,,,,,,,,,,,
443,0,0.0,0.26,,0.02,0.11,1.02,-0,0,-0,0.11,0,2100,0,0.0,0.0,0.0,0.0,0,0,0.0
445,0,0.0,0.27,,,,,,,,,,,,,,,,,,
447,0,0.0,0.26,,,,,,,,,,,,,,,,,,
449,0,0.0,0.26,,,,,,,,,,,,,,,,,,
451,0,0.0,0.26,,,,,,,,,,,,,,,,,,
453,0,0.0,0.26,,-0.23,0.1,1.0,0,-0,-1,0.25,,,,,,,,,,
455,0,0.0,0.26,,,,,,,,,,,,,,,,,,
457,0,0.0,0.26,,,,,,,,,,,,,,,,,,
459,0,0.0,0.26,,,,,,,,,,,,,,,,,,
461,0,0.0,0.27,,,,,,,,,,,,,,,,,,
463,0,0.0,0.26,,0.04,0.02,1.01,0,-1,0,0.05,0,2100,0,0.0,0.0,0.0,0.0,0,0,0.0
465,0,0.0,0.26,,,,,,,,,,,,,,,,,,
467,0,0.0,0.27,,,,,,,,,,,,,,,,,,
469,0,0.0,0.28,,,,,,,,,,,,,,,,,,
471,0,0.0,0.27,,,,,,,,,,,,,,,,,,
473,0,0.0,0.27,,-0.03,0.1,0.94,0,1,-0,0.11,,,,,,,,,,
475,0,0.0,0.27,,,,,,,,,,,,,,,,,,
477,0,0.0,0.27,,,,,,,,,,,,,,,,,,
479,0,0.0,0.27,,,,,,,,,,,,,,,,,,
481,0,0.0,0.27,,,,,,,,,,,,,,,,,,
483,0,0.0,0.27,,-0.19,0.1,1.06,0,-0,-1,0.22,0,2160,0,0.0,0.0,0.0,0.0,0,0,0.0
485,0,0.0,0.27,,,,,,,,,,,,,,,,,,
487,0,0.0,0.26,,,,,,,,,,,,,,,,,,
489,0,0.0,0.27,,,,,,,,,,,,,,,,,,
491,0,0.0,0.26,,,,,,,,,,,,,,,,,,
493,0,0.0,0.27,,0.0,0.05,0.96,0,-1,-0,0.05,,,,,,,,,,
495,0,0.0,0.27,,,,,,,,,,,,,,,,,,
497,0,0.0,0.28,,,,,,,,,,,,,,,,,,
499,0,0.0,0.27,,,,,,,,,,,,,,,,,,
501,0,0.0,0.27,,,,,,,,,,,,,,,,,,
503,0,0.0,0.27,,-0.04,0.07,0.95,0,-0,-0,0.08,0,2100,0,0.0,0.0,0.0,0.0,0,0,0.0
505,0,0.0,0.27,,,,,,,,,,,,,,,,,,
507,0,0.0,0.27,,,,,,,,,,,,,,,,,,
509,0,0.0,0.27,,,,,,,,,,,,,,,,,,
511,0,0.0,0.27,,,,,,,,,,,,,,,,,,
513,0,0.0,0.27,,-0.07,0.08,1.04,1,0,-0,0.11,,,,,,,,,,
515,0,0.0,0.26,,,,,,,,,,,,,,,,,,
517,0,0.0,0.27,,,,,,,,,,,,,,,,,,
519,0,0.0,0.27,,,,,,,,,,,,,,,,,,
521,0,0.0,0.27,,,,,,,,,,,,,,,,,,
523,0,0.0,0.27,,0.04,0.07,0.98,-0,-1,0,0.08,0,2100,0,0.0,0.0,0.0,0.0,0,0,0.0
525,0,0.0,0.27,,,,,,,,,,,,,,,,,,
527,0,0.0,0.27,,,,,,,,,,,,,,,,,,
529,0,0.0,0.27,,,,,,,,,,,,,,,,,,
531,0,0.0,0.27,,,,,,,,,,,,,,,,,,
533,0,0.0,0.27,,-0.12,0.06,0.96,0,-0,-0,0.13,,,,,,,,,,
535,0,0.0,0.27,,,,,,,,,,,,,,,,,,
537,0,0.0,0.27,,,,,,,,,,,,,,,,,,
539,0,0.0,0.27,,,,,,,,,,,,,,,,,,
541,0,0.0,0.27,,,,,,,,,,,,,,,,,,
543,0,0.0,0.27,,-0.08,0.03,0.97,0,-0,-0,0.09,0,2160,0,0.0,0.0,0.0,0.0,0,0,0.0
545,0,0.0,0.27,,,,,,,,,,,,,,,,,,
547,0,0.0,0.27,,,,,,,,,,,,,,,,,,
549,0,0.0,0.27,,,,,,,,,,,,,,,,,,
551,0,0.0,0.27,,,,,,,,,,,,,,,,,,
553,0,0.0,0.27,,0.02,0.12,1.0,-0,0,-0,0.12,,,,,,,,,,
555,0,0.0,0.27,,,,,,,,,,,,,,,,,,
557,0,0.0,0.27,,,,,,,,,,,,,,,,,,
559,0,0.0,0.27,,,,,,,,,,,,,,,,,,
561,0,0.0,0.27,,,,,,,,,,,,,,,,,,
563,0,0.0,0.27,,-0.25,0.07,0.97,0,-1,-0,0.26,0,2100,0,0.0,0.0,0.0,0.0,0,0,0.0
565,0,0.0,0.27,,,,,,,,,,,,,,,,,,
567,0,0.0,0.27,,,,,,,,,,,,,,,,,,
569,0,0.0,0.27,,,,,,,,,,,,,,,,,,
571,0,0.0,0.27,,,,,,,,,,,,,,,,,,
573,0,0.0,0.27,,-0.03,0.02,1.05,0,-1,-0,0.03,,,,,,,,,,
575,0,0.0,0.27,,,,,,,,,,,,,,,,,,
577,0,0.0,0.27,,,,,,,,,,,,,,,,,,
579,0,0.0,0.28,,,,,,,,,,,,,,,,,,
581,0,0.0,0.27,,,,,,,,,,,,,,,,,,
583,0,0.0,0.27,,-0.05,0.09,0.95,-0,0,-0,0.1,0,2160,0,0.0,0.0,0.0,0.0,0,0,0.0
585,0,0.0,0.28,,,,,,,,,,,,,,,,,,
587,0,0.0,0.27,,,,,,,,,,,,,,,,,,
589,0,0.0,0.27,,,,,,,,,,,,,,,,,,
591,0,0.0,0.27,,,,,,,,,,,,,,,,,,
593,0,0.0,0.27,,-0.2,0.09,1.06,0,-0,-1,0.22,,,,,,,,,,
595,0,0.0,0.27,,,,,,,,,,,,,,,,,,
597,0,0.0,0.27,,,,,,,,,,,,,,,,,,
599,0,0.0,0.27,,,,,,,,,,,,,,,,,,
601,0,0.0,0.27,,,,,,,,,,,,,,,,,,
603,0,0.0,0.27,,-0.02,0.02,0.95,0,-1,-0,0.03,0,2160,0,0.0,0.0,0.0,0.0,0,0,0.0
605,0,0.0,0.27,,,,,,,,,,,,,,,,,,
607,0,0.0,0.28,,,,,,,,,,,,,,,,,,
609,0,0.0,0.28,,,,,,,,,,,,,,,,,,
611,0,0.0,0.28,,,,,,,,,,,,,,,,,,
613,0,0.0,0.28,,-0.03,0.09,1.0,0,-0,-0,0.09,,,,,,,,,,
615,0,0.0,0.27,,,,,,,,,,,,,,,,,,
617,0,0.0,0.28,,,,,,,,,,,,,,,,,,
619,0,0.0,0.27,,,,,,,,,,,,,,,,,,
621,0,0.0,0.27,,,,,,,,,,,,,,,,,,
623,0,0.0,0.27,,-0.11,0.08,1.02,0,0,-1,0.14,0,2100,0,0.0,0.0,0.0,0.0,0,0,0.0
625,0,0.0,0.27,,,,,,,,,,,,,,,,,,
627,0,0.0,0.27,,,,,,,,,,,,,,,,,,
629,0,0.0,0.28,,,,,,,,,,,,,,,,,,
631,0,0.0,0.28,,,,,,,,,,,,,,,,,,
633,0,0.0,0.28,,0.06,0.06,1.04,0,-1,-0,0.09,,,,,,,,,,
635,0,0.0,0.29,,,,,,,,,,,,,,,,,,
637,0,0.0,0.28,,,,,,,,,,,,,,,,,,
639,0,0.0,0.28,,,,,,,,,,,,,,,,,,
641,0,0.0,0.28,,,,,,,,,,,,,,,,,,
643,0,0.0,0.28,,-0.07,0.07,0.94,0,0,-0,0.11,0,2160,0,0.0,0.0,0.0,0.0,0,0,0.0
645,0,0.0,0.28,,,,,,,,,,,,,,,,,,
647,0,0.0,0.28,,,,,,,,,,,,,,,,,,
649,0,0.0,0.28,,,,,,,,,,,,,,,,,,
651,0,0.0,0.28,,,,,,,,,,,,,,,,,,
653,0,0.0,0.27,,-0.12,0.06,1.02,0,-0,-0,0.14,,,,,,,,,,
655,0,0.0,0.28,,,,,,,,,,,,,,,,,,
657,0,0.0,0.28,,,,,,,,,,,,,,,,,,
659,0,0.0,0.28,,,,,,,,,,,,,,,,,,
661,0,0.0,0.28,,,,,,,,,,,,,,,,,,
663,0,0.0,0.29,,0.05,0.11,0.95,-0,0,-0,0.12,0,2100,0,0.0,0.0,0.0,0.0,0,0,0.0
665,0,0.0,0.28,,,,,,,,,,,,,,,,,,
667,0,0.0,0.28,,,,,,,,,,,,,,,,,,
669,0,0.0,0.28,,,,,,,,,,,,,,,,,,
671,0,0.0,0.28,,,,,,,,,,,,,,,,,,
673,0,0.0,0.28,,-0.21,0.08,0.96,0,-1,-0,0.23,,,,,,,,,,
675,0,0.0,0.28,,,,,,,,,,,,,,,,,,
677,0,0.0,0.28,,,,,,,,,,,,,,,,,,
679,0,0.0,0.28,,,,,,,,,,,,,,,,,,
681,0,0.0,0.28,,,,,,,,,,,,,,,,,,
683,0,0.0,0.28,,-0.03,0.04,1.04,0,-1,-0,0.05,0,2100,0,0.0,0.0,0.0,0.0,0,0,0.0
685,0,0.0,0.28,,,,,,,,,,,,,,,,,,
687,0,0.0,0.28,,,,,,,,,,,,,,,,,,
689,0,0.0,0.28,,,,,,,,,,,,,,,,,,
691,0,0.0,0.29,,,,,,,,,,,,,,,,,,
693,0,0.0,0.28,,-0.04,0.1,0.96,-0,0,-0,0.11,,,,,,,,,,
695,0,0.0,0.28,,,,,,,,,,,,,,,,,,
697,0,0.0,0.28,,,,,,,,,,,,,,,,,,
699,0,0.0,0.28,,,,,,,,,,,,,,,,,,
701,0,0.0,0.28,,,,,,,,,,,,,,,,,,
703,0,0.0,0.28,,-0.2,0.1,1.02,0,-1,-0,0.22,0,2160,0,0.0,0.0,0.0,0.0,0,0,0.0
705,0,0.0,0.28,,,,,,,,,,,,,,,,,,
707,0,0.0,0.28,,,,,,,,,,,,,,,,,,
709,0,0.0,0.28,,,,,,,,,,,,,,,,,,
711,0,0.0,0.28,,,,,,,,,,,,,,,,,,
713,0,0.0,0.28,,-0.03,0.02,0.93,0,-2,-0,0.04,,,,,,,,,,
715,0,0.0,0.28,,,,,,,,,,,,,,,,,,
717,0,0.0,0.28,,,,,,,,,,,,,,,,,,
719,0,0.0,0.29,,,,,,,,,,,,,,,,,,
721,0,0.0,0.28,,,,,,,,,,,,,,,,,,
723,0,0.0,0.28,,-0.02,0.1,1.0,-0,0,-0,0.1,0,2100,0,0.0,0.0,0.0,0.0,0,0,0.0
725,0,0.0,0.28,,,,,,,,,,,,,,,,,,
727,0,0.0,0.28,,,,,,,,,,,,,,,,,,
729,0,0.0,0.28,,,,,,,,,,,,,,,,,,
731,0,0.0,0.28,,,,,,,,,,,,,,,,,,
733,0,0.0,0.28,,-0.12,0.09,1.02,0,-0,-1,0.15,,,,,,,,,,
735,0,0.0,0.28,,,,,,,,,,,,,,,,,,
737,0,0.0,0.28,,,,,,,,,,,,,,,,,,
739,0,0.0,0.28,,,,,,,,,,,,,,,,,,
741,0,0.0,0.28,,,,,,,,,,,,,,,,,,
743,0,0.0,0.28,,0.04,0.05,1.02,0,-1,-0,0.07,0,2100,0,0.0,0.0,0.0,0.0,0,0,0.0
745,0,0.0,0.28,,,,,,,,,,,,,,,,,,
747,0,0.0,0.29,,,,,,,,,,,,,,,,,,
749,0,0.0,0.29,,,,,,,,,,,,,,,,,,
751,0,0.0,0.29,,,,,,,,,,,,,,,,,,
753,0,0.0,0.29,,-0.09,0.08,0.94,0,1,-0,0.12,,,,,,,,,,
755,0,0.0,0.28,,,,,,,,,,,,,,,,,,
757,0,0.0,0.28,,,,,,,,,,,,,,,,,,
759,0,0.0,0.28,,,,,,,,,,,,,,,,,,
761,0,0.0,0.28,,,,,,,,,,,,,,,,,,
763,0,0.0,0.28,,-0.17,0.07,1.08,0,0,-0,0.18,0,2160,0,0.0,0.0,0.0,0.0,0,0,0.0
765,0,0.0,0.28,,,,,,,,,,,,,,,,,,
767,0,0.0,0.28,,,,,,,,,,,,,,,,,,
769,0,0.0,0.28,,,,,,,,,,,,,,,,,,
771,0,0.0,0.28,,,,,,,,,,,,,,,,,,
773,0,0.0,0.28,,0.03,0.07,0.97,-0,-0,0,0.08,,,,,,,,,,
775,0,0.0,0.3,,,,,,,,,,,,,,,,,,
777,0,0.0,0.29,,,,,,,,,,,,,,,,,,
779,0,0.0,0.29,,,,,,,,,,,,,,,,,,
781,0,0.0,0.28,,,,,,,,,,,,,,,,,,
783,0,0.0,0.29,,-0.14,0.06,0.96,0,-0,-1,0.15,0,2100,0,0.0,0.0,0.0,0.0,0,0,0.0
785,0,0.0,0.28,,,,,,,,,,,,,,,,,,
787,0,0.0,0.28,,,,,,,,,,,,,,,,,,
789,0,0.0,0.28,,,,,,,,,,,,,,,,,,
791,0,0.0,0.28,,,,,,,,,,,,,,,,,,
793,0,0.0,0.28,,-0.07,0.04,1.07,1,0,-1,0.08,,,,,,,,,,
795,0,0.0,0.28,,,,,,,,,,,,,,,,,,
797,0,0.0,0.29,,,,,,,,,,,,,,,,,,
799,0,0.0,0.29,,,,,,,,,,,,,,,,,,
801,0,0.0,0.28,,,,,,,,,,,,,,,,,,
803,0,0.0,0.3,,-0.02,0.08,1.0,-0,-0,-0,0.09,0,2160,0,0.0,0.0,0.0,0.0,0,0,0.0
805,0,0.0,0.29,,,,,,,,,,,,,,,,,,
807,0,0.0,0.29,,,,,,,,,,,,,,,,,,
809,0,0.0,0.29,,,,,,,,,,,,,,,,,,
811,0,0.0,0.29,,,,,,,,,,,,,,,,,,
813,0,0.0,0.29,,-0.15,0.08,0.96,0,-0,-0,0.16,,,,,,,,,,
815,0,0.0,0.29,,,,,,,,,,,,,,,,,,
817,0,0.0,0.29,,,,,,,,,,,,,,,,,,
819,0,0.0,0.29,,,,,,,,,,,,,,,,,,
821,0,0.0,0.29,,,,,,,,,,,,,,,,,,
823,0,0.0,0.29,,-0.04,0.02,0.92,0,-1,-0,0.05,0,2160,0,0.0,0.0,0.0,0.0,0,0,0.0
825,0,0.0,0.28,,,,,,,,,,,,,,,,,,
827,0,0.0,0.29,,,,,,,,,,,,,,,,,,
829,0,0.0,0.29,,,,,,,,,,,,,,,,,,
831,0,0.0,0.3,,,,,,,,,,,,,,,,,,
833,0,0.0,0.29,,0.0,0.11,0.99,-0,0,-0,0.11,,,,,,,,,,
835,0,0.0,0.29,,,,,,,,,,,,,,,,,,
837,0,0.0,0.29,,,,,,,,,,,,,,,,,,
839,0,0.0,0.29,,,,,,,,,,,,,,,,,,
841,0,0.0,0.29,,,,,,,,,,,,,,,,,,
843,0,0.0,0.29,,-0.2,0.09,1.01,0,-0,-1,0.22,0,2100,0,0.0,0.0,0.0,0.0,0,0,0.0
845,0,0.0,0.29,,,,,,,,,,,,,,,,,,
847,0,0.0,0.29,,,,,,,,,,,,,,,,,,
849,0,0.0,0.29,,,,,,,,,,,,,,,,,,
851,0,0.0,0.29,,,,,,,,,,,,,,,,,,
853,0,0.0,0.29,,0.03,0.04,1.0,0,-1,-0,0.05,,,,,,,,,,
855,0,0.0,0.29,,,,,,,,,,,,,,,,,,
857,0,0.0,0.29,,,,,,,,,,,,,,,,,,
859,0,0.0,0.3,,,,,,,,,,,,,,,,,,
861,0,0.0,0.29,,,,,,,,,,,,,,,,,,
863,0,0.0,0.29,,-0.05,0.09,0.94,-0,1,-0,0.11,0,2160,0,0.0,0.0,0.0,0.0,0,0,0.0
865,0,0.0,0.29,,,,,,,,,,,,,,,,,,
867,0,0.0,0.29,,,,,,,,,,,,,,,,,,
869,0,0.0,0.29,,,,,,,,,,,,,,,,,,
871,0,0.0,0.29,,,,,,,,,,,,,,,,,,
873,0,0.0,0.29,,-0.2,0.08,1.08,0,-0,-0,0.22,,,,,,,,,,
875,0,0.0,0.29,,,,,,,,,,,,,,,,,,
877,0,0.0,0.29,,,,,,,,,,,,,,,,,,
879,0,0.0,0.29,,,,,,,,,,,,,,,,,,
881,0,0.0,0.29,,,,,,,,,,,,,,,,,,
883,0,0.0,0.29,,0.01,0.05,0.96,-0,-1,-0,0.06,0,2160,0,0.0,0.0,0.0,0.0,0,0,0.0
885,0,0.0,0.29,,,,,,,,,,,,,,,,,,
887,0,0.0,0.3,,,,,,,,,,,,,,,,,,
889,0,0.0,0.29,,,,,,,,,,,,,,,,,,
891,0,0.0,0.29,,,,,,,,,,,,,,,,,,
893,0,0.0,0.29,,-0.07,0.06,0.95,0,-0,-0,0.1,,,,,,,,,,
895,0,0.0,0.29,,,,,,,,,,,,,,,,,,
897,0,0.0,0.29,,,,,,,,,,,,,,,,,,
899,0,0.0,0.29,,,,,,,,,,,,,,,,,,
901,0,0.0,0.29,,,,,,,,,,,,,,,,,,
903,0,0.0,0.29,,-0.08,0.07,1.04,0,0,-0,0.11,0,2100,0,0.0,0.0,0.0,0.0,0,0,0.0
905,0,0.0,0.29,,,,,,,,,,,,,,,,,,
907,0,0.0,0.29,,,,,,,,,,,,,,,,,,
909,0,0.0,0.29,,,,,,,,,,,,,,,,,,
911,0,0.0,0.29,,,,,,,,,,,,,,,,,,
913,0,0.0,0.29,,0.02,0.07,0.97,-0,-1,0,0.07,,,,,,,,,,
915,0,0.0,0.31,,,,,,,,,,,,,,,,,,
917,0,0.0,0.3,,,,,,,,,,,,,,,,,,
919,0,0.0,0.3,,,,,,,,,,,,,,,,,,
921,0,0.0,0.3,,,,,,,,,,,,,,,,,,
923,0,0.0,0.29,,-0.13,0.06,0.96,0,-0,-0,0.15,0,2160,0,0.0,0.0,0.0,0.0,0,0,0.0
925,0,0.0,0.29,,,,,,,,,,,,,,,,,,
927,0,0.0,0.29,,,,,,,,,,,,,,,,,,
929,0,0.0,0.29,,,,,,,,,,,,,,,,,,
931,0,0.0,0.3,,,,,,,,,,,,,,,,,,
933,0,0.0,0.29,,-0.08,0.03,0.96,0,-0,-0,0.09,,,,,,,,,,
935,0,0.0,0.29,,,,,,,,,,,,,,,,,,
937,0,0.0,0.29,,,,,,,,,,,,,,,,,,
939,0,0.0,0.29,,,,,,,,,,,,,,,,,,
941,0,0.0,0.29,,,,,,,,,,,,,,,,,,
943,0,0.0,0.31,,0.0,0.11,1.02,-0,0,-0,0.11,0,2100,0,0.0,0.0,0.0,0.0,0,0,0.0
945,0,0.0,0.3,,,,,,,,,,,,,,,,,,
947,0,0.0,0.3,,,,,,,,,,,,,,,,,,
949,0,0.0,0.3,,,,,,,,,,,,,,,,,,
951,0,0.0,0.3,,,,,,,,,,,,,,,,,,
953,0,0.0,0.29,,-0.27,0.08,0.97,0,-1,-0,0.28,,,,,,,,,,
955,0,0.0,0.29,,,,,,,,,,,,,,,,,,
957,0,0.0,0.3,,,,,,,,,,,,,,,,,,
959,0,0.0,0.29,,,,,,,,,,,,,,,,,,
961,0,0.0,0.3,,,,,,,,,,,,,,,,,,
963,0,0.0,0.3,,0.01,0.01,1.05,0,-1,-0,0.01,0,2100,0,0.0,0.0,0.0,0.0,0,0,0.0
965,0,0.0,0.3,,,,,,,,,,,,,,,,,,
967,0,0.0,0.3,,,,,,,,,,,,,,,,,,
969,0,0.0,0.3,,,,,,,,,,,,,,,,,,
971,0,0.0,0.3,,,,,,,,,,,,,,,,,,
973,0,0.0,0.3,,-0.05,0.1,0.93,-0,0,-0,0.12,,,,,,,,,,
975,0,0.0,0.3,,,,,,,,,,,,,,,,,,
977,0,0.0,0.3,,,,,,,,,,,,,,,,,,
979,0,0.0,0.3,,,,,,,,,,,,,,,,,,
981,0,0.0,0.3,,,,,,,,,,,,,,,,,,
983,0,0.0,0.3,,-0.22,0.11,1.08,0,-0,-0,0.24,0,2160,0,0.0,0.0,0.0,0.0,0,0,0.0
985,0,0.0,0.3,,,,,,,,,,,,,,,,,,
987,0,0.0,0.3,,,,,,,,,,,,,,,,,,
989,0,0.0,0.3,,,,,,,,,,,,,,,,,,
991,0,0.0,0.3,,,,,,,,,,,,,,,,,,
993,0,0.0,0.3,,-0.02,0.03,0.95,0,-2,-0,0.03,,,,,,,,,,
995,0,0.0,0.3,,,,,,,,,,,,,,,,,,
997,0,0.0,0.3,,,,,,,,,,,,,,,,,,
999,0,0.0,0.3,,,,,,,,,,,,,,,,,,
1001,0,0.0,0.3,,,,,,,,,,,,,,,,,,
1003,0,0.0,0.3,,-0.03,0.08,0.98,0,-0,-0,0.09,0,2100,0,0.0,0.0,0.0,0.0,0,0,0.0
1005,0,0.0,0.3,,,,,,,,,,,,,,,,,,
1007,0,0.0,0.3,,,,,,,,,,,,,,,,,,
1009,0,0.0,0.3,,,,,,,,,,,,,,,,,,
1011,0,0.0,0.3,,,,,,,,,,,,,,,,,,
1013,0,0.0,0.3,,-0.09,0.09,1.06,0,0,-0,0.13,,,,,,,,,,
1015,0,0.0,0.3,,,,,,,,,,,,,,,,,,
1017,0,0.0,0.3,,,,,,,,,,,,,,,,,,
1019,0,0.0,0.3,,,,,,,,,,,,,,,,,,
1021,0,0.0,0.3,,,,,,,,,,,,,,,,,,
1023,0,0.0,0.3,,0.04,0.05,1.01,0,-1,0,0.06,0,2100,0,0.0,0.0,0.0,0.0,0,0,0.0
1025,0,0.0,0.31,,,,,,,,,,,,,,,,,,
1027,0,0.0,0.3,,,,,,,,,,,,,,,,,,
1029,0,0.0,0.3,,,,,,,,,,,,,,,,,,
1031,0,0.0,0.3,,,,,,,,,,,,,,,,,,
1033,0,0.0,0.3,,-0.1,0.08,0.95,0,0,-0,0.13,,,,,,,,,,
1035,0,0.0,0.3,,,,,,,,,,,,,,,,,,
1037,0,0.0,0.3,,,,,,,,,,,,,,,,,,
1039,0,0.0,0.3,,,,,,,,,,,,,,,,,,
1041,0,0.0,0.3,,,,,,,,,,,,,,,,,,
1043,0,0.0,0.3,13.19,-0.11,0.07,0.99,0,-0,-0,0.13,0,2160,0,0.0,0.0,0.0,0.0,0,0,0.0
1045,0,0.0,0.3,,,,,,,,,,,,,,,,,,
1047,0,0.0,0.3,,,,,,,,,,,,,,,,,,
1049,0,0.0,0.3,,,,,,,,,,,,,,,,,,
1051,0,0.0,0.3,,,,,,,,,,,,,,,,,,
1053,0,0.0,0.31,,0.03,0.12,0.98,0,-0,0,0.12,,,,,,,,,,
1055,0,0.0,0.3,,,,,,,,,,,,,,,,,,
1057,0,0.0,0.31,,,,,,,,,,,,,,,,,,
1059,0,0.0,0.31,,,,,,,,,,,,,,,,,,
1061,0,0.0,0.3,,,,,,,,,,,,,,,,,,
1063,0,0.0,0.31,,-0.23,0.07,0.98,0,-1,-0,0.24,0,2100,0,0.0,0.0,0.0,0.0,0,0,0.0
1065,0,0.0,0.3,,,,,,,,,,,,,,,,,,
1067,0,0.0,0.3,,,,,,,,,,,,,,,,,,
1069,0,0.0,0.3,,,,,,,,,,,,,,,,,,
1071,0,0.0,0.3,,,,,,,,,,,,,,,,,,
1073,0,0.0,0.3,,-0.05,0.02,1.05,0,-1,-0,0.05,,,,,,,,,,
1075,0,0.0,0.3,,,,,,,,,,,,,,,,,,
1077,0,0.0,0.3,,,,,,,,,,,,,,,,,,
1079,0,0.0,0.31,,,,,,,,,,,,,,,,,,
1081,0,0.0,0.32,,,,,,,,,,,,,,,,,,
1083,0,0.0,0.31,,-0.05,0.09,0.98,-0,0,-0,0.11,0,2160,0,0.0,0.0,0.0,0.0,0,0,0.0
1085,0,0.0,0.31,,,,,,,,,,,,,,,,,,
1087,0,0.0,0.31,,,,,,,,,,,,,,,,,,
1089,0,0.0,0.31,,,,,,,,,,,,,,,,,,
1091,0,0.0,0.31,,,,,,,,,,,,,,,,,,
1093,0,0.0,0.31,,-0.19,0.1,1.05,0,-0,-0,0.22,,,,,,,,,,
1095,0,0.0,0.31,,,,,,,,,,,,,,,,,,
1097,0,0.0,0.3,,,,,,,,,,,,,,,,,,
1099,0,0.0,0.3,,,,,,,,,,,,,,,,,,
1101,0,0.0,0.31,,,,,,,,,,,,,,,,,,
1103,0,0.0,0.31,,-0.03,0.03,0.95,0,-2,-0,0.04,0,2160,0,0.0,0.0,0.0,0.0,0,0,0.0
1105,0,0.0,0.31,,,,,,,,,,,,,,,,,,
1107,0,0.0,0.31,,,,,,,,,,,,,,,,,,
1109,0,0.0,0.32,,,,,,,,,,,,,,,,,,
1111,0,0.0,0.31,,,,,,,,,,,,,,,,,,
1113,0,0.0,0.31,,-0.02,0.09,1.0,0,-0,-0,0.09,,,,,,,,,,
1115,0,0.0,0.31,,,,,,,,,,,,,,,,,,
1117,0,0.0,0.31,,,,,,,,,,,,,,,,,,
1119,0,0.0,0.31,,,,,,,,,,,,,,,,,,
1121,0,0.0,0.31,,,,,,,,,,,,,,,,,,
1123,0,0.0,0.31,,-0.1,0.08,1.04,0,-0,-1,0.13,0,2100,0,0.0,0.0,0.0,0.0,0,0,0.0
1125,0,0.0,0.31,,,,,,,,,,,,,,,,,,
1127,0,0.0,0.3,,,,,,,,,,,,,,,,,,
1129,0,0.0,0.31,,,,,,,,,,,,,,,,,,
1131,0,0.0,0.31,,,,,,,,,,,,,,,,,,
1133,0,0.0,0.31,,0.03,0.07,1.02,0,-1,-0,0.07,,,,,,,,,,
1135,0,0.0,0.31,,,,,,,,,,,,,,,,,,
1137,0,0.0,0.32,,,,,,,,,,,,,,,,,,
1139,0,0.0,0.31,,,,,,,,,,,,,,,,,,
1141,0,0.0,0.31,,,,,,,,,,,,,,,,,,
1143,0,0.0,0.31,,-0.08,0.08,0.94,0,0,-0,0.11,0,2160,0,0.0,0.0,0.0,0.0,0,0,0.0
1145,0,0.0,0.31,,,,,,,,,,,,,,,,,,
1147,0,0.0,0.31,,,,,,,,,,,,,,,,,,
1149,0,0.0,0.31,,,,,,,,,,,,,,,,,,
1151,0,0.0,0.31,,,,,,,,,,,,,,,,,,
1153,0,0.0,0.31,,-0.15,0.06,1.03,0,0,-0,0.16,,,,,,,,,,
1155,0,0.0,0.31,,,,,,,,,,,,,,,,,,
1157,0,0.0,0.31,,,,,,,,,,,,,,,,,,
1159,0,0.0,0.31,,,,,,,,,,,,,,,,,,
1161,0,0.0,0.31,,,,,,,,,,,,,,,,,,
1163,0,0.0,0.31,,0.03,0.1,0.97,-0,-0,-0,0.1,0,2160,0,0.0,0.0,0.0,0.0,0,0,0.0
1165,0,0.0,0.32,,,,,,,,,,,,,,,,,,
1167,0,0.0,0.31,,,,,,,,,,,,,,,,,,
1169,0,0.0,0.31,,,,,,,,,,,,,,,,,,
1171,0,0.0,0.31,,,,,,,,,,,,,,,,,,
1173,0,0.0,0.31,,-0.18,0.06,0.96,0,-1,-0,0.19,,,,,,,,,,
1175,0,0.0,0.31,,,,,,,,,,,,,,,,,,
1177,0,0.0,0.31,,,,,,,,,,,,,,,,,,
1179,0,0.0,0.31,,,,,,,,,,,,,,,,,,
1181,0,0.0,0.31,,,,,,,,,,,,,,,,,,
1183,0,0.0,0.31,,-0.07,0.02,1.05,0,-0,-0,0.07,0,2100,0,0.0,0.0,0.0,0.0,0,0,0.0
1185,0,0.0,0.31,,,,,,,,,,,,,,,,,,
1187,0,0.0,0.31,,,,,,,,,,,,,,,,,,
1189,0,0.0,0.31,,,,,,,,,,,,,,,,,,
1191,0,0.0,0.31,,,,,,,,,,,,,,,,,,
1193,0,0.0,0.32,,-0.04,0.08,1.0,-0,-0,-0,0.09,,,,,,,,,,
1195,0,0.0,0.32,,,,,,,,,,,,,,,,,,
1197,0,0.0,0.31,,,,,,,,,,,,,,,,,,
1199,0,0.0,0.31,,,,,,,,,,,,,,,,,,
1201,0,0.0,0.31,,,,,,,,,,,,,,,,,,
1203,0,0.0,0.31,,-0.18,0.09,0.97,0,-1,-1,0.2,0,2160,0,0.0,0.0,0.0,0.0,0,0,0.0
1205,0,0.0,0.31,,,,,,,,,,,,,,,,,,
1207,0,0.0,0.31,,,,,,,,,,,,,,,,,,
1209,0,0.0,0.31,,,,,,,,,,,,,,,,,,
1211,0,0.0,0.31,,,,,,,,,,,,,,,,,,
1213,0,0.0,0.31,,-0.04,0.02,0.92,0,-1,-0,0.04,,,,,,,,,,
1215,0,0.0,0.31,,,,,,,,,,,,,,,,,,
1217,0,0.0,0.31,,,,,,,,,,,,,,,,,,
1219,0,0.0,0.31,,,,,,,,,,,,,,,,,,
1221,0,0.0,0.32,,,,,,,,,,,,,,,,,,
1223,0,0.0,0.32,,-0.01,0.1,0.98,-0,-0,-0,0.1,0,2100,0,0.0,0.0,0.0,0.0,0,0,0.0
1225,0,0.0,0.32,,,,,,,,,,,,,,,,,,
1227,0,0.0,0.32,,,,,,,,,,,,,,,,,,
1229,0,0.0,0.31,,,,,,,,,,,,,,,,,,
1231,0,0.0,0.32,,,,,,,,,,,,,,,,,,
1233,0,0.0,0.32,,-0.15,0.09,1.01,0,-0,-1,0.18,,,,,,,,,,
1235,0,0.0,0.31,,,,,,,,,,,,,,,,,,
1237,0,0.0,0.31,,,,,,,,,,,,,,,,,,
1239,0,0.0,0.31,,,,,,,,,,,,,,,,,,
1241,0,0.0,0.32,,,,,,,,,,,,,,,,,,
1243,0,0.0,0.32,,0.03,0.06,0.98,0,-1,-0,0.06,0,2100,0,0.0,0.0,0.0,0.0,0,0,0.0
1245,0,0.0,0.32,,,,,,,,,,,,,,,,,,
1247,0,0.0,0.33,,,,,,,,,,,,,,,,,,
1249,0,0.0,0.32,,,,,,,,,,,,,,,,,,
1251,0,0.0,0.32,,,,,,,,,,,,,,,,,,
1253,0,0.0,0.32,,-0.06,0.08,0.94,0,1,-0,0.1,,,,,,,,,,
1255,0,0.0,0.32,,,,,,,,,,,,,,,,,,
1257,0,0.0,0.31,,,,,,,,,,,,,,,,,,
1259,0,0.0,0.32,,,,,,,,,,,,,,,,,,
1261,0,0.0,0.32,,,,,,,,,,,,,,,,,,
1263,0,0.0,0.31,,-0.18,0.07,1.1,0,-0,-0,0.2,0,2160,0,0.0,0.0,0.0,0.0,0,0,0.0
1265,0,0.0,0.32,,,,,,,,,,,,,,,,,,
1267,0,0.0,0.32,,,,,,,,,,,,,,,,,,
1269,0,0.0,0.32,,,,,,,,,,,,,,,,,,
1271,0,0.0,0.32,,,,,,,,,,,,,,,,,,
1273,0,0.0,0.32,,0.03,0.06,0.98,-0,-1,0,0.07,,,,,,,,,,
1275,0,0.0,0.33,,,,,,,,,,,,,,,,,,
1277,0,0.0,0.32,,,,,,,,,,,,,,,,,,
1279,0,0.0,0.32,,,,,,,,,,,,,,,,,,
1281,0,0.0,0.32,,,,,,,,,,,,,,,,,,
1283,0,0.0,0.32,,-0.12,0.06,0.97,0,-1,-0,0.13,0,2100,0,0.0,0.0,0.0,0.0,0,0,0.0
1285,0,0.0,0.32,,,,,,,,,,,,,,,,,,
1287,0,0.0,0.32,,,,,,,,,,,,,,,,,,
1289,0,0.0,0.32,,,,,,,,,,,,,,,,,,
1291,0,0.0,0.32,,,,,,,,,,,,,,,,,,
1293,0,0.0,0.31,,-0.07,0.04,1.05,0,0,-0,0.08,,,,,,,,,,
1295,0,0.0,0.32,,,,,,,,,,,,,,,,,,
1297,0,0.0,0.32,,,,,,,,,,,,,,,,,,
1299,0,0.0,0.32,,,,,,,,,,,,,,,,,,
1301,0,0.0,0.32,,,,,,,,,,,,,,,,,,
1303,0,0.0,0.33,,0.0,0.08,0.98,-0,-0,-0,0.08,0,2160,0,0.0,0.0,0.0,0.0,0,0,0.0
1305,0,0.0,0.32,,,,,,,,,,,,,,,,,,
1307,0,0.0,0.32,,,,,,,,,,,,,,,,,,
1309,0,0.0,0.32,,,,,,,,,,,,,,,,,,
1311,0,0.0,0.32,,,,,,,,,,,,,,,,,,
1313,0,0.0,0.32,,-0.14,0.07,0.97,-0,-0,-0,0.16,,,,,,,,,,
1315,0,0.0,0.32,,,,,,,,,,,,,,,,,,
1317,0,0.0,0.32,,,,,,,,,,,,,,,,,,
1319,0,0.0,0.32,,,,,,,,,,,,,,,,,,
1321,0,0.0,0.32,,,,,,,,,,,,,,,,,,
1323,0,0.0,0.32,,-0.05,0.02,0.93,0,-1,-0,0.05,0,2160,0,0.0,0.0,0.0,0.0,0,0,0.0
1325,0,0.0,0.32,,,,,,,,,,,,,,,,,,
1327,0,0.0,0.32,,,,,,,,,,,,,,,,,,
1329,0,0.0,0.32,,,,,,,,,,,,,,,,,,
1331,0,0.0,0.33,,,,,,,,,,,,,,,,,,
1333,0,0.0,0.32,,0.01,0.11,1.02,0,0,-0,0.11,,,,,,,,,,
1335,0,0.0,0.32,,,,,,,,,,,,,,,,,,
1337,0,0.0,0.32,,,,,,,,,,,,,,,,,,
1339,0,0.0,0.32,,,,,,,,,,,,,,,,,,
1341,0,0.0,0.32,,,,,,,,,,,,,,,,,,
1343,0,0.0,0.32,,-0.21,0.11,1.01,0,-0,-1,0.23,0,2100,0,0.0,0.0,0.0,0.0,0,0,0.0
1345,0,0.0,0.32,,,,,,,,,,,,,,,,,,
1347,0,0.0,0.32,,,,,,,,,,,,,,,,,,
1349,0,0.0,0.32,,,,,,,,,,,,,,,,,,
1351,0,0.0,0.32,,,,,,,,,,,,,,,,,,
1353,0,0.0,0.32,,0.06,0.03,0.99,0,-1,0,0.06,,,,,,,,,,
1355,0,0.0,0.32,,,,,,,,,,,,,,,,,,
1357,0,0.0,0.32,,,,,,,,,,,,,,,,,,
1359,0,0.0,0.34,,,,,,,,,,,,,,,,,,
1361,0,0.0,0.32,,,,,,,,,,,,,,,,,,
1363,0,0.0,0.33,,-0.05,0.09,0.96,-0,1,-0,0.1,0,2160,0,0.0,0.0,0.0,0.0,0,0,0.0
1365,0,0.0,0.32,,,,,,,,,,,,,,,,,,
1367,0,0.0,0.32,,,,,,,,,,,,,,,,,,
1369,0,0.0,0.32,,,,,,,,,,,,,,,,,,
1371,0,0.0,0.32,,,,,,,,,,,,,,,,,,
1373,0,0.0,0.32,,-0.21,0.09,1.06,0,-0,-1,0.23,,,,,,,,,,
1375,0,0.0,0.32,,,,,,,,,,,,,,,,,,
1377,0,0.0,0.32,,,,,,,,,,,,,,,,,,
1379,0,0.0,0.33,,,,,,,,,,,,,,,,,,
1381,0,0.0,0.32,,,,,,,,,,,,,,,,,,
1383,0,0.0,0.32,,0.01,0.05,0.95,0,-1,-0,0.05,0,2160,0,0.0,0.0,0.0,0.0,0,0,0.0
1385,0,0.0,0.32,,,,,,,,,,,,,,,,,,
1387,0,0.0,0.33,,,,,,,,,,,,,,,,,,
1389,0,0.0,0.33,,,,,,,,,,,,,,,,,,
1391,0,0.0,0.33,,,,,,,,,,,,,,,,,,
1393,0,0.0,0.33,,-0.06,0.07,0.95,0,-0,-0,0.09,,,,,,,,,,
1395,0,0.0,0.32,,,,,,,,,,,,,,,,,,
1397,0,0.0,0.33,,,,,,,,,,,,,,,,,,
1399,0,0.0,0.32,,,,,,,,,,,,,,,,,,
1401,0,0.0,0.32,,,,,,,,,,,,,,,,,,
1403,0,0.0,0.32,,-0.07,0.07,1.04,1,0,-0,0.1,0,2100,0,0.0,0.0,0.0,0.0,0,0,0.0
1405,0,0.0,0.32,,,,,,,,,,,,,,,,,,
1407,0,0.0,0.33,,,,,,,,,,,,,,,,,,
1409,0,0.0,0.33,,,,,,,,,,,,,,,,,,
1411,0,0.0,0.33,,,,,,,,,,,,,,,,,,
1413,0,0.0,0.33,,0.03,0.07,0.97,-0,-1,0,0.08,,,,,,,,,,
1415,0,0.0,0.33,,,,,,,,,,,,,,,,,,
1417,0,0.0,0.33,,,,,,,,,,,,,,,,,,
1419,0,0.0,0.33,,,,,,,,,,,,,,,,,,
1421,0,0.0,0.33,,,,,,,,,,,,,,,,,,
1423,0,0.0,0.33,,-0.13,0.06,0.96,0,-0,-0,0.15,0,2160,0,0.0,0.0,0.0,0.0,0,0,0.0
1425,0,0.0,0.33,,,,,,,,,,,,,,,,,,
1427,0,0.0,0.33,,,,,,,,,,,,,,,,,,
1429,0,0.0,0.32,,,,,,,,,,,,,,,,,,
1431,0,0.0,0.33,,,,,,,,,,,,,,,,,,
1433,0,0.0,0.33,,-0.07,0.02,0.95,0,-0,-0,0.07,,,,,,,,,,
1435,0,0.0,0.33,,,,,,,,,,,,,,,,,,
1437,0,0.0,0.33,,,,,,,,,,,,,,,,,,
1439,0,0.0,0.33,,,,,,,,,,,,,,,,,,
1441,0,0.0,0.33,,,,,,,,,,,,,,,,,,
1443,0,0.0,0.33,,0.01,0.12,1.02,-0,0,-0,0.12,0,2100,0,0.0,0.0,0.0,0.0,0,0,0.0
1445,0,0.0,0.33,,,,,,,,,,,,,,,,,,
1447,0,0.0,0.33,,,,,,,,,,,,,,,,,,
1449,0,0.0,0.33,,,,,,,,,,,,,,,,,,
1451,0,0.0,0.33,,,,,,,,,,,,,,,,,,
1453,0,0.0,0.33,,-0.25,0.09,0.97,0,-1,-0,0.27,,,,,,,,,,
1455,0,0.0,0.33,,,,,,,,,,,,,,,,,,
1457,0,0.0,0.33,,,,,,,,,,,,,,,,,,
1459,0,0.0,0.33,,,,,,,,,,,,,,,,,,
1461,0,0.0,0.33,,,,,,,,,,,,,,,,,,
1463,0,0.0,0.33,,0.03,0.02,1.03,0,-1,-0,0.03,0,2100,0,0.0,0.0,0.0,0.0,0,0,0.0
1465,0,0.0,0.33,,,,,,,,,,,,,,,,,,
1467,0,0.0,0.33,,,,,,,,,,,,,,,,,,
1469,0,0.0,0.34,,,,,,,,,,,,,,,,,,
1471,0,0.0,0.33,,,,,,,,,,,,,,,,,,
1473,0,0.0,0.33,,-0.05,0.1,0.94,-0,0,-0,0.11,,,,,,,,,,
1475,0,0.0,0.33,,,,,,,,,,,,,,,,,,
1477,0,0.0,0.33,,,,,,,,,,,,,,,,,,
1479,0,0.0,0.33,,,,,,,,,,,,,,,,,,
1481,0,0.0,0.33,,,,,,,,,,,,,,,,,,
1483,0,0.0,0.33,,-0.21,0.1,1.06,0,-0,-0,0.23,0,2160,0,0.0,0.0,0.0,0.0,0,0,0.0
1485,0,0.0,0.33,,,,,,,,,,,,,,,,,,
1487,0,0.0,0.33,,,,,,,,,,,,,,,,,,
1489,0,0.0,0.33,,,,,,,,,,,,,,,,,,
1491,0,0.0,0.33,,,,,,,,,,,,,,,,,,
1493,0,0.0,0.33,,-0.01,0.04,0.94,0,-1,0,0.04,,,,,,,,,,
1495,0,0.0,0.33,,,,,,,,,,,,,,,,,,
1497,0,0.0,0.34,,,,,,,,,,,,,,,,,,
1499,0,0.0,0.33,,,,,,,,,,,,,,,,,,
1501,0,0.0,0.33,,,,,,,,,,,,,,,,,,
1503,0,0.0,0.33,,-0.04,0.08,0.95,0,-0,-0,0.09,0,2100,0,0.0,0.0,0.0,0.0,0,0,0.0
1505,0,0.0,0.33,,,,,,,,,,,,,,,,,,
1507,0,0.0,0.33,,,,,,,,,,,,,,,,,,
1509,0,0.0,0.33,,,,,,,,,,,,,,,,,,
1511,0,0.0,0.33,,,,,,,,,,,,,,,,,,
1513,0,0.0,0.33,,-0.1,0.08,1.05,1,0,-0,0.12,,,,,,,,,,
1515,0,0.0,0.33,,,,,,,,,,,,,,,,,,
1517,0,0.0,0.33,,,,,,,,,,,,,,,,,,
1519,0,0.0,0.33,,,,,,,,,,,,,,,,,,
1521,0,0.0,0.33,,,,,,,,,,,,,,,,,,
1523,0,0.0,0.33,,0.04,0.06,1.0,0,-1,0,0.07,0,2100,0,0.0,0.0,0.0,0.0,0,0,0.0
1525,0,0.0,0.34,,,,,,,,,,,,,,,,,,
1527,0,0.0,0.34,,,,,,,,,,,,,,,,,,
1529,0,0.0,0.33,,,,,,,,,,,,,,,,,,
1531,0,0.0,0.34,,,,,,,,,,,,,,,,,,
1533,0,0.0,0.33,,-0.11,0.07,0.97,0,0,-0,0.13,,,,,,,,,,
1535,0,0.0,0.33,,,,,,,,,,,,,,,,,,
1537,0,0.0,0.33,,,,,,,,,,,,,,,,,,
1539,0,0.0,0.33,,,,,,,,,,,,,,,,,,
1541,0,0.0,0.33,,,,,,,,,,,,,,,,,,
1543,0,0.0,0.33,,-0.08,0.05,0.96,0,-0,-0,0.09,0,2160,0,0.0,0.0,0.0,0.0,0,0,0.0
1545,0,0.0,0.33,,,,,,,,,,,,,,,,,,
1547,0,0.0,0.33,,,,,,,,,,,,,,,,,,
1549,0,0.0,0.33,,,,,,,,,,,,,,,,,,
1551,0,0.0,0.34,,,,,,,,,,,,,,,,,,
1553,0,0.0,0.35,,0.02,0.12,1.0,-0,0,-0,0.13,,,,,,,,,,
1555,0,0.0,0.34,,,,,,,,,,,,,,,,,,
1557,0,0.0,0.34,,,,,,,,,,,,,,,,,,
1559,0,0.0,0.34,,,,,,,,,,,,,,,,,,
1561,0,0.0,0.33,,,,,,,,,,,,,,,,,,
1563,0,0.0,0.33,,-0.23,0.08,0.96,0,-1,-0,0.24,0,2100,0,0.0,0.0,0.0,0.0,0,0,0.0
1565,0,0.0,0.34,,,,,,,,,,,,,,,,,,
1567,0,0.0,0.33,,,,,,,,,,,,,,,,,,
1569,0,0.0,0.33,,,,,,,,,,,,,,,,,,
1571,0,0.0,0.34,,,,,,,,,,,,,,,,,,
1573,0,0.0,0.34,,-0.01,0.01,1.03,0,-1,-0,0.02,,,,,,,,,,
1575,0,0.0,0.34,,,,,,,,,,,,,,,,,,
1577,0,0.0,0.34,,,,,,,,,,,,,,,,,,
1579,0,0.0,0.34,,,,,,,,,,,,,,,,,,
1581,0,0.0,0.35,,,,,,,,,,,,,,,,,,
1583,0,0.0,0.34,,-0.04,0.09,0.97,-0,0,-0,0.1,0,2160,0,0.0,0.0,0.0,0.0,0,0,0.0
1585,0,0.0,0.34,,,,,,,,,,,,,,,,,,
1587,0,0.0,0.34,,,,,,,,,,,,,,,,,,
1589,0,0.0,0.34,,,,,,,,,,,,,,,,,,
1591,0,0.0,0.34,,,,,,,,,,,,,,,,,,
1593,0,0.0,0.34,,-0.2,0.1,1.05,0,-0,-0,0.22,,,,,,,,,,
1595,0,0.0,0.34,,,,,,,,,,,,,,,,,,
1597,0,0.0,0.34,,,,,,,,,,,,,,,,,,
1599,0,0.0,0.34,,,,,,,,,,,,,,,,,,
1601,0,0.0,0.34,,,,,,,,,,,,,,,,,,
1603,0,0.0,0.34,,-0.02,0.03,0.94,0,-1,-0,0.04,0,2160,0,0.0,0.0,0.0,0.0,0,0,0.0
1605,0,0.0,0.34,,,,,,,,,,,,,,,,,,
1607,0,0.0,0.34,,,,,,,,,,,,,,,,,,
1609,0,0.0,0.35,,,,,,,,,,,,,,,,,,
1611,0,0.0,0.34,,,,,,,,,,,,,,,,,,
1613,0,0.0,0.34,,-0.01,0.09,0.96,0,0,-0,0.09,,,,,,,,,,
1615,0,0.0,0.34,,,,,,,,,,,,,,,,,,
1617,0,0.0,0.34,,,,,,,,,,,,,,,,,,
1619,0,0.0,0.34,,,,,,,,,,,,,,,,,,
1621,0,0.0,0.34,,,,,,,,,,,,,,,,,,
1623,0,0.0,0.34,,-0.13,0.08,1.05,0,0,-1,0.15,0,2100,0,0.0,0.0,0.0,0.0,0,0,0.0
1625,0,0.0,0.34,,,,,,,,,,,,,,,,,,
1627,0,0.0,0.34,,,,,,,,,,,,,,,,,,
1629,0,0.0,0.34,,,,,,,,,,,,,,,,,,
1631,0,0.0,0.34,,,,,,,,,,,,,,,,,,
1633,0,0.0,0.34,,0.03,0.07,1.02,-0,-0,-0,0.07,,,,,,,,,,
1635,0,0.0,0.34,,,,,,,,,,,,,,,,,,
1637,0,0.0,0.35,,,,,,,,,,,,,,,,,,
1639,0,0.0,0.34,,,,,,,,,,,,,,,,,,
1641,0,0.0,0.34,,,,,,,,,,,,,,,,,,
1643,0,0.0,0.34,,-0.1,0.07,0.95,-0,0,-0,0.13,0,2160,0,0.0,0.0,0.0,0.0,0,0,0.0
1645,0,0.0,0.34,,,,,,,,,,,,,,,,,,
1647,0,0.0,0.34,,,,,,,,,,,,,,,,,,
1649,0,0.0,0.34,,,,,,,,,,,,,,,,,,
1651,0,0.0,0.34,,,,,,,,,,,,,,,,,,
1653,0,0.0,0.34,,-0.15,0.06,1.01,0,0,-0,0.16,,,,,,,,,,
1655,0,0.0,0.34,,,,,,,,,,,,,,,,,,
1657,0,0.0,0.34,,,,,,,,,,,,,,,,,,
1659,0,0.0,0.34,,,,,,,,,,,,,,,,,,
1661,0,0.0,0.34,,,,,,,,,,,,,,,,,,
1663,0,0.0,0.34,,0.01,0.09,0.98,-0,-0,-0,0.09,0,2160,0,0.0,0.0,0.0,0.0,0,0,0.0
1665,0,0.0,0.35,,,,,,,,,,,,,,,,,,
1667,0,0.0,0.34,,,,,,,,,,,,,,,,,,
1669,0,0.0,0.34,,,,,,,,,,,,,,,,,,
1671,0,0.0,0.34,,,,,,,,,,,,,,,,,,
1673,0,0.0,0.34,,-0.17,0.06,0.93,0,-0,-0,0.18,,,,,,,,,,
1675,0,0.0,0.34,,,,,,,,,,,,,,,,,,
1677,0,0.0,0.34,,,,,,,,,,,,,,,,,,
1679,0,0.0,0.34,,,,,,,,,,,,,,,,,,
1681,0,0.0,0.34,,,,,,,,,,,,,,,,,,
1683,0,0.0,0.34,,-0.07,0.03,1.02,0,-1,-0,0.07,0,2100,0,0.0,0.0,0.0,0.0,0,0,0.0
1685,0,0.0,0.34,,,,,,,,,,,,,,,,,,
1687,0,0.0,0.34,,,,,,,,,,,,,,,,,,
1689,0,0.0,0.34,,,,,,,,,,,,,,,,,,
1691,0,0.0,0.34,,,,,,,,,,,,,,,,,,
1693,0,0.0,0.36,,-0.03,0.08,0.99,-0,-0,-0,0.09,,,,,,,,,,
1695,0,0.0,0.35,,,,,,,,,,,,,,,,,,
1697,0,0.0,0.35,,,,,,,,,,,,,,,,,,
1699,0,0.0,0.35,,,,,,,,,,,,,,,,,,
1701,0,0.0,0.34,,,,,,,,,,,,,,,,,,
1703,0,0.0,0.34,,-0.18,0.09,0.98,0,-1,-0,0.2,0,2100,0,0.0,0.0,0.0,0.0,0,0,0.0
1705,0,0.0,0.34,,,,,,,,,,,,,,,,,,
1707,0,0.0,0.34,,,,,,,,,,,,,,,,,,
1709,0,0.0,0.34,,,,,,,,,,,,,,,,,,
1711,0,0.0,0.34,,,,,,,,,,,,,,,,,,
1713,0,0.0,0.35,,-0.04,0.02,0.93,0,-1,-0,0.04,,,,,,,,,,
1715,0,0.0,0.35,,,,,,,,,,,,,,,,,,
1717,0,0.0,0.35,,,,,,,,,,,,,,,,,,
1719,0,0.0,0.35,,,,,,,,,,,,,,,,,,
1721,0,0.0,0.36,,,,,,,,,,,,,,,,,,
1723,0,0.0,0.35,,0.0,0.11,1.01,-0,0,-0,0.11,0,2100,0,0.0,0.0,0.0,0.0,0,0,0.0
1725,0,0.0,0.35,,,,,,,,,,,,,,,,,,
1727,0,0.0,0.35,,,,,,,,,,,,,,,,,,
1729,0,0.0,0.35,,,,,,,,,,,,,,,,,,
1731,0,0.0,0.35,,,,,,,,,,,,,,,,,,
1733,0,0.0,0.34,,-0.2,0.1,1.03,0,-1,-1,0.22,,,,,,,,,,
1735,0,0.0,0.35,,,,,,,,,,,,,,,,,,
1737,0,0.0,0.35,,,,,,,,,,,,,,,,,,
1739,0,0.0,0.35,,,,,,,,,,,,,,,,,,
1741,0,0.0,0.35,,,,,,,,,,,,,,,,,,
1743,0,0.0,0.35,,0.08,0.02,0.98,0,-1,0,0.08,0,2100,0,0.0,0.0,0.0,0.0,0,0,0.0
1745,0,0.0,0.35,,,,,,,,,,,,,,,,,,
1747,0,0.0,0.35,,,,,,,,,,,,,,,,,,
1749,0,0.0,0.36,,,,,,,,,,,,,,,,,,
1751,0,0.0,0.35,,,,,,,,,,,,,,,,,,
1753,0,0.0,0.35,,-0.05,0.1,0.97,0,1,-0,0.11,,,,,,,,,,
1755,0,0.0,0.35,,,,,,,,,,,,,,,,,,
1757,0,0.0,0.35,,,,,,,,,,,,,,,,,,
1759,0,0.0,0.35,,,,,,,,,,,,,,,,,,
1761,0,0.0,0.35,,,,,,,,,,,,,,,,,,
1763,0,0.0,0.35,,-0.21,0.1,1.07,0,-1,-1,0.23,0,2160,0,0.0,0.0,0.0,0.0,0,0,0.0
1765,0,0.0,0.35,,,,,,,,,,,,,,,,,,
1767,0,0.0,0.35,,,,,,,,,,,,,,,,,,
1769,0,0.0,0.35,,,,,,,,,,,,,,,,,,
1771,0,0.0,0.35,,,,,,,,,,,,,,,,,,
1773,0,0.0,0.35,,0.03,0.04,0.95,0,-1,0,0.05,,,,,,,,,,
1775,0,0.0,0.35,,,,,,,,,,,,,,,,,,
1777,0,0.0,0.36,,,,,,,,,,,,,,,,,,
1779,0,0.0,0.35,,,,,,,,,,,,,,,,,,
1781,0,0.0,0.35,,,,,,,,,,,,,,,,,,
1783,0,0.0,0.35,,-0.04,0.07,0.94,0,-0,-0,0.08,0,2100,0,0.0,0.0,0.0,0.0,0,0,0.0
1785,0,0.0,0.35,,,,,,,,,,,,,,,,,,
1787,0,0.0,0.35,,,,,,,,,,,,,,,,,,
1789,0,0.0,0.35,,,,,,,,,,,,,,,,,,
1791,0,0.0,0.35,,,,,,,,,,,,,,,,,,
1793,0,0.0,0.35,,-0.08,0.07,1.09,1,0,-0,0.1,,,,,,,,,,
1795,0,0.0,0.35,,,,,,,,,,,,,,,,,,
1797,0,0.0,0.35,,,,,,,,,,,,,,,,,,
1799,0,0.0,0.35,,,,,,,,,,,,,,,,,,
1801,0,0.0,0.35,,,,,,,,,,,,,,,,,,
1803,0,0.0,0.35,,0.02,0.06,1.0,-0,-0,0,0.07,0,2100,0,0.0,0.0,0.0,0.0,0,0,0.0
1805,0,0.0,0.36,,,,,,,,,,,,,,,,,,
1807,0,0.0,0.36,,,,,,,,,,,,,,,,,,
1809,0,0.0,0.35,,,,,,,,,,,,,,,,,,
1811,0,0.0,0.35,,,,,,,,,,,,,,,,,,
1813,0,0.0,0.35,,-0.13,0.07,0.94,-0,-0,-0,0.15,,,,,,,,,,
1815,0,0.0,0.35,,,,,,,,,,,,,,,,,,
1817,0,0.0,0.35,,,,,,,,,,,,,,,,,,
1819,0,0.0,0.35,,,,,,,,,,,,,,,,,,
1821,0,0.0,0.35,,,,,,,,,,,,,,,,,,
1823,0,0.0,0.35,,-0.08,0.03,0.97,0,-0,-0,0.09,0,2160,0,0.0,0.0,0.0,0.0,0,0,0.0
1825,0,0.0,0.35,,,,,,,,,,,,,,,,,,
1827,0,0.0,0.35,,,,,,,,,,,,,,,,,,
1829,0,0.0,0.35,,,,,,,,,,,,,,,,,,
1831,0,0.0,0.35,,,,,,,,,,,,,,,,,,
1833,0,0.0,0.36,,-0.0,0.11,1.02,-0,0,-0,0.11,,,,,,,,,,
1835,0,0.0,0.35,,,,,,,,,,,,,,,,,,
1837,0,0.0,0.35,,,,,,,,,,,,,,,,,,
1839,0,0.0,0.35,,,,,,,,,,,,,,,,,,
1841,0,0.0,0.35,,,,,,,,,,,,,,,,,,
1843,0,0.0,0.35,,-0.27,0.08,0.95,0,-0,-0,0.28,0,2100,0,0.0,0.0,0.0,0.0,0,0,0.0
1845,0,0.0,0.35,,,,,,,,,,,,,,,,,,
1847,0,0.0,0.35,,,,,,,,,,,,,,,,,,
1849,0,0.0,0.35,,,,,,,,,,,,,,,,,,
1851,0,0.0,0.35,,,,,,,,,,,,,,,,,,
1853,0,0.0,0.36,,-0.0,0.01,1.01,0,-1,-0,0.01,,,,,,,,,,
1855,0,0.0,0.36,,,,,,,,,,,,,,,,,,
1857,0,0.0,0.35,,,,,,,,,,,,,,,,,,
1859,0,0.0,0.36,,,,,,,,,,,,,,,,,,
1861,0,0.0,0.36,,,,,,,,,,,,,,,,,,
1863,0,0.0,0.36,,-0.05,0.09,0.95,-0,0,-0,0.11,0,2160,0,0.0,0.0,0.0,0.0,0,0,0.0
1865,0,0.0,0.36,,,,,,,,,,,,,,,,,,
1867,0,0.0,0.36,,,,,,,,,,,,,,,,,,
1869,0,0.0,0.35,,,,,,,,,,,,,,,,,,
1871,0,0.0,0.35,,,,,,,,,,,,,,,,,,
1873,0,0.0,0.35,,-0.21,0.1,1.07,0,-0,-0,0.23,,,,,,,,,,
1875,0,0.0,0.36,,,,,,,,,,,,,,,,,,
1877,0,0.0,0.36,,,,,,,,,,,,,,,,,,
1879,0,0.0,0.36,,,,,,,,,,,,,,,,,,
1881,0,0.0,0.36,,,,,,,,,,,,,,,,,,
1883,0,0.0,0.35,,-0.02,0.02,0.93,0,-1,0,0.03,0,2160,0,0.0,0.0,0.0,0.0,0,0,0.0
1885,0,0.0,0.35,,,,,,,,,,,,,,,,,,
1887,0,0.0,0.36,,,,,,,,,,,,,,,,,,
1889,0,0.0,0.36,,,,,,,,,,,,,,,,,,
1891,0,0.0,0.35,,,,,,,,,,,,,,,,,,
1893,0,0.0,0.36,,-0.01,0.09,0.97,0,-0,-0,0.09,,,,,,,,,,
1895,0,0.0,0.36,,,,,,,,,,,,,,,,,,
1897,0,0.0,0.35,,,,,,,,,,,,,,,,,,
1899,0,0.0,0.35,,,,,,,,,,,,,,,,,,
1901,0,0.0,0.35,,,,,,,,,,,,,,,,,,
1903,0,0.0,0.36,,-0.12,0.08,1.06,0,-0,-0,0.14,0,2100,0,0.0,0.0,0.0,0.0,0,0,0.0
1905,0,0.0,0.35,,,,,,,,,,,,,,,,,,
1907,0,0.0,0.36,,,,,,,,,,,,,,,,,,
1909,0,0.0,0.36,,,,,,,,,,,,,,,,,,
1911,0,0.0,0.36,,,,,,,,,,,,,,,,,,
1913,0,0.0,0.35,,0.03,0.07,1.03,0,-1,0,0.08,,,,,,,,,,
1915,0,0.0,0.37,,,,,,,,,,,,,,,,,,
1917,0,0.0,0.36,,,,,,,,,,,,,,,,,,
1919,0,0.0,0.36,,,,,,,,,,,,,,,,,,
1921,0,0.0,0.36,,,,,,,,,,,,,,,,,,
1923,0,0.0,0.36,,-0.11,0.07,0.97,0,-0,-0,0.13,0,2160,0,0.0,0.0,0.0,0.0,0,0,0.0
1925,0,0.0,0.36,,,,,,,,,,,,,,,,,,
1927,0,0.0,0.36,,,,,,,,,,,,,,,,,,
1929,0,0.0,0.36,,,,,,,,,,,,,,,,,,
1931,0,0.0,0.36,,,,,,,,,,,,,,,,,,
1933,0,0.0,0.36,,-0.12,0.07,1.02,0,-0,-0,0.13,,,,,,,,,,
1935,0,0.0,0.36,,,,,,,,,,,,,,,,,,
1937,0,0.0,0.35,,,,,,,,,,,,,,,,,,
1939,0,0.0,0.36,,,,,,,,,,,,,,,,,,
1941,0,0.0,0.36,,,,,,,,,,,,,,,,,,
1943,0,0.0,0.37,,0.01,0.12,1.02,-0,-0,0,0.12,0,2100,0,0.0,0.0,0.0,0.0,0,0,0.0
1945,0,0.0,0.36,,,,,,,,,,,,,,,,,,
1947,0,0.0,0.36,,,,,,,,,,,,,,,,,,
1949,0,0.0,0.36,,,,,,,,,,,,,,,,,,
1951,0,0.0,0.36,,,,,,,,,,,,,,,,,,
1953,0,0.0,0.36,,-0.19,0.07,0.94,0,-0,-0,0.2,,,,,,,,,,
1955,0,0.0,0.36,,,,,,,,,,,,,,,,,,
1957,0,0.0,0.36,,,,,,,,,,,,,,,,,,
1959,0,0.0,0.36,,,,,,,,,,,,,,,,,,
1961,0,0.0,0.36,,,,,,,,,,,,,,,,,,
1963,0,0.0,0.36,,-0.02,0.03,1.04,0,-1,-0,0.04,0,2100,0,0.0,0.0,0.0,0.0,0,0,0.0
1965,0,0.0,0.36,,,,,,,,,,,,,,,,,,
1967,0,0.0,0.36,,,,,,,,,,,,,,,,,,
1969,0,0.0,0.36,,,,,,,,,,,,,,,,,,
1971,0,0.0,0.37,,,,,,,,,,,,,,,,,,
1973,0,0.0,0.37,,-0.03,0.09,0.96,-0,0,-0,0.09,,,,,,,,,,
1975,0,0.0,0.36,,,,,,,,,,,,,,,,,,
1977,0,0.0,0.36,,,,,,,,,,,,,,,,,,
1979,0,0.0,0.36,,,,,,,,,,,,,,,,,,
1981,0,0.0,0.36,,,,,,,,,,,,,,,,,,
1983,0,0.0,0.36,,-0.19,0.09,1.01,0,-1,-0,0.21,0,2160,0,0.0,0.0,0.0,0.0,0,0,0.0
1985,0,0.0,0.36,,,,,,,,,,,,,,,,,,
1987,0,0.0,0.36,,,,,,,,,,,,,,,,,,
1989,0,0.0,0.36,,,,,,,,,,,,,,,,,,
1991,0,0.0,0.36,,,,,,,,,,,,,,,,,,
1993,0,0.0,0.36,,-0.02,0.02,0.92,0,-1,-0,0.03,,,,,,,,,,
1995,0,0.0,0.36,,,,,,,,,,,,,,,,,,
1997,0,0.0,0.37,,,,,,,,,,,,,,,,,,
1999,0,0.0,0.37,,,,,,,,,,,,,,,,,,
2001,0,0.0,0.36,,,,,,,,,,,,,,,,,,
2003,0,0.0,0.36,,-0.0,0.11,0.96,0,-0,-0,0.11,0,2100,0,0.0,0.0,0.0,0.0,0,0,0.0
2005,0,0.0,0.36,,,,,,,,,,,,,,,,,,
2007,0,0.0,0.36,,,,,,,,,,,,,,,,,,
2009,0,0.0,0.36,,,,,,,,,,,,,,,,,,
2011,0,0.0,0.36,,,,,,,,,,,,,,,,,,
2013,0,0.0,0.36,,-0.18,0.08,1.06,0,-0,-1,0.2,,,,,,,,,,
2015,0,0.0,0.36,,,,,,,,,,,,,,,,,,
2017,0,0.0,0.36,,,,,,,,,,,,,,,,,,
2019,0,0.0,0.36,,,,,,,,,,,,,,,,,,
2021,0,0.0,0.37,,,,,,,,,,,,,,,,,,
2023,0,0.0,0.36,,0.04,0.05,0.98,0,-1,-0,0.07,0,2100,0,0.0,0.0,0.0,0.0,0,0,0.0
2025,0,0.0,0.37,,,,,,,,,,,,,,,,,,
2027,0,0.0,0.38,,,,,,,,,,,,,,,,,,
2029,0,0.0,0.37,,,,,,,,,,,,,,,,,,
2031,0,0.0,0.37,,,,,,,,,,,,,,,,,,
2033,0,0.0,0.37,,-0.11,0.09,0.94,0,0,-0,0.14,,,,,,,,,,
2035,0,0.0,0.37,,,,,,,,,,,,,,,,,,
2037,0,0.0,0.37,,,,,,,,,,,,,,,,,,
2039,0,0.0,0.37,,,,,,,,,,,,,,,,,,
2041,0,0.0,0.37,,,,,,,,,,,,,,,,,,
2043,0,0.0,0.36,13.29,-0.19,0.07,1.09,0,0,-0,0.2,0,2160,0,0.0,0.0,0.0,0.0,0,0,0.0
2045,0,0.0,0.36,,,,,,,,,,,,,,,,,,
2047,0,0.0,0.37,,,,,,,,,,,,,,,,,,
2049,0,0.0,0.36,,,,,,,,,,,,,,,,,,
2051,0,0.0,0.36,,,,,,,,,,,,,,,,,,
2053,0,0.0,0.36,,0.01,0.06,1.0,-0,-0,0,0.06,,,,,,,,,,
2055,0,0.0,0.38,,,,,,,,,,,,,,,,,,
2057,0,0.0,0.37,,,,,,,,,,,,,,,,,,
2059,0,0.0,0.37,,,,,,,,,,,,,,,,,,
2061,0,0.0,0.37,,,,,,,,,,,,,,,,,,
2063,0,0.0,0.37,,-0.12,0.06,0.95,0,0,-0,0.13,0,2100,0,0.0,0.0,0.0,0.0,0,0,0.0
2065,0,0.0,0.37,,,,,,,,,,,,,,,,,,
2067,0,0.0,0.37,,,,,,,,,,,,,,,,,,
2069,0,0.0,0.37,,,,,,,,,,,,,,,,,,
2071,0,0.0,0.37,,,,,,,,,,,,,,,,,,
2073,0,0.0,0.37,,-0.08,0.05,1.03,1,-0,-0,0.09,,,,,,,,,,
2075,0,0.0,0.37,,,,,,,,,,,,,,,,,,
2077,0,0.0,0.37,,,,,,,,,,,,,,,,,,
2079,0,0.0,0.37,,,,,,,,,,,,,,,,,,
2081,0,0.0,0.37,,,,,,,,,,,,,,,,,,
2083,0,0.0,0.38,,-0.01,0.08,1.0,-0,-0,0,0.08,0,2160,0,0.0,0.0,0.0,0.0,0,0,0.0
2085,0,0.0,0.37,,,,,,,,,,,,,,,,,,
2087,0,0.0,0.37,,,,,,,,,,,,,,,,,,
2089,0,0.0,0.37,,,,,,,,,,,,,,,,,,
2091,0,0.0,0.37,,,,,,,,,,,,,,,,,,
2093,0,0.0,0.37,,-0.15,0.08,0.97,0,-0,-1,0.17,,,,,,,,,,
2095,0,0.0,0.37,,,,,,,,,,,,,,,,,,
2097,0,0.0,0.37,,,,,,,,,,,,,,,,,,
2099,0,0.0,0.37,,,,,,,,,,,,,,,,,,
2101,0,0.0,0.37,,,,,,,,,,,,,,,,,,
2103,0,0.0,0.37,,-0.06,0.02,0.94,0,-1,-0,0.06,0,2160,0,0.0,0.0,0.0,0.0,0,0,0.0
2105,0,0.0,0.37,,,,,,,,,,,,,,,,,,
2107,0,0.0,0.37,,,,,,,,,,,,,,,,,,
2109,0,0.0,0.37,,,,,,,,,,,,,,,,,,
2111,0,0.0,0.38,,,,,,,,,,,,,,,,,,
2113,0,0.0,0.37,,0.0,0.11,1.02,-0,-0,-0,0.11,,,,,,,,,,
2115,0,0.0,0.37,,,,,,,,,,,,,,,,,,
2117,0,0.0,0.37,,,,,,,,,,,,,,,,,,
2119,0,0.0,0.37,,,,,,,,,,,,,,,,,,
2121,0,0.0,0.37,,,,,,,,,,,,,,,,,,
2123,0,0.0,0.37,,-0.24,0.09,1.04,0,-1,-1,0.26,0,2100,0,0.0,0.0,0.0,0.0,0,0,0.0
2125,0,0.0,0.37,,,,,,,,,,,,,,,,,,
2127,0,0.0,0.37,,,,,,,,,,,,,,,,,,
2129,0,0.0,0.37,,,,,,,,,,,,,,,,,,
2131,0,0.0,0.37,,,,,,,,,,,,,,,,,,
2133,0,0.0,0.37,,0.04,0.02,1.01,0,-1,-0,0.04,,,,,,,,,,
2135,0,0.0,0.37,,,,,,,,,,,,,,,,,,
2137,0,0.0,0.37,,,,,,,,,,,,,,,,,,
2139,0,0.01,0.38,,,,,,,,,,,,,,,,,,
2141,0,0.0,0.38,,,,,,,,,,,,,,,,,,
2143,0,0.0,0.37,,-0.04,0.1,0.97,0,0,-0,0.11,0,2160,0,0.0,0.0,0.0,0.0,0,0,0.0
2145,0,0.0,0.37,,,,,,,,,,,,,,,,,,
2147,0,0.0,0.37,,,,,,,,,,,,,,,,,,
2149,0,0.0,0.37,,,,,,,,,,,,,,,,,,
2151,0,0.0,0.37,,,,,,,,,,,,,,,,,,
2153,0,0.0,0.37,,-0.19,0.09,1.05,0,-1,-1,0.22,,,,,,,,,,
2155,0,0.0,0.37,,,,,,,,,,,,,,,,,,
2157,0,0.0,0.37,,,,,,,,,,,,,,,,,,
2159,0,0.0,0.37,,,,,,,,,,,,,,,,,,
2161,0,0.0,0.37,,,,,,,,,,,,,,,,,,
2163,0,0.0,0.37,,-0.0,0.03,0.94,0,-1,-0,0.03,0,2160,0,0.0,0.0,0.0,0.0,0,0,0.0
2165,0,0.0,0.37,,,,,,,,,,,,,,,,,,
2167,0,0.0,0.38,,,,,,,,,,,,,,,,,,
2169,0,0.0,0.37,,,,,,,,,,,,,,,,,,
2171,0,0.0,0.38,,,,,,,,,,,,,,,,,,
2173,0,0.0,0.37,,-0.03,0.08,0.94,0,-0,-0,0.08,,,,,,,,,,
2175,0,0.0,0.37,,,,,,,,,,,,,,,,,,
2177,0,0.0,0.37,,,,,,,,,,,,,,,,,,
2179,0,0.0,0.37,,,,,,,,,,,,,,,,,,
2181,0,0.0,0.37,,,,,,,,,,,,,,,,,,
2183,0,0.0,0.37,,-0.1,0.07,1.05,1,0,-0,0.12,0,2100,0,0.0,0.0,0.0,0.0,0,0,0.0
2185,0,0.0,0.37,,,,,,,,,,,,,,,,,,
2187,0,0.0,0.37,,,,,,,,,,,,,,,,,,
2189,0,0.0,0.37,,,,,,,,,,,,,,,,,,
2191,0,0.0,0.38,,,,,,,,,,,,,,,,,,
2193,0,0.0,0.38,,0.04,0.06,1.01,0,-1,-0,0.07,,,,,,,,,,
2195,0,0.0,0.39,,,,,,,,,,,,,,,,,,
2197,0,0.0,0.38,,,,,,,,,,,,,,,,,,
2199,0,0.0,0.38,,,,,,,,,,,,,,,,,,
2201,0,0.0,0.38,,,,,,,,,,,,,,,,,,
2203,0,0.0,0.37,,-0.11,0.07,0.94,-0,-0,-1,0.13,0,2160,0,0.0,0.0,0.0,0.0,0,0,0.0
2205,0,0.0,0.37,,,,,,,,,,,,,,,,,,
2207,0,0.01,0.37,,,,,,,,,,,,,,,,,,
2209,0,0.0,0.37,,,,,,,,,,,,,,,,,,
2211,0,0.0,0.37,,,,,,,,,,,,,,,,,,
2213,0,0.0,0.38,,-0.11,0.06,0.99,0,-0,-0,0.12,,,,,,,,,,
2215,0,0.0,0.38,,,,,,,,,,,,,,,,,,
2217,0,0.0,0.38,,,,,,,,,,,,,,,,,,
2219,0,0.0,0.38,,,,,,,,,,,,,,,,,,
2221,0,0.0,0.37,,,,,,,,,,,,,,,,,,
2223,0,0.0,0.38,,0.01,0.1,1.01,-0,-0,-0,0.1,0,2100,0,0.0,0.0,0.0,0.0,0,0,0.0
2225,0,0.0,0.38,,,,,,,,,,,,,,,,,,
2227,0,0.0,0.38,,,,,,,,,,,,,,,,,,
2229,0,0.0,0.38,,,,,,,,,,,,,,,,,,
2231,0,0.0,0.38,,,,,,,,,,,,,,,,,,
2233,0,0.0,0.38,,-0.24,0.06,0.96,0,-0,-0,0.25,,,,,,,,,,
2235,0,0.0,0.38,,,,,,,,,,,,,,,,,,
2237,0,0.0,0.38,,,,,,,,,,,,,,,,,,
2239,0,0.0,0.38,,,,,,,,,,,,,,,,,,
2241,0,0.0,0.38,,,,,,,,,,,,,,,,,,
2243,0,0.0,0.38,,-0.04,0.03,1.05,0,-1,-0,0.04,0,2100,0,0.0,0.0,0.0,0.0,0,0,0.0
2245,0,0.0,0.38,,,,,,,,,,,,,,,,,,
2247,0,0.0,0.38,,,,,,,,,,,,,,,,,,
2249,0,0.0,0.38,,,,,,,,,,,,,,,,,,
2251,0,0.0,0.39,,,,,,,,,,,,,,,,,,
2253,0,0.0,0.38,,-0.05,0.08,0.95,-0,1,-0,0.09,,,,,,,,,,
2255,0,0.0,0.38,,,,,,,,,,,,,,,,,,
2257,0,0.0,0.38,,,,,,,,,,,,,,,,,,
2259,0,0.0,0.38,,,,,,,,,,,,,,,,,,
2261,0,0.0,0.38,,,,,,,,,,,,,,,,,,
2263,0,0.0,0.38,,-0.2,0.09,1.04,0,-1,-1,0.22,0,2160,0,0.0,0.0,0.0,0.0,0,0,0.0
2265,0,0.0,0.38,,,,,,,,,,,,,,,,,,
2267,0,0.0,0.38,,,,,,,,,,,,,,,,,,
2269,0,0.0,0.38,,,,,,,,,,,,,,,,,,
2271,0,0.0,0.38,,,,,,,,,,,,,,,,,,
2273,0,0.0,0.38,,-0.02,0.01,0.92,0,-2,0,0.03,,,,,,,,,,
2275,0,0.0,0.38,,,,,,,,,,,,,,,,,,
2277,0,0.0,0.38,,,,,,,,,,,,,,,,,,
2279,0,0.0,0.39,,,,,,,,,,,,,,,,,,
2281,0,0.0,0.38,,,,,,,,,,,,,,,,,,
2283,0,0.0,0.38,,-0.01,0.1,0.98,0,-0,-0,0.1,0,2100,0,0.0,0.0,0.0,0.0,0,0,0.0
2285,0,0.0,0.38,,,,,,,,,,,,,,,,,,
2287,0,0.0,0.38,,,,,,,,,,,,,,,,,,
2289,0,0.0,0.38,,,,,,,,,,,,,,,,,,
2291,0,0.0,0.38,,,,,,,,,,,,,,,,,,
2293,0,0.0,0.38,,-0.16,0.09,1.06,0,-1,-0,0.19,,,,,,,,,,
2295,0,0.0,0.37,,,,,,,,,,,,,,,,,,
2297,0,0.0,0.38,,,,,,,,,,,,,,,,,,
2299,0,0.0,0.38,,,,,,,,,,,,,,,,,,
2301,0,0.0,0.38,,,,,,,,,,,,,,,,,,
2303,0,0.0,0.38,,0.03,0.06,1.01,0,-1,0,0.07,0,2100,0,0.0,0.0,0.0,0.0,0,0,0.0
2305,0,0.0,0.38,,,,,,,,,,,,,,,,,,
2307,0,0.0,0.4,,,,,,,,,,,,,,,,,,
2309,0,0.0,0.39,,,,,,,,,,,,,,,,,,
2311,0,0.0,0.39,,,,,,,,,,,,,,,,,,
2313,0,0.0,0.38,,-0.1,0.08,0.95,0,0,-0,0.13,,,,,,,,,,
2315,0,0.0,0.38,,,,,,,,,,,,,,,,,,
2317,0,0.0,0.38,,,,,,,,,,,,,,,,,,
2319,0,0.0,0.38,,,,,,,,,,,,,,,,,,
2321,0,0.0,0.38,,,,,,,,,,,,,,,,,,
2323,0,0.0,0.38,,-0.17,0.08,1.07,0,0,-0,0.19,0,2160,0,0.0,0.0,0.0,0.0,0,0,0.0
2325,0,0.0,0.38,,,,,,,,,,,,,,,,,,
2327,0,0.0,0.38,,,,,,,,,,,,,,,,,,
2329,0,0.0,0.38,,,,,,,,,,,,,,,,,,
2331,0,0.0,0.38,,,,,,,,,,,,,,,,,,
2333,0,0.0,0.38,,0.01,0.08,1.01,-0,-0,0,0.08,,,,,,,,,,
2335,0,0.0,0.4,,,,,,,,,,,,,,,,,,
2337,0,0.0,0.39,,,,,,,,,,,,,,,,,,
2339,0,0.0,0.38,,,,,,,,,,,,,,,,,,
2341,0,0.0,0.38,,,,,,,,,,,,,,,,,,
2343,0,0.0,0.38,,-0.14,0.07,0.93,0,-0,-0,0.16,0,2100,0,0.0,0.0,0.0,0.0,0,0,0.0
2345,0,0.0,0.38,,,,,,,,,,,,,,,,,,
2347,0,0.0,0.38,,,,,,,,,,,,,,,,,,
2349,0,0.0,0.38,,,,,,,,,,,,,,,,,,
2351,0,0.0,0.38,,,,,,,,,,,,,,,,,,
2353,0,0.0,0.38,,-0.06,0.04,1.03,0,-0,-0,0.07,,,,,,,,,,
2355,0,0.0,0.39,,,,,,,,,,,,,,,,,,
2357,0,0.0,0.38,,,,,,,,,,,,,,,,,,
2359,0,0.0,0.38,,,,,,,,,,,,,,,,,,
2361,0,0.0,0.39,,,,,,,,,,,,,,,,,,
2363,0,0.0,0.39,,-0.02,0.08,0.99,-0,-0,0,0.08,0,2160,0,0.0,0.0,0.0,0.0,0,0,0.0
2365,0,0.0,0.39,,,,,,,,,,,,,,,,,,
2367,0,0.0,0.39,,,,,,,,,,,,,,,,,,
2369,0,0.0,0.39,,,,,,,,,,,,,,,,,,
2371,0,0.0,0.39,,,,,,,,,,,,,,,,,,
2373,0,0.0,0.38,,-0.16,0.09,0.97,0,-1,-0,0.18,,,,,,,,,,
2375,0,0.0,0.39,,,,,,,,,,,,,,,,,,
2377,0,0.0,0.39,,,,,,,,,,,,,,,,,,
2379,0,0.0,0.39,,,,,,,,,,,,,,,,,,
2381,0,0.0,0.38,,,,,,,,,,,,,,,,,,
2383,0,0.0,0.39,,-0.03,0.01,0.91,0,-1,-0,0.03,0,2160,0,0.0,0.0,0.0,0.0,0,0,0.0
2385,0,0.0,0.39,,,,,,,,,,,,,,,,,,
2387,0,0.0,0.39,,,,,,,,,,,,,,,,,,
2389,0,0.0,0.39,,,,,,,,,,,,,,,,,,
2391,0,0.0,0.39,,,,,,,,,,,,,,,,,,
2393,0,0.0,0.39,,0.0,0.11,0.99,-0,-0,-0,0.11,,,,,,,,,,
2395,0,0.0,0.39,,,,,,,,,,,,,,,,,,
2397,0,0.0,0.39,,,,,,,,,,,,,,,,,,
2399,0,0.0,0.39,,,,,,,,,,,,,,,,,,
2401,0,0.0,0.39,,,,,,,,,,,,,,,,,,
2403,0,0.0,0.39,,-0.21,0.1,1.07,0,-1,-1,0.23,0,2100,0,0.0,0.0,0.0,0.0,0,0,0.0
2405,0,0.0,0.39,,,,,,,,,,,,,,,,,,
2407,0,0.0,0.39,,,,,,,,,,,,,,,,,,
2409,0,0.0,0.39,,,,,,,,,,,,,,,,,,
2411,0,0.0,0.39,,,,,,,,,,,,,,,,,,
2413,0,0.0,0.39,,0.05,0.03,0.98,0,-1,0,0.06,,,,,,,,,,
2415,0,0.0,0.39,,,,,,,,,,,,,,,,,,
2417,0,0.0,0.4,,,,,,,,,,,,,,,,,,
2419,0,0.0,0.39,,,,,,,,,,,,,,,,,,
2421,0,0.0,0.39,,,,,,,,,,,,,,,,,,
2423,0,0.0,0.39,,-0.06,0.09,0.97,0,0,-0,0.11,0,2160,0,0.0,0.0,0.0,0.0,0,0,0.0
2425,0,0.0,0.39,,,,,,,,,,,,,,,,,,
2427,0,0.0,0.39,,,,,,,,,,,,,,,,,,
2429,0,0.0,0.39,,,,,,,,,,,,,,,,,,
2431,0,0.0,0.39,,,,,,,,,,,,,,,,,,
2433,0,0.0,0.39,,-0.18,0.08,1.09,1,-0,-0,0.2,,,,,,,,,,
2435,0,0.0,0.39,,,,,,,,,,,,,,,,,,
2437,0,0.0,0.39,,,,,,,,,,,,,,,,,,
2439,0,0.0,0.39,,,,,,,,,,,,,,,,,,
2441,0,0.0,0.39,,,,,,,,,,,,,,,,,,
2443,0,0.0,0.39,,0.03,0.07,0.98,-0,-0,0,0.07,0,2160,0,0.0,0.0,0.0,0.0,0,0,0.0
2445,0,0.0,0.4,,,,,,,,,,,,,,,,,,
2447,0,0.0,0.39,,,,,,,,,,,,,,,,,,
2449,0,0.0,0.39,,,,,,,,,,,,,,,,,,
2451,0,0.0,0.39,,,,,,,,,,,,,,,,,,
2453,0,0.0,0.39,,-0.07,0.08,0.94,0,0,-0,0.1,,,,,,,,,,
2455,0,0.0,0.39,,,,,,,,,,,,,,,,,,
2457,0,0.0,0.39,,,,,,,,,,,,,,,,,,
2459,0,0.0,0.39,,,,,,,,,,,,,,,,,,
2461,0,0.0,0.39,,,,,,,,,,,,,,,,,,
2463,0,0.0,0.39,,-0.05,0.06,1.02,1,0,-0,0.08,0,2100,0,0.0,0.0,0.0,0.0,0,0,0.0
2465,0,0.0,0.39,,,,,,,,,,,,,,,,,,
2467,0,0.0,0.39,,,,,,,,,,,,,,,,,,
2469,0,0.0,0.39,,,,,,,,,,,,,,,,,,
2471,0,0.0,0.39,,,,,,,,,,,,,,,,,,
2473,0,0.0,0.4,,0.01,0.08,0.99,-0,-0,-0,0.08,,,,,,,,,,
2475,0,0.0,0.4,,,,,,,,,,,,,,,,,,
2477,0,0.0,0.4,,,,,,,,,,,,,,,,,,
2479,0,0.0,0.39,,,,,,,,,,,,,,,,,,
2481,0,0.0,0.39,,,,,,,,,,,,,,,,,,
2483,0,0.0,0.39,,-0.12,0.07,0.94,0,-0,-0,0.14,0,2160,0,0.0,0.0,0.0,0.0,0,0,0.0
2485,0,0.0,0.39,,,,,,,,,,,,,,,,,,
2487,0,0.0,0.39,,,,,,,,,,,,,,,,,,
2489,0,0.0,0.39,,,,,,,,,,,,,,,,,,
2491,0,0.0,0.39,,,,,,,,,,,,,,,,,,
2493,0,0.0,0.39,,-0.05,0.02,0.94,0,-1,-0,0.06,,,,,,,,,,
2495,0,0.0,0.39,,,,,,,,,,,,,,,,,,
2497,0,0.0,0.39,,,,,,,,,,,,,,,,,,
2499,0,0.0,0.39,,,,,,,,,,,,,,,,,,
2501,0,0.0,0.4,,,,,,,,,,,,,,,,,,
2503,0,0.0,0.39,,-0.01,0.11,1.04,-0,0,-0,0.11,0,2100,0,0.0,0.0,0.0,0.0,0,0,0.0
2505,0,0.0,0.39,,,,,,,,,,,,,,,,,,
2507,0,0.0,0.39,,,,,,,,,,,,,,,,,,
2509,0,0.0,0.39,,,,,,,,,,,,,,,,,,
2511,0,0.0,0.39,,,,,,,,,,,,,,,,,,
2513,0,0.0,0.39,,-0.25,0.09,1.01,0,-1,-0,0.27,,,,,,,,,,
2515,0,0.0,0.39,,,,,,,,,,,,,,,,,,
2517,0,0.0,0.39,,,,,,,,,,,,,,,,,,
2519,0,0.0,0.39,,,,,,,,,,,,,,,,,,
2521,0,0.0,0.39,,,,,,,,,,,,,,,,,,
2523,0,0.0,0.4,,0.02,0.02,1.0,0,-1,-0,0.03,0,2100,0,0.0,0.0,0.0,0.0,0,0,0.0
2525,0,0.0,0.39,,,,,,,,,,,,,,,,,,
2527,0,0.0,0.39,,,,,,,,,,,,,,,,,,
2529,0,0.0,0.41,,,,,,,,,,,,,,,,,,
2531,0,0.0,0.4,,,,,,,,,,,,,,,,,,
2533,0,0.0,0.4,,-0.04,0.09,0.96,-0,0,-0,0.1,,,,,,,,,,
2535,0,0.0,0.4,,,,,,,,,,,,,,,,,,
2537,0,0.0,0.4,,,,,,,,,,,,,,,,,,
2539,0,0.0,0.39,,,,,,,,,,,,,,,,,,
2541,0,0.0,0.4,,,,,,,,,,,,,,,,,,
2543,0,0.0,0.4,,-0.2,0.09,1.06,0,-0,-1,0.22,0,2160,0,0.0,0.0,0.0,0.0,0,0,0.0
2545,0,0.0,0.39,,,,,,,,,,,,,,,,,,
2547,0,0.0,0.39,,,,,,,,,,,,,,,,,,
2549,0,0.0,0.39,,,,,,,,,,,,,,,,,,
2551,0,0.0,0.4,,,,,,,,,,,,,,,,,,
2553,0,0.0,0.4,,0.0,0.04,0.95,0,-1,-0,0.04,,,,,,,,,,
2555,0,0.0,0.4,,,,,,,,,,,,,,,,,,
2557,0,0.0,0.41,,,,,,,,,,,,,,,,,,
2559,0,0.0,0.4,,,,,,,,,,,,,,,,,,
2561,0,0.0,0.4,,,,,,,,,,,,,,,,,,
2563,0,0.0,0.4,,-0.02,0.08,0.94,0,-0,-0,0.08,0,2100,0,0.0,0.0,0.0,0.0,0,0,0.0
2565,0,0.0,0.4,,,,,,,,,,,,,,,,,,
2567,0,0.0,0.4,,,,,,,,,,,,,,,,,,
2569,0,0.0,0.4,,,,,,,,,,,,,,,,,,
2571,0,0.0,0.4,,,,,,,,,,,,,,,,,,
2573,0,0.0,0.39,,-0.09,0.07,1.05,1,0,-0,0.11,,,,,,,,,,
2575,0,0.0,0.4,,,,,,,,,,,,,,,,,,
2577,0,0.0,0.4,,,,,,,,,,,,,,,,,,
2579,0,0.0,0.4,,,,,,,,,,,,,,,,,,
2581,0,0.0,0.4,,,,,,,,,,,,,,,,,,
2583,0,0.0,0.4,,0.03,0.05,1.01,0,-1,0,0.06,0,2100,0,0.0,0.0,0.0,0.0,0,0,0.0
2585,0,0.0,0.41,,,,,,,,,,,,,,,,,,
2587,0,0.0,0.4,,,,,,,,,,,,,,,,,,
2589,0,0.0,0.4,,,,,,,,,,,,,,,,,,
2591,0,0.0,0.4,,,,,,,,,,,,,,,,,,
2593,0,0.0,0.4,,-0.12,0.07,0.94,0,0,-0,0.14,,,,,,,,,,
2595,0,0.0,0.4,,,,,,,,,,,,,,,,,,
2597,0,0.0,0.4,,,,,,,,,,,,,,,,,,
2599,0,0.0,0.4,,,,,,,,,,,,,,,,,,
2601,0,0.0,0.4,,,,,,,,,,,,,,,,,,
2603,0,0.0,0.4,,-0.1,0.06,0.99,0,-0,-0,0.11,0,2160,0,0.0,0.0,0.0,0.0,0,0,0.0
2605,0,0.0,0.4,,,,,,,,,,,,,,,,,,
2607,0,0.0,0.4,,,,,,,,,,,,,,,,,,
2609,0,0.0,0.4,,,,,,,,,,,,,,,,,,
2611,0,0.0,0.4,,,,,,,,,,,,,,,,,,
2613,0,0.0,0.41,,-0.0,0.12,1.02,-0,0,-0,0.12,,,,,,,,,,
2615,0,0.0,0.4,,,,,,,,,,,,,,,,,,
2617,0,0.0,0.4,,,,,,,,,,,,,,,,,,
2619,0,0.0,0.4,,,,,,,,,,,,,,,,,,
2621,0,0.0,0.4,,,,,,,,,,,,,,,,,,
2623,0,0.0,0.4,,-0.24,0.08,0.96,0,-0,-0,0.26,0,2100,0,0.0,0.0,0.0,0.0,0,0,0.0
2625,0,0.0,0.4,,,,,,,,,,,,,,,,,,
2627,0,0.0,0.4,,,,,,,,,,,,,,,,,,
2629,0,0.0,0.4,,,,,,,,,,,,,,,,,,
2631,0,0.0,0.4,,,,,,,,,,,,,,,,,,
2633,0,0.0,0.4,,-0.02,0.03,1.03,0,-1,-0,0.03,,,,,,,,,,
2635,0,0.0,0.4,,,,,,,,,,,,,,,,,,
2637,0,0.0,0.4,,,,,,,,,,,,,,,,,,
2639,0,0.0,0.4,,,,,,,,,,,,,,,,,,
2641,0,0.0,0.41,,,,,,,,,,,,,,,,,,
2643,0,0.0,0.4,,-0.03,0.1,0.95,-0,1,-0,0.1,0,2160,0,0.0,0.0,0.0,0.0,0,0,0.0
2645,0,0.0,0.4,,,,,,,,,,,,,,,,,,
2647,0,0.0,0.4,,,,,,,,,,,,,,,,,,
2649,0,0.0,0.4,,,,,,,,,,,,,,,,,,
2651,0,0.0,0.4,,,,,,,,,,,,,,,,,,
2653,0,0.0,0.4,,-0.2,0.1,1.05,0,-0,-1,0.22,,,,,,,,,,
2655,0,0.0,0.4,,,,,,,,,,,,,,,,,,
2657,0,0.0,0.4,,,,,,,,,,,,,,,,,,
2659,0,0.0,0.4,,,,,,,,,,,,,,,,,,
2661,0,0.0,0.4,,,,,,,,,,,,,,,,,,
2663,0,0.0,0.4,,-0.02,0.02,0.92,0,-1,0,0.03,0,2160,0,0.0,0.0,0.0,0.0,0,0,0.0
2665,0,0.0,0.4,,,,,,,,,,,,,,,,,,
2667,0,0.0,0.4,,,,,,,,,,,,,,,,,,
2669,0,0.0,0.41,,,,,,,,,,,,,,,,,,
2671,0,0.0,0.4,,,,,,,,,,,,,,,,,,
2673,0,0.0,0.4,,-0.01,0.09,0.97,0,-0,-0,0.09,,,,,,,,,,
2675,0,0.01,0.4,,,,,,,,,,,,,,,,,,
2677,0,0.0,0.4,,,,,,,,,,,,,,,,,,
2679,0,0.0,0.4,,,,,,,,,,,,,,,,,,
2681,0,0.0,0.4,,,,,,,,,,,,,,,,,,
2683,0,0.01,0.4,,-0.13,0.07,1.05,1,-0,-1,0.15,0,2100,0,0.0,0.0,0.0,0.0,0,0,0.0
2685,0,0.0,0.4,,,,,,,,,,,,,,,,,,
2687,0,0.0,0.4,,,,,,,,,,,,,,,,,,
2689,0,0.0,0.4,,,,,,,,,,,,,,,,,,
2691,0,0.0,0.4,,,,,,,,,,,,,,,,,,
2693,0,0.0,0.4,,0.02,0.06,1.01,0,-1,-0,0.07,,,,,,,,,,
2695,0,0.0,0.41,,,,,,,,,,,,,,,,,,
2697,0,0.0,0.41,,,,,,,,,,,,,,,,,,
2699,0,0.0,0.41,,,,,,,,,,,,,,,,,,
2701,0,0.0,0.41,,,,,,,,,,,,,,,,,,
2703,0,0.0,0.41,,-0.11,0.08,0.97,0,0,-0,0.14,0,2160,0,0.0,0.0,0.0,0.0,0,0,0.0
2705,0,0.0,0.41,,,,,,,,,,,,,,,,,,
2707,0,0.0,0.41,,,,,,,,,,,,,,,,,,
2709,0,0.0,0.41,,,,,,,,,,,,,,,,,,
2711,0,0.0,0.4,,,,,,,,,,,,,,,,,,
2713,0,0.0,0.4,,-0.14,0.07,1.02,0,-0,-0,0.15,,,,,,,,,,
2715,0,0.0,0.4,,,,,,,,,,,,,,,,,,
2717,0,0.0,0.41,,,,,,,,,,,,,,,,,,
2719,0,0.0,0.4,,,,,,,,,,,,,,,,,,
2721,0,0.0,0.4,,,,,,,,,,,,,,,,,,
2723,0,0.0,0.41,,0.0,0.09,1.02,0,-0,-0,0.09,0,2100,0,0.0,0.0,0.0,0.0,0,0,0.0
2725,0,0.0,0.41,,,,,,,,,,,,,,,,,,
2727,0,0.0,0.41,,,,,,,,,,,,,,,,,,
2729,0,0.0,0.41,,,,,,,,,,,,,,,,,,
2731,0,0.0,0.41,,,,,,,,,,,,,,,,,,
2733,0,0.0,0.41,,-0.16,0.07,0.94,0,-0,-0,0.18,,,,,,,,,,
2735,0,0.0,0.4,,,,,,,,,,,,,,,,,,
2737,0,0.0,0.41,,,,,,,,,,,,,,,,,,
2739,0,0.0,0.41,,,,,,,,,,,,,,,,,,
2741,0,0.0,0.41,,,,,,,,,,,,,,,,,,
2743,0,0.0,0.41,,-0.04,0.03,1.03,0,-1,-0,0.05,0,2100,0,0.0,0.0,0.0,0.0,0,0,0.0
2745,0,0.0,0.41,,,,,,,,,,,,,,,,,,
2747,0,0.0,0.41,,,,,,,,,,,,,,,,,,
2749,0,0.0,0.41,,,,,,,,,,,,,,,,,,
2751,0,0.0,0.42,,,,,,,,,,,,,,,,,,
2753,0,0.0,0.41,,-0.02,0.09,0.98,-0,0,-0,0.09,,,,,,,,,,
2755,0,0.0,0.41,,,,,,,,,,,,,,,,,,
2757,0,0.0,0.41,,,,,,,,,,,,,,,,,,
2759,0,0.0,0.41,,,,,,,,,,,,,,,,,,
2761,0,0.0,0.41,,,,,,,,,,,,,,,,,,
2763,0,0.0,0.41,,-0.16,0.09,0.99,0,-0,-1,0.18,0,2160,0,0.0,0.0,0.0,0.0,0,0,0.0
2765,0,0.0,0.41,,,,,,,,,,,,,,,,,,
2767,0,0.0,0.41,,,,,,,,,,,,,,,,,,
2769,0,0.0,0.41,,,,,,,,,,,,,,,,,,
2771,0,0.0,0.41,,,,,,,,,,,,,,,,,,
2773,0,0.0,0.41,,-0.03,0.02,0.91,0,-1,-0,0.03,,,,,,,,,,
2775,0,0.0,0.41,,,,,,,,,,,,,,,,,,
2777,0,0.0,0.41,,,,,,,,,,,,,,,,,,
2779,0,0.0,0.42,,,,,,,,,,,,,,,,,,
2781,0,0.0,0.41,,,,,,,,,,,,,,,,,,
2783,0,0.0,0.41,,0.01,0.1,0.98,-0,-0,-0,0.1,0,2100,0,0.0,0.0,0.0,0.0,0,0,0.0
2785,0,0.0,0.41,,,,,,,,,,,,,,,,,,
2787,0,0.0,0.41,,,,,,,,,,,,,,,,,,
2789,0,0.0,0.41,,,,,,,,,,,,,,,,,,
2791,0,0.0,0.41,,,,,,,,,,,,,,,,,,
2793,0,0.0,0.41,,-0.18,0.09,1.08,0,-0,-0,0.2,,,,,,,,,,
2795,0,0.0,0.41,,,,,,,,,,,,,,,,,,
2797,0,0.0,0.41,,,,,,,,,,,,,,,,,,
2799,0,0.0,0.41,,,,,,,,,,,,,,,,,,
2801,0,0.0,0.41,,,,,,,,,,,,,,,,,,
2803,0,0.0,0.41,,0.03,0.05,0.99,0,-1,-0,0.06,0,2100,0,0.0,0.0,0.0,0.0,0,0,0.0
2805,0,0.0,0.41,,,,,,,,,,,,,,,,,,
2807,0,0.0,0.42,,,,,,,,,,,,,,,,,,
2809,0,0.0,0.41,,,,,,,,,,,,,,,,,,
2811,0,0.0,0.41,,,,,,,,,,,,,,,,,,
2813,0,0.0,0.41,,-0.08,0.09,0.97,0,0,-0,0.12,,,,,,,,,,
2815,0,0.0,0.41,,,,,,,,,,,,,,,,,,
2817,0,0.0,0.41,,,,,,,,,,,,,,,,,,
2819,0,0.0,0.41,,,,,,,,,,,,,,,,,,
2821,0,0.0,0.41,,,,,,,,,,,,,,,,,,
2823,0,0.0,0.41,,-0.17,0.07,1.1,0,0,-0,0.19,0,2160,0,0.0,0.0,0.0,0.0,0,0,0.0
2825,0,0.0,0.41,,,,,,,,,,,,,,,,,,
2827,0,0.0,0.41,,,,,,,,,,,,,,,,,,
2829,0,0.0,0.41,,,,,,,,,,,,,,,,,,
2831,0,0.0,0.41,,,,,,,,,,,,,,,,,,
2833,0,0.0,0.41,,0.02,0.06,1.01,-0,-0,-0,0.07,,,,,,,,,,
2835,0,0.0,0.42,,,,,,,,,,,,,,,,,,
2837,0,0.0,0.41,,,,,,,,,,,,,,,,,,
2839,0,0.0,0.41,,,,,,,,,,,,,,,,,,
2841,0,0.0,0.41,,,,,,,,,,,,,,,,,,
2843,0,0.0,0.41,,-0.1,0.06,0.93,0,0,-0,0.12,0,2100,0,0.0,0.0,0.0,0.0,0,0,0.0
2845,0,0.0,0.41,,,,,,,,,,,,,,,,,,
2847,0,0.0,0.41,,,,,,,,,,,,,,,,,,
2849,0,0.0,0.41,,,,,,,,,,,,,,,,,,
2851,0,0.0,0.41,,,,,,,,,,,,,,,,,,
2853,0,0.0,0.41,,-0.06,0.05,1.03,0,-0,-0,0.08,,,,,,,,,,
2855,0,0.0,0.41,,,,,,,,,,,,,,,,,,
2857,0,0.0,0.41,,,,,,,,,,,,,,,,,,
2859,0,0.0,0.41,,,,,,,,,,,,,,,,,,
2861,0,0.0,0.41,,,,,,,,,,,,,,,,,,
2863,0,0.0,0.42,,-0.02,0.08,1.03,-0,-0,0,0.08,0,2160,0,0.0,0.0,0.0,0.0,0,0,0.0
2865,0,0.0,0.42,,,,,,,,,,,,,,,,,,
2867,0,0.0,0.41,,,,,,,,,,,,,,,,,,
2869,0,0.0,0.41,,,,,,,,,,,,,,,,,,
2871,0,0.0,0.41,,,,,,,,,,,,,,,,,,
2873,0,0.0,0.41,,-0.14,0.07,0.98,0,-0,-0,0.16,,,,,,,,,,
2875,0,0.0,0.41,,,,,,,,,,,,,,,,,,
2877,0,0.0,0.41,,,,,,,,,,,,,,,,,,
2879,0,0.0,0.41,,,,,,,,,,,,,,,,,,
2881,0,0.0,0.41,,,,,,,,,,,,,,,,,,
2883,0,0.0,0.41,,-0.05,0.02,0.95,0,-1,-0,0.05,0,2160,0,0.0,0.0,0.0,0.0,0,0,0.0
2885,0,0.0,0.41,,,,,,,,,,,,,,,,,,
2887,0,0.0,0.41,,,,,,,,,,,,,,,,,,
2889,0,0.0,0.41,,,,,,,,,,,,,,,,,,
2891,0,0.0,0.42,,,,,,,,,,,,,,,,,,
2893,0,0.0,0.41,,-0.02,0.11,1.01,-0,-0,-0,0.11,,,,,,,,,,
2895,0,0.0,0.41,,,,,,,,,,,,,,,,,,
2897,0,0.0,0.41,,,,,,,,,,,,,,,,,,
2899,0,0.0,0.41,,,,,,,,,,,,,,,,,,
2901,0,0.0,0.41,,,,,,,,,,,,,,,,,,
2903,0,0.0,0.41,,-0.28,0.11,1.04,0,-1,-1,0.3,0,2100,0,0.0,0.0,0.0,0.0,0,0,0.0
2905,0,0.0,0.41,,,,,,,,,,,,,,,,,,
2907,0,0.0,0.41,,,,,,,,,,,,,,,,,,
2909,0,0.0,0.41,,,,,,,,,,,,,,,,,,
2911,0,0.0,0.41,,,,,,,,,,,,,,,,,,
2913,0,0.0,0.41,,-0.0,0.01,1.04,0,-1,0,0.01,,,,,,,,,,
2915,0,0.0,0.41,,,,,,,,,,,,,,,,,,
2917,0,0.0,0.42,,,,,,,,,,,,,,,,,,
2919,0,0.0,0.43,,,,,,,,,,,,,,,,,,
2921,0,0.0,0.42,,,,,,,,,,,,,,,,,,
2923,0,0.0,0.42,,-0.09,0.09,1.01,0,0,-0,0.13,0,2160,0,0.0,0.0,0.0,0.0,0,0,0.0
2925,0,0.0,0.42,,,,,,,,,,,,,,,,,,
2927,0,0.0,0.42,,,,,,,,,,,,,,,,,,
2929,0,0.0,0.41,,,,,,,,,,,,,,,,,,
2931,0,0.0,0.42,,,,,,,,,,,,,,,,,,
2933,0,0.0,0.41,,-0.25,0.11,1.13,0,-1,-1,0.27,,,,,,,,,,
2935,0,0.0,0.42,,,,,,,,,,,,,,,,,,
2937,0,0.0,0.41,,,,,,,,,,,,,,,,,,
2939,0,0.0,0.42,,,,,,,,,,,,,,,,,,
2941,0,0.0,0.42,,,,,,,,,,,,,,,,,,
2943,0,0.0,0.42,,-0.04,0.08,1.01,-0,-1,-0,0.09,0,2160,0,0.0,0.0,0.0,0.0,0,0,0.0
2945,0,0.0,0.42,,,,,,,,,,,,,,,,,,
2947,0,0.0,0.43,,,,,,,,,,,,,,,,,,
2949,0,0.0,0.42,,,,,,,,,,,,,,,,,,
2951,0,0.0,0.42,,,,,,,,,,,,,,,,,,
2953,0,0.0,0.41,,-0.06,0.09,0.94,0,-0,-0,0.11,,,,,,,,,,
2955,0,0.0,0.42,,,,,,,,,,,,,,,,,,
2957,0,0.0,0.42,,,,,,,,,,,,,,,,,,
2959,0,0.0,0.42,,,,,,,,,,,,,,,,,,
2961,0,0.0,0.42,,,,,,,,,,,,,,,,,,
2963,0,0.0,0.41,,-0.05,0.07,1.01,1,0,-0,0.08,0,2100,0,0.0,0.0,0.0,0.0,0,0,0.0
2965,0,0.0,0.42,,,,,,,,,,,,,,,,,,
2967,0,0.0,0.42,,,,,,,,,,,,,,,,,,
2969,0,0.0,0.42,,,,,,,,,,,,,,,,,,
2971,0,0.0,0.42,,,,,,,,,,,,,,,,,,
2973,0,0.0,0.43,,-0.0,0.11,0.95,-0,-0,-0,0.11,,,,,,,,,,
2975,0,0.0,0.42,,,,,,,,,,,,,,,,,,
2977,0,0.0,0.42,,,,,,,,,,,,,,,,,,
2979,0,0.0,0.42,,,,,,,,,,,,,,,,,,
2981,0,0.0,0.42,,,,,,,,,,,,,,,,,,
2983,0,0.0,0.42,,-0.16,0.1,0.89,0,-0,-0,0.19,0,2160,0,0.0,0.0,0.0,0.0,0,0,0.0
2985,0,0.0,0.42,,,,,,,,,,,,,,,,,,
2987,0,0.0,0.42,,,,,,,,,,,,,,,,,,
2989,0,0.0,0.42,,,,,,,,,,,,,,,,,,
2991,0,0.0,0.42,,,,,,,,,,,,,,,,,,
2993,0,0.0,0.42,,-0.07,0.04,0.91,0,-0,-0,0.08,,,,,,,,,,
2995,0,0.0,0.42,,,,,,,,,,,,,,,,,,
2997,0,0.0,0.42,,,,,,,,,,,,,,,,,,
2999,0,0.0,0.42,,,,,,,,,,,,,,,,,,
3001,0,0.0,0.42,,,,,,,,,,,,,,,,,,
3003,0,0.0,0.42,,-0.01,0.13,1.01,-0,-0,-0,0.13,0,2100,0,0.0,0.0,0.0,0.0,0,0,0.0
3005,0,0.0,0.42,,,,,,,,,,,,,,,,,,
3007,0,0.0,0.42,,,,,,,,,,,,,,,,,,
3009,0,0.0,0.42,,,,,,,,,,,,,,,,,,
3011,0,0.0,0.42,,,,,,,,,,,,,,,,,,
3013,0,0.0,0.42,,-0.26,0.12,1.01,0,-1,-0,0.29,,,,,,,,,,
3015,0,0.0,0.42,,,,,,,,,,,,,,,,,,
3017,0,0.0,0.42,,,,,,,,,,,,,,,,,,
3019,0,0.0,0.42,,,,,,,,,,,,,,,,,,
3021,0,0.0,0.42,,,,,,,,,,,,,,,,,,
3023,0,0.0,0.42,,0.03,0.03,0.99,0,-1,-0,0.04,0,2100,0,0.0,0.0,0.0,0.0,0,0,0.0
3025,0,0.0,0.42,,,,,,,,,,,,,,,,,,
3027,0,0.0,0.42,,,,,,,,,,,,,,,,,,
3029,0,0.0,0.43,,,,,,,,,,,,,,,,,,
3031,0,0.0,0.42,,,,,,,,,,,,,,,,,,
3033,0,0.0,0.42,,-0.05,0.1,0.95,-0,0,-0,0.11,,,,,,,,,,
3035,0,0.0,0.42,,,,,,,,,,,,,,,,,,
3037,0,0.0,0.42,,,,,,,,,,,,,,,,,,
3039,0,0.0,0.42,,,,,,,,,,,,,,,,,,
3041,0,0.0,0.42,,,,,,,,,,,,,,,,,,
3043,0,0.0,0.42,13.23,-0.2,0.1,1.05,0,-1,-1,0.23,0,2160,0,0.0,0.0,0.0,0.0,0,0,0.0
3045,0,0.0,0.42,,,,,,,,,,,,,,,,,,
3047,0,0.0,0.42,,,,,,,,,,,,,,,,,,
3049,0,0.0,0.42,,,,,,,,,,,,,,,,,,
3051,0,0.0,0.42,,,,,,,,,,,,,,,,,,
3053,0,0.0,0.42,,0.01,0.04,0.93,0,-1,-0,0.04,,,,,,,,,,
3055,0,0.0,0.42,,,,,,,,,,,,,,,,,,
3057,0,0.0,0.43,,,,,,,,,,,,,,,,,,
3059,0,0.0,0.42,,,,,,,,,,,,,,,,,,
3061,0,0.0,0.43,,,,,,,,,,,,,,,,,,
3063,0,0.0,0.42,,-0.02,0.09,0.95,0,-0,-0,0.09,0,2100,0,0.0,0.0,0.0,0.0,0,0,0.0
3065,0,0.0,0.42,,,,,,,,,,,,,,,,,,
3067,0,0.0,0.42,,,,,,,,,,,,,,,,,,
3069,0,0.0,0.42,,,,,,,,,,,,,,,,,,
3071,0,0.0,0.42,,,,,,,,,,,,,,,,,,
3073,0,0.0,0.42,,-0.08,0.07,1.05,0,0,-1,0.11,,,,,,,,,,
3075,0,0.0,0.42,,,,,,,,,,,,,,,,,,
3077,0,0.0,0.42,,,,,,,,,,,,,,,,,,
