"Interval"|"ms"|0|0|1,"Utc"|"ms"|0|0|1,"Analog4"|"Volts"|0.0|5.0|500,"Analog5"|"Volts"|0.0|5.0|500,"Battery"|"Volts"|0.0|20.0|1,"AccelX"|"G"|-3.0|3.0|200,"AccelY"|"G"|-3.0|3.0|200,"AccelZ"|"G"|-3.0|3.0|200,"Yaw"|"Deg/Sec"|-120|120|200,"Pitch"|"Deg/Sec"|-120|120|200,"Roll"|"Deg/Sec"|-120|120|200,"Gsum"|"G"|0.0|3.0|200,"RPM2"|"rpm"|0|8000|50,"RPM3"|"rpm"|0|8000|50,"GPIO1"|""|0.0|1.0|50,"Latitude"|"Degrees"|-180.0|180.0|50,"Longitude"|"Degrees"|-180.0|180.0|50,"Speed"|"mph"|0.0|150.0|50,"Altitude"|"ft"|0.0|4000.0|50,"GPSSats"|""|0|20|50,"GPSQual"|""|0|5|50,"GPSDOP"|""|0.0|20.0|50
159,0,0.0,0.59,,,,,,,,,,,,,,,,,,
161,0,0.0,0.59,,,,,,,,,,,,,,,,,,
163,0,0.0,0.59,,-0.18,0.1,0.95,0,-0,-1,0.21,0,1920,0,0.0,0.0,0.0,0.0,0,0,0.0
165,0,0.0,0.59,,,,,,,,,,,,,,,,,,
167,0,0.0,0.59,,,,,,,,,,,,,,,,,,
169,0,0.0,0.59,,,,,,,,,,,,,,,,,,
171,0,0.0,0.59,,,,,,,,,,,,,,,,,,
173,0,0.0,0.59,,-0.05,0.04,1.03,0,-1,-0,0.06,,,,,,,,,,
175,0,0.0,0.59,,,,,,,,,,,,,,,,,,
177,0,0.0,0.59,,,,,,,,,,,,,,,,,,
179,0,0.0,0.59,,,,,,,,,,,,,,,,,,
181,0,0.0,0.59,,,,,,,,,,,,,,,,,,
183,0,0.0,0.6,,-0.01,0.07,0.96,-0,0,-0,0.07,0,1980,0,0.0,0.0,0.0,0.0,0,0,0.0
185,0,0.0,0.59,,,,,,,,,,,,,,,,,,
187,0,0.0,0.59,,,,,,,,,,,,,,,,,,
189,0,0.0,0.59,,,,,,,,,,,,,,,,,,
191,0,0.0,0.59,,,,,,,,,,,,,,,,,,
193,0,0.0,0.59,,-0.12,0.11,0.95,0,-1,-1,0.17,,,,,,,,,,
195,0,0.0,0.59,,,,,,,,,,,,,,,,,,
197,0,0.0,0.59,,,,,,,,,,,,,,,,,,
199,0,0.0,0.59,,,,,,,,,,,,,,,,,,
201,0,0.0,0.59,,,,,,,,,,,,,,,,,,
203,0,0.01,0.6,,-0.08,0.05,0.95,0,-1,-0,0.09,0,1980,0,0.0,0.0,0.0,0.0,0,0,0.0
205,0,0.0,0.59,,,,,,,,,,,,,,,,,,
207,0,0.0,0.59,,,,,,,,,,,,,,,,,,
209,0,0.0,0.59,,,,,,,,,,,,,,,,,,
211,0,0.0,0.59,,,,,,,,,,,,,,,,,,
213,0,0.0,0.59,,-0.01,0.09,1.03,-0,-0,-0,0.09,,,,,,,,,,
215,0,0.0,0.59,,,,,,,,,,,,,,,,,,
217,0,0.0,0.59,,,,,,,,,,,,,,,,,,
219,0,0.0,0.59,,,,,,,,,,,,,,,,,,
221,0,0.0,0.59,,,,,,,,,,,,,,,,,,
223,0,0.0,0.59,,-0.16,0.11,0.94,0,-1,-1,0.19,0,1920,0,0.0,0.0,0.0,0.0,0,0,0.0
225,0,0.0,0.59,,,,,,,,,,,,,,,,,,
227,0,0.0,0.59,,,,,,,,,,,,,,,,,,
229,0,0.0,0.59,,,,,,,,,,,,,,,,,,
231,0,0.0,0.59,,,,,,,,,,,,,,,,,,
233,0,0.0,0.59,,-0.06,0.04,1.02,0,-1,-0,0.07,,,,,,,,,,
235,0,0.0,0.59,,,,,,,,,,,,,,,,,,
237,0,0.0,0.59,,,,,,,,,,,,,,,,,,
239,0,0.0,0.59,,,,,,,,,,,,,,,,,,
241,0,0.0,0.59,,,,,,,,,,,,,,,,,,
243,0,0.0,0.59,,-0.0,0.06,0.97,-0,-0,-0,0.06,0,1920,0,0.0,0.0,0.0,0.0,0,0,0.0
245,0,0.0,0.6,,,,,,,,,,,,,,,,,,
247,0,0.0,0.59,,,,,,,,,,,,,,,,,,
249,0,0.0,0.59,,,,,,,,,,,,,,,,,,
251,0,0.0,0.59,,,,,,,,,,,,,,,,,,
253,0,0.0,0.59,,-0.11,0.12,0.93,0,-1,-1,0.16,,,,,,,,,,
255,0,0.0,0.59,,,,,,,,,,,,,,,,,,
257,0,0.0,0.59,,,,,,,,,,,,,,,,,,
259,0,0.01,0.59,,,,,,,,,,,,,,,,,,
261,0,0.0,0.59,,,,,,,,,,,,,,,,,,
263,0,0.0,0.59,,-0.09,0.06,0.98,0,-1,-0,0.11,0,1980,0,0.0,0.0,0.0,0.0,0,0,0.0
265,0,0.01,0.59,,,,,,,,,,,,,,,,,,
267,0,0.0,0.59,,,,,,,,,,,,,,,,,,
269,0,0.0,0.59,,,,,,,,,,,,,,,,,,
271,0,0.0,0.6,,,,,,,,,,,,,,,,,,
273,0,0.0,0.59,,-0.02,0.08,1.02,-0,-0,-0,0.09,,,,,,,,,,
275,0,0.0,0.6,,,,,,,,,,,,,,,,,,
277,0,0.0,0.59,,,,,,,,,,,,,,,,,,
279,0,0.0,0.59,,,,,,,,,,,,,,,,,,
281,0,0.0,0.59,,,,,,,,,,,,,,,,,,
283,0,0.0,0.6,,-0.14,0.11,0.94,0,-0,-1,0.18,0,1920,0,0.0,0.0,0.0,0.0,0,0,0.0
285,0,0.0,0.59,,,,,,,,,,,,,,,,,,
287,0,0.0,0.59,,,,,,,,,,,,,,,,,,
289,0,0.0,0.59,,,,,,,,,,,,,,,,,,
291,0,0.0,0.6,,,,,,,,,,,,,,,,,,
293,0,0.0,0.59,,-0.07,0.06,1.03,0,-0,-0,0.09,,,,,,,,,,
295,0,0.0,0.59,,,,,,,,,,,,,,,,,,
297,0,0.0,0.59,,,,,,,,,,,,,,,,,,
299,0,0.0,0.59,,,,,,,,,,,,,,,,,,
301,0,0.0,0.59,,,,,,,,,,,,,,,,,,
303,0,0.0,0.6,,0.0,0.06,1.0,-0,-0,-0,0.06,0,1920,0,0.0,0.0,0.0,0.0,0,0,0.0
305,0,0.0,0.61,,,,,,,,,,,,,,,,,,
307,0,0.0,0.6,,,,,,,,,,,,,,,,,,
309,0,0.0,0.6,,,,,,,,,,,,,,,,,,
311,0,0.0,0.6,,,,,,,,,,,,,,,,,,
313,0,0.0,0.6,,-0.11,0.11,0.92,0,-0,-1,0.15,,,,,,,,,,
315,0,0.0,0.59,,,,,,,,,,,,,,,,,,
317,0,0.0,0.6,,,,,,,,,,,,,,,,,,
319,0,0.0,0.59,,,,,,,,,,,,,,,,,,
321,0,0.0,0.6,,,,,,,,,,,,,,,,,,
323,0,0.0,0.6,,-0.11,0.08,0.99,0,-1,-0,0.13,0,1980,0,0.0,0.0,0.0,0.0,0,0,0.0
325,0,0.0,0.6,,,,,,,,,,,,,,,,,,
327,0,0.01,0.6,,,,,,,,,,,,,,,,,,
329,0,0.0,0.59,,,,,,,,,,,,,,,,,,
331,0,0.0,0.6,,,,,,,,,,,,,,,,,,
333,0,0.0,0.6,,-0.02,0.08,1.01,-0,0,-0,0.08,,,,,,,,,,
335,0,0.0,0.61,,,,,,,,,,,,,,,,,,
337,0,0.0,0.6,,,,,,,,,,,,,,,,,,
339,0,0.0,0.6,,,,,,,,,,,,,,,,,,
341,0,0.0,0.6,,,,,,,,,,,,,,,,,,
343,0,0.0,0.6,,-0.12,0.09,0.93,0,-0,-1,0.15,0,1920,0,0.0,0.0,0.0,0.0,0,0,0.0
345,0,0.0,0.6,,,,,,,,,,,,,,,,,,
347,0,0.0,0.6,,,,,,,,,,,,,,,,,,
349,0,0.0,0.6,,,,,,,,,,,,,,,,,,
351,0,0.0,0.6,,,,,,,,,,,,,,,,,,
353,0,0.0,0.6,,-0.08,0.07,1.03,0,-0,-0,0.11,,,,,,,,,,
355,0,0.0,0.6,,,,,,,,,,,,,,,,,,
357,0,0.0,0.6,,,,,,,,,,,,,,,,,,
359,0,0.0,0.6,,,,,,,,,,,,,,,,,,
361,0,0.0,0.6,,,,,,,,,,,,,,,,,,
363,0,0.0,0.6,,-0.0,0.05,0.99,-0,-0,-0,0.05,0,1920,0,0.0,0.0,0.0,0.0,0,0,0.0
365,0,0.0,0.61,,,,,,,,,,,,,,,,,,
367,0,0.0,0.6,,,,,,,,,,,,,,,,,,
369,0,0.0,0.6,,,,,,,,,,,,,,,,,,
371,0,0.0,0.6,,,,,,,,,,,,,,,,,,
373,0,0.0,0.6,,-0.1,0.11,0.92,0,-0,-1,0.15,,,,,,,,,,
375,0,0.0,0.6,,,,,,,,,,,,,,,,,,
377,0,0.0,0.6,,,,,,,,,,,,,,,,,,
379,0,0.0,0.6,,,,,,,,,,,,,,,,,,
381,0,0.0,0.6,,,,,,,,,,,,,,,,,,
383,0,0.0,0.6,,-0.11,0.09,0.98,0,-0,-1,0.14,0,1980,0,0.0,0.0,0.0,0.0,0,0,0.0
385,0,0.0,0.6,,,,,,,,,,,,,,,,,,
387,0,0.0,0.6,,,,,,,,,,,,,,,,,,
389,0,0.0,0.6,,,,,,,,,,,,,,,,,,
391,0,0.0,0.6,,,,,,,,,,,,,,,,,,
393,0,0.0,0.6,,-0.02,0.06,1.01,-0,-0,-0,0.06,,,,,,,,,,
395,0,0.0,0.61,,,,,,,,,,,,,,,,,,
397,0,0.0,0.6,,,,,,,,,,,,,,,,,,
399,0,0.0,0.6,,,,,,,,,,,,,,,,,,
401,0,0.0,0.6,,,,,,,,,,,,,,,,,,
403,0,0.01,0.6,,-0.11,0.08,0.92,0,-1,-1,0.14,0,1920,0,0.0,0.0,0.0,0.0,0,0,0.0
405,0,0.0,0.6,,,,,,,,,,,,,,,,,,
407,0,0.0,0.6,,,,,,,,,,,,,,,,,,
409,0,0.0,0.6,,,,,,,,,,,,,,,,,,
411,0,0.0,0.6,,,,,,,,,,,,,,,,,,
413,0,0.0,0.6,,-0.08,0.08,1.02,0,-0,-1,0.11,,,,,,,,,,
415,0,0.0,0.6,,,,,,,,,,,,,,,,,,
417,0,0.01,0.6,,,,,,,,,,,,,,,,,,
419,0,0.0,0.6,,,,,,,,,,,,,,,,,,
421,0,0.0,0.6,,,,,,,,,,,,,,,,,,
423,0,0.0,0.6,,-0.01,0.05,0.97,-0,-0,-0,0.05,0,1920,0,0.0,0.0,0.0,0.0,0,0,0.0
425,0,0.0,0.61,,,,,,,,,,,,,,,,,,
427,0,0.0,0.61,,,,,,,,,,,,,,,,,,
429,0,0.0,0.6,,,,,,,,,,,,,,,,,,
431,0,0.0,0.6,,,,,,,,,,,,,,,,,,
433,0,0.0,0.6,,-0.11,0.1,0.91,0,-0,-1,0.14,,,,,,,,,,
435,0,0.0,0.61,,,,,,,,,,,,,,,,,,
437,0,0.0,0.6,,,,,,,,,,,,,,,,,,
439,0,0.0,0.61,,,,,,,,,,,,,,,,,,
441,0,0.0,0.61,,,,,,,,,,,,,,,,,,
443,0,0.0,0.61,,-0.13,0.1,1.02,0,-0,-1,0.16,0,1980,0,0.0,0.0,0.0,0.0,0,0,0.0
445,0,0.01,0.61,,,,,,,,,,,,,,,,,,
447,0,0.0,0.61,,,,,,,,,,,,,,,,,,
449,0,0.0,0.61,,,,,,,,,,,,,,,,,,
451,0,0.0,0.61,,,,,,,,,,,,,,,,,,
453,0,0.0,0.61,,-0.02,0.06,1.01,-0,-0,-0,0.06,,,,,,,,,,
455,0,0.0,0.61,,,,,,,,,,,,,,,,,,
457,0,0.0,0.61,,,,,,,,,,,,,,,,,,
459,0,0.0,0.61,,,,,,,,,,,,,,,,,,
461,0,0.0,0.61,,,,,,,,,,,,,,,,,,
463,0,0.0,0.61,,-0.09,0.08,0.92,0,-1,-1,0.12,0,1920,0,0.0,0.0,0.0,0.0,0,0,0.0
465,0,0.0,0.61,,,,,,,,,,,,,,,,,,
467,0,0.0,0.61,,,,,,,,,,,,,,,,,,
469,0,0.0,0.61,,,,,,,,,,,,,,,,,,
471,0,0.0,0.61,,,,,,,,,,,,,,,,,,
473,0,0.0,0.6,,-0.08,0.09,1.02,0,-0,-1,0.12,,,,,,,,,,
475,0,0.0,0.61,,,,,,,,,,,,,,,,,,
477,0,0.0,0.61,,,,,,,,,,,,,,,,,,
479,0,0.0,0.61,,,,,,,,,,,,,,,,,,
481,0,0.0,0.61,,,,,,,,,,,,,,,,,,
483,0,0.0,0.61,,0.0,0.05,0.98,-0,-0,-0,0.05,0,1920,0,0.0,0.0,0.0,0.0,0,0,0.0
485,0,0.0,0.61,,,,,,,,,,,,,,,,,,
487,0,0.0,0.61,,,,,,,,,,,,,,,,,,
489,0,0.0,0.61,,,,,,,,,,,,,,,,,,
491,0,0.0,0.61,,,,,,,,,,,,,,,,,,
493,0,0.01,0.61,,-0.11,0.08,0.91,-0,-0,-1,0.14,,,,,,,,,,
495,0,0.0,0.61,,,,,,,,,,,,,,,,,,
497,0,0.0,0.61,,,,,,,,,,,,,,,,,,
499,0,0.0,0.61,,,,,,,,,,,,,,,,,,
501,0,0.0,0.61,,,,,,,,,,,,,,,,,,
503,0,0.0,0.61,,-0.13,0.11,1.02,0,-0,-1,0.17,0,1980,0,0.0,0.0,0.0,0.0,0,0,0.0
505,0,0.0,0.61,,,,,,,,,,,,,,,,,,
507,0,0.0,0.61,,,,,,,,,,,,,,,,,,
509,0,0.0,0.61,,,,,,,,,,,,,,,,,,
511,0,0.0,0.61,,,,,,,,,,,,,,,,,,
513,0,0.0,0.61,,-0.02,0.05,1.0,-0,-0,-0,0.05,,,,,,,,,,
515,0,0.0,0.61,,,,,,,,,,,,,,,,,,
517,0,0.0,0.62,,,,,,,,,,,,,,,,,,
519,0,0.0,0.61,,,,,,,,,,,,,,,,,,
521,0,0.0,0.61,,,,,,,,,,,,,,,,,,
523,0,0.0,0.61,,-0.08,0.07,0.93,-0,-0,-1,0.11,0,1980,0,0.0,0.0,0.0,0.0,0,0,0.0
525,0,0.0,0.61,,,,,,,,,,,,,,,,,,
527,0,0.0,0.61,,,,,,,,,,,,,,,,,,
529,0,0.0,0.61,,,,,,,,,,,,,,,,,,
531,0,0.0,0.61,,,,,,,,,,,,,,,,,,
533,0,0.0,0.61,,-0.09,0.09,1.03,0,-0,-1,0.13,,,,,,,,,,
535,0,0.0,0.61,,,,,,,,,,,,,,,,,,
537,0,0.0,0.61,,,,,,,,,,,,,,,,,,
539,0,0.0,0.61,,,,,,,,,,,,,,,,,,
541,0,0.01,0.61,,,,,,,,,,,,,,,,,,
543,0,0.0,0.61,,-0.01,0.05,1.0,-0,-0,-0,0.05,0,1980,0,0.0,0.0,0.0,0.0,0,0,0.0
545,0,0.0,0.61,,,,,,,,,,,,,,,,,,
547,0,0.0,0.62,,,,,,,,,,,,,,,,,,
549,0,0.0,0.61,,,,,,,,,,,,,,,,,,
551,0,0.0,0.62,,,,,,,,,,,,,,,,,,
553,0,0.0,0.61,,-0.11,0.08,0.91,0,-0,-1,0.14,,,,,,,,,,
555,0,0.01,0.61,,,,,,,,,,,,,,,,,,
557,0,0.0,0.61,,,,,,,,,,,,,,,,,,
559,0,0.0,0.61,,,,,,,,,,,,,,,,,,
561,0,0.0,0.61,,,,,,,,,,,,,,,,,,
563,0,0.0,0.62,,-0.15,0.11,1.03,0,-0,-1,0.18,0,1980,0,0.0,0.0,0.0,0.0,0,0,0.0
565,0,0.0,0.62,,,,,,,,,,,,,,,,,,
567,0,0.0,0.61,,,,,,,,,,,,,,,,,,
569,0,0.0,0.62,,,,,,,,,,,,,,,,,,
571,0,0.0,0.61,,,,,,,,,,,,,,,,,,
573,0,0.0,0.62,,-0.03,0.04,1.0,-0,-0,-0,0.05,,,,,,,,,,
575,0,0.0,0.62,,,,,,,,,,,,,,,,,,
577,0,0.0,0.63,,,,,,,,,,,,,,,,,,
579,0,0.0,0.62,,,,,,,,,,,,,,,,,,
581,0,0.0,0.62,,,,,,,,,,,,,,,,,,
583,0,0.0,0.62,,-0.07,0.07,0.93,0,-0,-1,0.1,0,1920,0,0.0,0.0,0.0,0.0,0,0,0.0
585,0,0.0,0.62,,,,,,,,,,,,,,,,,,
587,0,0.0,0.62,,,,,,,,,,,,,,,,,,
589,0,0.0,0.62,,,,,,,,,,,,,,,,,,
591,0,0.0,0.62,,,,,,,,,,,,,,,,,,
593,0,0.0,0.62,,-0.11,0.1,1.02,0,0,-1,0.15,,,,,,,,,,
595,0,0.0,0.62,,,,,,,,,,,,,,,,,,
597,0,0.0,0.62,,,,,,,,,,,,,,,,,,
599,0,0.0,0.62,,,,,,,,,,,,,,,,,,
601,0,0.0,0.62,,,,,,,,,,,,,,,,,,
603,0,0.0,0.62,,-0.01,0.06,1.0,-0,-0,-0,0.06,0,1920,0,0.0,0.0,0.0,0.0,0,0,0.0
605,0,0.0,0.62,,,,,,,,,,,,,,,,,,
607,0,0.0,0.63,,,,,,,,,,,,,,,,,,
609,0,0.0,0.62,,,,,,,,,,,,,,,,,,
611,0,0.0,0.62,,,,,,,,,,,,,,,,,,
613,0,0.0,0.62,,-0.11,0.08,0.93,0,0,-1,0.13,,,,,,,,,,
615,0,0.0,0.62,,,,,,,,,,,,,,,,,,
617,0,0.01,0.62,,,,,,,,,,,,,,,,,,
619,0,0.0,0.62,,,,,,,,,,,,,,,,,,
621,0,0.0,0.62,,,,,,,,,,,,,,,,,,
623,0,0.0,0.62,,-0.15,0.11,1.04,0,-0,-1,0.19,0,1980,0,0.0,0.0,0.0,0.0,0,0,0.0
625,0,0.0,0.62,,,,,,,,,,,,,,,,,,
627,0,0.0,0.62,,,,,,,,,,,,,,,,,,
629,0,0.0,0.62,,,,,,,,,,,,,,,,,,
631,0,0.0,0.62,,,,,,,,,,,,,,,,,,
633,0,0.0,0.62,,-0.04,0.04,1.0,-0,-0,-0,0.05,,,,,,,,,,
635,0,0.0,0.62,,,,,,,,,,,,,,,,,,
637,0,0.0,0.63,,,,,,,,,,,,,,,,,,
639,0,0.0,0.62,,,,,,,,,,,,,,,,,,
641,0,0.0,0.62,,,,,,,,,,,,,,,,,,
643,0,0.0,0.62,,-0.05,0.07,0.92,0,-0,-1,0.08,0,1920,0,0.0,0.0,0.0,0.0,0,0,0.0
645,0,0.0,0.62,,,,,,,,,,,,,,,,,,
647,0,0.0,0.62,,,,,,,,,,,,,,,,,,
649,0,0.0,0.62,,,,,,,,,,,,,,,,,,
651,0,0.0,0.62,,,,,,,,,,,,,,,,,,
653,0,0.0,0.62,,-0.11,0.1,1.04,0,-0,-1,0.15,,,,,,,,,,
655,0,0.0,0.62,,,,,,,,,,,,,,,,,,
657,0,0.0,0.63,,,,,,,,,,,,,,,,,,
659,0,0.0,0.62,,,,,,,,,,,,,,,,,,
661,0,0.0,0.62,,,,,,,,,,,,,,,,,,
663,0,0.0,0.62,,-0.01,0.05,1.01,-0,-0,-0,0.05,0,1920,0,0.0,0.0,0.0,0.0,0,0,0.0
665,0,0.0,0.62,,,,,,,,,,,,,,,,,,
667,0,0.0,0.63,,,,,,,,,,,,,,,,,,
669,0,0.0,0.63,,,,,,,,,,,,,,,,,,
671,0,0.0,0.62,,,,,,,,,,,,,,,,,,
673,0,0.0,0.62,,-0.11,0.07,0.95,0,0,-1,0.13,,,,,,,,,,
675,0,0.0,0.62,,,,,,,,,,,,,,,,,,
677,0,0.0,0.62,,,,,,,,,,,,,,,,,,
679,0,0.0,0.63,,,,,,,,,,,,,,,,,,
681,0,0.0,0.63,,,,,,,,,,,,,,,,,,
683,0,0.0,0.63,,-0.16,0.13,1.04,0,-0,-1,0.2,0,1980,0,0.0,0.0,0.0,0.0,0,0,0.0
685,0,0.0,0.62,,,,,,,,,,,,,,,,,,
687,0,0.0,0.63,,,,,,,,,,,,,,,,,,
689,0,0.0,0.63,,,,,,,,,,,,,,,,,,
691,0,0.0,0.63,,,,,,,,,,,,,,,,,,
693,0,0.01,0.63,,-0.03,0.04,0.99,-0,-0,-0,0.06,,,,,,,,,,
695,0,0.0,0.63,,,,,,,,,,,,,,,,,,
697,0,0.0,0.64,,,,,,,,,,,,,,,,,,
699,0,0.0,0.63,,,,,,,,,,,,,,,,,,
701,0,0.0,0.63,,,,,,,,,,,,,,,,,,
703,0,0.0,0.63,,-0.06,0.07,0.93,-0,-0,-1,0.09,0,1920,0,0.0,0.0,0.0,0.0,0,0,0.0
705,0,0.0,0.63,,,,,,,,,,,,,,,,,,
707,0,0.0,0.63,,,,,,,,,,,,,,,,,,
709,0,0.0,0.63,,,,,,,,,,,,,,,,,,
711,0,0.0,0.63,,,,,,,,,,,,,,,,,,
713,0,0.0,0.63,,-0.13,0.11,1.03,0,-0,-1,0.17,,,,,,,,,,
715,0,0.0,0.63,,,,,,,,,,,,,,,,,,
717,0,0.0,0.63,,,,,,,,,,,,,,,,,,
719,0,0.0,0.63,,,,,,,,,,,,,,,,,,
721,0,0.0,0.63,,,,,,,,,,,,,,,,,,
723,0,0.0,0.63,,-0.0,0.05,1.02,-0,-0,-0,0.05,0,1920,0,0.0,0.0,0.0,0.0,0,0,0.0
725,0,0.0,0.63,,,,,,,,,,,,,,,,,,
727,0,0.0,0.64,,,,,,,,,,,,,,,,,,
729,0,0.01,0.63,,,,,,,,,,,,,,,,,,
731,0,0.0,0.63,,,,,,,,,,,,,,,,,,
733,0,0.0,0.63,,-0.1,0.07,0.95,0,0,-1,0.12,,,,,,,,,,
735,0,0.0,0.63,,,,,,,,,,,,,,,,,,
737,0,0.0,0.63,,,,,,,,,,,,,,,,,,
739,0,0.0,0.63,,,,,,,,,,,,,,,,,,
741,0,0.01,0.63,,,,,,,,,,,,,,,,,,
743,0,0.0,0.63,,-0.17,0.12,1.06,0,-0,-1,0.21,0,1980,0,0.0,0.0,0.0,0.0,0,0,0.0
745,0,0.0,0.63,,,,,,,,,,,,,,,,,,
747,0,0.0,0.63,,,,,,,,,,,,,,,,,,
749,0,0.0,0.63,,,,,,,,,,,,,,,,,,
751,0,0.0,0.64,,,,,,,,,,,,,,,,,,
753,0,0.0,0.63,,-0.03,0.04,0.97,-0,-1,-0,0.05,,,,,,,,,,
755,0,0.0,0.63,,,,,,,,,,,,,,,,,,
757,0,0.0,0.63,,,,,,,,,,,,,,,,,,
759,0,0.0,0.65,,,,,,,,,,,,,,,,,,
761,0,0.0,0.63,,,,,,,,,,,,,,,,,,
763,0,0.0,0.63,,-0.04,0.07,0.96,0,-0,-0,0.08,0,1920,0,0.0,0.0,0.0,0.0,0,0,0.0
765,0,0.0,0.63,,,,,,,,,,,,,,,,,,
767,0,0.0,0.63,,,,,,,,,,,,,,,,,,
769,0,0.0,0.63,,,,,,,,,,,,,,,,,,
771,0,0.0,0.63,,,,,,,,,,,,,,,,,,
773,0,0.0,0.63,,-0.15,0.12,1.04,0,0,-1,0.19,,,,,,,,,,
775,0,0.0,0.63,,,,,,,,,,,,,,,,,,
777,0,0.0,0.63,,,,,,,,,,,,,,,,,,
779,0,0.0,0.63,,,,,,,,,,,,,,,,,,
781,0,0.0,0.63,,,,,,,,,,,,,,,,,,
783,0,0.01,0.64,,-0.01,0.05,1.02,0,-1,-0,0.05,0,1920,0,0.0,0.0,0.0,0.0,0,0,0.0
785,0,0.0,0.64,,,,,,,,,,,,,,,,,,
787,0,0.0,0.63,,,,,,,,,,,,,,,,,,
789,0,0.0,0.65,,,,,,,,,,,,,,,,,,
791,0,0.0,0.64,,,,,,,,,,,,,,,,,,
793,0,0.0,0.64,,-0.11,0.05,0.96,0,0,-1,0.12,,,,,,,,,,
795,0,0.0,0.64,,,,,,,,,,,,,,,,,,
797,0,0.01,0.64,,,,,,,,,,,,,,,,,,
799,0,0.0,0.64,,,,,,,,,,,,,,,,,,
801,0,0.0,0.64,,,,,,,,,,,,,,,,,,
803,0,0.01,0.64,,-0.19,0.11,1.06,0,-0,-1,0.22,0,1980,0,0.0,0.0,0.0,0.0,0,0,0.0
805,0,0.0,0.64,,,,,,,,,,,,,,,,,,
807,0,0.0,0.64,,,,,,,,,,,,,,,,,,
809,0,0.0,0.64,,,,,,,,,,,,,,,,,,
811,0,0.0,0.64,,,,,,,,,,,,,,,,,,
813,0,0.0,0.64,,-0.04,0.03,0.94,0,-1,-0,0.06,,,,,,,,,,
815,0,0.0,0.64,,,,,,,,,,,,,,,,,,
817,0,0.0,0.64,,,,,,,,,,,,,,,,,,
819,0,0.0,0.65,,,,,,,,,,,,,,,,,,
821,0,0.0,0.64,,,,,,,,,,,,,,,,,,
823,0,0.0,0.64,,-0.03,0.07,0.97,0,-0,-0,0.08,0,1920,0,0.0,0.0,0.0,0.0,0,0,0.0
825,0,0.0,0.64,,,,,,,,,,,,,,,,,,
827,0,0.0,0.64,,,,,,,,,,,,,,,,,,
829,0,0.0,0.64,,,,,,,,,,,,,,,,,,
831,0,0.01,0.64,,,,,,,,,,,,,,,,,,
833,0,0.0,0.64,,-0.17,0.13,1.06,0,-0,-1,0.21,,,,,,,,,,
835,0,0.0,0.64,,,,,,,,,,,,,,,,,,
837,0,0.0,0.64,,,,,,,,,,,,,,,,,,
839,0,0.0,0.64,,,,,,,,,,,,,,,,,,
841,0,0.0,0.64,,,,,,,,,,,,,,,,,,
843,0,0.0,0.64,,-0.02,0.05,1.03,0,-1,-0,0.05,0,1920,0,0.0,0.0,0.0,0.0,0,0,0.0
845,0,0.01,0.64,,,,,,,,,,,,,,,,,,
847,0,0.0,0.64,,,,,,,,,,,,,,,,,,
849,0,0.0,0.66,,,,,,,,,,,,,,,,,,
851,0,0.0,0.64,,,,,,,,,,,,,,,,,,
853,0,0.0,0.64,,-0.1,0.06,0.99,0,1,-1,0.12,,,,,,,,,,
855,0,0.0,0.64,,,,,,,,,,,,,,,,,,
857,0,0.0,0.64,,,,,,,,,,,,,,,,,,
859,0,0.0,0.64,,,,,,,,,,,,,,,,,,
861,0,0.0,0.64,,,,,,,,,,,,,,,,,,
863,0,0.0,0.64,,-0.18,0.12,1.06,0,-0,-1,0.22,0,1980,0,0.0,0.0,0.0,0.0,0,0,0.0
865,0,0.0,0.64,,,,,,,,,,,,,,,,,,
867,0,0.0,0.64,,,,,,,,,,,,,,,,,,
869,0,0.0,0.65,,,,,,,,,,,,,,,,,,
871,0,0.0,0.64,,,,,,,,,,,,,,,,,,
873,0,0.0,0.65,,-0.04,0.03,0.94,0,-1,-0,0.06,,,,,,,,,,
875,0,0.0,0.64,,,,,,,,,,,,,,,,,,
877,0,0.0,0.64,,,,,,,,,,,,,,,,,,
879,0,0.0,0.64,,,,,,,,,,,,,,,,,,
881,0,0.0,0.64,,,,,,,,,,,,,,,,,,
883,0,0.0,0.65,,-0.03,0.08,0.98,0,0,-0,0.08,0,1920,0,0.0,0.0,0.0,0.0,0,0,0.0
885,0,0.0,0.65,,,,,,,,,,,,,,,,,,
887,0,0.0,0.65,,,,,,,,,,,,,,,,,,
889,0,0.0,0.65,,,,,,,,,,,,,,,,,,
891,0,0.0,0.65,,,,,,,,,,,,,,,,,,
893,0,0.0,0.65,,-0.19,0.13,1.05,0,-0,-1,0.24,,,,,,,,,,
895,0,0.0,0.64,,,,,,,,,,,,,,,,,,
897,0,0.0,0.65,,,,,,,,,,,,,,,,,,
899,0,0.0,0.65,,,,,,,,,,,,,,,,,,
901,0,0.0,0.65,,,,,,,,,,,,,,,,,,
903,0,0.0,0.65,,-0.02,0.04,1.03,0,-1,-0,0.05,0,1920,0,0.0,0.0,0.0,0.0,0,0,0.0
905,0,0.0,0.65,,,,,,,,,,,,,,,,,,
907,0,0.01,0.65,,,,,,,,,,,,,,,,,,
909,0,0.0,0.65,,,,,,,,,,,,,,,,,,
911,0,0.0,0.65,,,,,,,,,,,,,,,,,,
913,0,0.0,0.65,,-0.08,0.07,0.99,-0,1,-1,0.1,,,,,,,,,,
915,0,0.0,0.65,,,,,,,,,,,,,,,,,,
917,0,0.0,0.65,,,,,,,,,,,,,,,,,,
919,0,0.0,0.65,,,,,,,,,,,,,,,,,,
921,0,0.0,0.65,,,,,,,,,,,,,,,,,,
923,0,0.0,0.65,,-0.17,0.12,1.05,0,-0,-1,0.21,0,1980,0,0.0,0.0,0.0,0.0,0,0,0.0
925,0,0.0,0.65,,,,,,,,,,,,,,,,,,
927,0,0.01,0.65,,,,,,,,,,,,,,,,,,
929,0,0.0,0.65,,,,,,,,,,,,,,,,,,
931,0,0.0,0.65,,,,,,,,,,,,,,,,,,
933,0,0.0,0.65,,-0.05,0.03,0.95,0,-1,-0,0.06,,,,,,,,,,
935,0,0.0,0.65,,,,,,,,,,,,,,,,,,
937,0,0.0,0.65,,,,,,,,,,,,,,,,,,
939,0,0.0,0.65,,,,,,,,,,,,,,,,,,
941,0,0.0,0.66,,,,,,,,,,,,,,,,,,
943,0,0.0,0.65,,-0.03,0.07,0.97,0,0,-1,0.08,0,1920,0,0.0,0.0,0.0,0.0,0,0,0.0
945,0,0.0,0.65,,,,,,,,,,,,,,,,,,
947,0,0.0,0.65,,,,,,,,,,,,,,,,,,
949,0,0.0,0.65,,,,,,,,,,,,,,,,,,
951,0,0.0,0.65,,,,,,,,,,,,,,,,,,
953,0,0.0,0.65,,-0.21,0.14,1.05,0,-0,-1,0.25,,,,,,,,,,
955,0,0.0,0.65,,,,,,,,,,,,,,,,,,
957,0,0.0,0.65,,,,,,,,,,,,,,,,,,
959,0,0.0,0.65,,,,,,,,,,,,,,,,,,
961,0,0.0,0.65,,,,,,,,,,,,,,,,,,
963,0,0.0,0.65,,-0.03,0.04,1.05,0,-1,-0,0.05,0,1920,0,0.0,0.0,0.0,0.0,0,0,0.0
965,0,0.0,0.65,,,,,,,,,,,,,,,,,,
967,0,0.0,0.65,,,,,,,,,,,,,,,,,,
969,0,0.0,0.65,,,,,,,,,,,,,,,,,,
971,0,0.0,0.67,,,,,,,,,,,,,,,,,,
973,0,0.0,0.66,,-0.1,0.08,0.99,0,1,-1,0.13,,,,,,,,,,
975,0,0.0,0.65,,,,,,,,,,,,,,,,,,
977,0,0.0,0.65,,,,,,,,,,,,,,,,,,
979,0,0.0,0.66,,,,,,,,,,,,,,,,,,
981,0,0.0,0.65,,,,,,,,,,,,,,,,,,
983,0,0.01,0.65,,-0.18,0.12,1.03,0,-0,-1,0.22,0,1980,0,0.0,0.0,0.0,0.0,0,0,0.0
985,0,0.0,0.66,,,,,,,,,,,,,,,,,,
987,0,0.0,0.66,,,,,,,,,,,,,,,,,,
989,0,0.0,0.66,,,,,,,,,,,,,,,,,,
991,0,0.0,0.66,,,,,,,,,,,,,,,,,,
993,0,0.0,0.66,,-0.07,0.02,0.95,0,-1,-0,0.07,,,,,,,,,,
995,0,0.0,0.66,,,,,,,,,,,,,,,,,,
997,0,0.0,0.66,,,,,,,,,,,,,,,,,,
999,0,0.0,0.66,,,,,,,,,,,,,,,,,,
1001,0,0.0,0.67,,,,,,,,,,,,,,,,,,
1003,0,0.0,0.66,,-0.06,0.07,1.03,0,0,-0,0.09,0,1920,0,0.0,0.0,0.0,0.0,0,0,0.0
1005,0,0.0,0.66,,,,,,,,,,,,,,,,,,
1007,0,0.0,0.66,,,,,,,,,,,,,,,,,,
1009,0,0.0,0.66,,,,,,,,,,,,,,,,,,
1011,0,0.0,0.66,,,,,,,,,,,,,,,,,,
1013,0,0.0,0.66,,-0.18,0.12,1.08,0,-0,-1,0.22,,,,,,,,,,
1015,0,0.0,0.66,,,,,,,,,,,,,,,,,,
1017,0,0.01,0.66,,,,,,,,,,,,,,,,,,
1019,0,0.0,0.66,,,,,,,,,,,,,,,,,,
1021,0,0.0,0.66,,,,,,,,,,,,,,,,,,
1023,0,0.0,0.66,,-0.01,0.04,1.05,0,-1,-0,0.04,0,1920,0,0.0,0.0,0.0,0.0,0,0,0.0
1025,0,0.0,0.66,,,,,,,,,,,,,,,,,,
1027,0,0.0,0.66,,,,,,,,,,,,,,,,,,
1029,0,0.0,0.66,,,,,,,,,,,,,,,,,,
1031,0,0.0,0.67,,,,,,,,,,,,,,,,,,
1033,0,0.0,0.66,,-0.09,0.05,1.0,-0,0,-0,0.1,,,,,,,,,,
1035,0,0.0,0.66,,,,,,,,,,,,,,,,,,
1037,0,0.0,0.66,,,,,,,,,,,,,,,,,,
1039,0,0.0,0.66,,,,,,,,,,,,,,,,,,
1041,0,0.0,0.66,,,,,,,,,,,,,,,,,,
1043,0,0.0,0.66,13.45,-0.17,0.12,1.06,0,-0,-1,0.21,0,1980,0,0.0,0.0,0.0,0.0,0,0,0.0
1045,0,0.01,0.66,,,,,,,,,,,,,,,,,,
1047,0,0.0,0.66,,,,,,,,,,,,,,,,,,
1049,0,0.0,0.66,,,,,,,,,,,,,,,,,,
1051,0,0.0,0.66,,,,,,,,,,,,,,,,,,
1053,0,0.0,0.66,,-0.04,0.02,0.95,0,-1,-0,0.05,,,,,,,,,,
1055,0,0.0,0.66,,,,,,,,,,,,,,,,,,
1057,0,0.0,0.66,,,,,,,,,,,,,,,,,,
1059,0,0.0,0.66,,,,,,,,,,,,,,,,,,
1061,0,0.0,0.67,,,,,,,,,,,,,,,,,,
1063,0,0.0,0.66,,-0.03,0.07,1.0,0,0,-0,0.08,0,1920,0,0.0,0.0,0.0,0.0,0,0,0.0
1065,0,0.0,0.67,,,,,,,,,,,,,,,,,,
1067,0,0.0,0.67,,,,,,,,,,,,,,,,,,
1069,0,0.0,0.67,,,,,,,,,,,,,,,,,,
1071,0,0.0,0.67,,,,,,,,,,,,,,,,,,
1073,0,0.0,0.67,,-0.19,0.13,1.05,0,-0,-1,0.23,,,,,,,,,,
1075,0,0.0,0.66,,,,,,,,,,,,,,,,,,
1077,0,0.0,0.66,,,,,,,,,,,,,,,,,,
1079,0,0.01,0.67,,,,,,,,,,,,,,,,,,
1081,0,0.0,0.67,,,,,,,,,,,,,,,,,,
1083,0,0.0,0.67,,-0.01,0.04,1.02,0,-1,-0,0.04,0,1920,0,0.0,0.0,0.0,0.0,0,0,0.0
1085,0,0.0,0.67,,,,,,,,,,,,,,,,,,
1087,0,0.0,0.67,,,,,,,,,,,,,,,,,,
1089,0,0.0,0.67,,,,,,,,,,,,,,,,,,
1091,0,0.0,0.68,,,,,,,,,,,,,,,,,,
1093,0,0.01,0.67,,-0.08,0.06,0.98,-0,1,-0,0.1,,,,,,,,,,
1095,0,0.0,0.67,,,,,,,,,,,,,,,,,,
1097,0,0.0,0.67,,,,,,,,,,,,,,,,,,
1099,0,0.0,0.67,,,,,,,,,,,,,,,,,,
1101,0,0.0,0.67,,,,,,,,,,,,,,,,,,
1103,0,0.0,0.67,,-0.16,0.12,1.05,0,-0,-1,0.2,0,1980,0,0.0,0.0,0.0,0.0,0,0,0.0
1105,0,0.0,0.67,,,,,,,,,,,,,,,,,,
1107,0,0.0,0.67,,,,,,,,,,,,,,,,,,
1109,0,0.0,0.67,,,,,,,,,,,,,,,,,,
1111,0,0.0,0.67,,,,,,,,,,,,,,,,,,
1113,0,0.0,0.67,,-0.03,0.02,0.94,0,-1,-0,0.04,,,,,,,,,,
1115,0,0.0,0.67,,,,,,,,,,,,,,,,,,
1117,0,0.0,0.67,,,,,,,,,,,,,,,,,,
1119,0,0.0,0.67,,,,,,,,,,,,,,,,,,
1121,0,0.0,0.68,,,,,,,,,,,,,,,,,,
1123,0,0.0,0.67,,-0.02,0.07,0.99,-0,0,-0,0.08,0,1980,0,0.0,0.0,0.0,0.0,0,0,0.0
1125,0,0.0,0.67,,,,,,,,,,,,,,,,,,
1127,0,0.0,0.67,,,,,,,,,,,,,,,,,,
1129,0,0.0,0.67,,,,,,,,,,,,,,,,,,
1131,0,0.0,0.67,,,,,,,,,,,,,,,,,,
1133,0,0.0,0.67,,-0.18,0.13,1.03,0,-0,-1,0.22,,,,,,,,,,
1135,0,0.0,0.67,,,,,,,,,,,,,,,,,,
1137,0,0.0,0.67,,,,,,,,,,,,,,,,,,
1139,0,0.0,0.67,,,,,,,,,,,,,,,,,,
1141,0,0.01,0.67,,,,,,,,,,,,,,,,,,
1143,0,0.0,0.67,,-0.01,0.05,1.02,0,-1,-0,0.05,0,1980,0,0.0,0.0,0.0,0.0,0,0,0.0
1145,0,0.0,0.67,,,,,,,,,,,,,,,,,,
1147,0,0.0,0.67,,,,,,,,,,,,,,,,,,
1149,0,0.0,0.67,,,,,,,,,,,,,,,,,,
1151,0,0.0,0.68,,,,,,,,,,,,,,,,,,
1153,0,0.0,0.67,,-0.07,0.06,0.98,-0,0,-0,0.09,,,,,,,,,,
1155,0,0.01,0.67,,,,,,,,,,,,,,,,,,
1157,0,0.0,0.67,,,,,,,,,,,,,,,,,,
1159,0,0.0,0.67,,,,,,,,,,,,,,,,,,
1161,0,0.0,0.67,,,,,,,,,,,,,,,,,,
1163,0,0.0,0.67,,-0.14,0.11,1.03,0,-0,-1,0.18,0,1980,0,0.0,0.0,0.0,0.0,0,0,0.0
1165,0,0.0,0.67,,,,,,,,,,,,,,,,,,
1167,0,0.0,0.67,,,,,,,,,,,,,,,,,,
1169,0,0.0,0.67,,,,,,,,,,,,,,,,,,
1171,0,0.0,0.67,,,,,,,,,,,,,,,,,,
1173,0,0.0,0.68,,-0.04,0.04,0.93,0,-1,-0,0.06,,,,,,,,,,
1175,0,0.0,0.67,,,,,,,,,,,,,,,,,,
1177,0,0.0,0.67,,,,,,,,,,,,,,,,,,
1179,0,0.0,0.67,,,,,,,,,,,,,,,,,,
1181,0,0.0,0.69,,,,,,,,,,,,,,,,,,
1183,0,0.0,0.68,,-0.03,0.07,0.99,-0,0,-0,0.08,0,1920,0,0.0,0.0,0.0,0.0,0,0,0.0
1185,0,0.0,0.68,,,,,,,,,,,,,,,,,,
1187,0,0.0,0.68,,,,,,,,,,,,,,,,,,
1189,0,0.0,0.67,,,,,,,,,,,,,,,,,,
1191,0,0.0,0.68,,,,,,,,,,,,,,,,,,
1193,0,0.0,0.68,,-0.18,0.12,1.03,0,-0,-1,0.22,,,,,,,,,,
1195,0,0.0,0.67,,,,,,,,,,,,,,,,,,
1197,0,0.0,0.68,,,,,,,,,,,,,,,,,,
1199,0,0.0,0.68,,,,,,,,,,,,,,,,,,
1201,0,0.0,0.68,,,,,,,,,,,,,,,,,,
1203,0,0.01,0.68,,-0.03,0.05,1.02,0,-1,-0,0.06,0,1920,0,0.0,0.0,0.0,0.0,0,0,0.0
1205,0,0.0,0.68,,,,,,,,,,,,,,,,,,
1207,0,0.0,0.68,,,,,,,,,,,,,,,,,,
1209,0,0.0,0.68,,,,,,,,,,,,,,,,,,
1211,0,0.0,0.69,,,,,,,,,,,,,,,,,,
1213,0,0.0,0.68,,-0.07,0.06,0.99,-0,0,-0,0.09,,,,,,,,,,
1215,0,0.0,0.68,,,,,,,,,,,,,,,,,,
1217,0,0.01,0.68,,,,,,,,,,,,,,,,,,
1219,0,0.0,0.68,,,,,,,,,,,,,,,,,,
1221,0,0.0,0.68,,,,,,,,,,,,,,,,,,
1223,0,0.0,0.68,,-0.15,0.12,1.02,0,-0,-1,0.19,0,1980,0,0.0,0.0,0.0,0.0,0,0,0.0
1225,0,0.0,0.68,,,,,,,,,,,,,,,,,,
1227,0,0.0,0.68,,,,,,,,,,,,,,,,,,
1229,0,0.0,0.68,,,,,,,,,,,,,,,,,,
1231,0,0.0,0.68,,,,,,,,,,,,,,,,,,
1233,0,0.0,0.68,,-0.05,0.04,0.94,0,-1,-0,0.06,,,,,,,,,,
1235,0,0.0,0.68,,,,,,,,,,,,,,,,,,
1237,0,0.0,0.68,,,,,,,,,,,,,,,,,,
1239,0,0.0,0.68,,,,,,,,,,,,,,,,,,
1241,0,0.0,0.68,,,,,,,,,,,,,,,,,,
1243,0,0.0,0.69,,-0.02,0.08,1.01,-0,0,-1,0.08,0,1920,0,0.0,0.0,0.0,0.0,0,0,0.0
1245,0,0.0,0.68,,,,,,,,,,,,,,,,,,
1247,0,0.0,0.68,,,,,,,,,,,,,,,,,,
1249,0,0.0,0.69,,,,,,,,,,,,,,,,,,
1251,0,0.0,0.68,,,,,,,,,,,,,,,,,,
1253,0,0.0,0.68,,-0.21,0.12,1.0,0,-0,-1,0.24,,,,,,,,,,
1255,0,0.0,0.68,,,,,,,,,,,,,,,,,,
1257,0,0.0,0.68,,,,,,,,,,,,,,,,,,
1259,0,0.01,0.68,,,,,,,,,,,,,,,,,,
1261,0,0.0,0.68,,,,,,,,,,,,,,,,,,
1263,0,0.0,0.69,,-0.04,0.05,1.04,0,-1,-0,0.06,0,1920,0,0.0,0.0,0.0,0.0,0,0,0.0
1265,0,0.0,0.69,,,,,,,,,,,,,,,,,,
1267,0,0.0,0.68,,,,,,,,,,,,,,,,,,
1269,0,0.0,0.69,,,,,,,,,,,,,,,,,,
1271,0,0.0,0.68,,,,,,,,,,,,,,,,,,
1273,0,0.0,0.7,,-0.06,0.06,0.99,-0,0,-0,0.09,,,,,,,,,,
1275,0,0.0,0.69,,,,,,,,,,,,,,,,,,
1277,0,0.0,0.69,,,,,,,,,,,,,,,,,,
1279,0,0.0,0.69,,,,,,,,,,,,,,,,,,
1281,0,0.0,0.69,,,,,,,,,,,,,,,,,,
1283,0,0.0,0.69,,-0.14,0.11,1.0,0,-1,-1,0.18,0,1980,0,0.0,0.0,0.0,0.0,0,0,0.0
1285,0,0.0,0.69,,,,,,,,,,,,,,,,,,
1287,0,0.0,0.69,,,,,,,,,,,,,,,,,,
1289,0,0.0,0.68,,,,,,,,,,,,,,,,,,
1291,0,0.0,0.69,,,,,,,,,,,,,,,,,,
1293,0,0.0,0.69,,-0.05,0.05,0.94,0,-1,-0,0.07,,,,,,,,,,
1295,0,0.0,0.69,,,,,,,,,,,,,,,,,,
1297,0,0.0,0.69,,,,,,,,,,,,,,,,,,
1299,0,0.0,0.69,,,,,,,,,,,,,,,,,,
1301,0,0.0,0.69,,,,,,,,,,,,,,,,,,
1303,0,0.0,0.7,,-0.03,0.09,1.03,-0,0,-0,0.09,0,1920,0,0.0,0.0,0.0,0.0,0,0,0.0
1305,0,0.0,0.69,,,,,,,,,,,,,,,,,,
1307,0,0.0,0.69,,,,,,,,,,,,,,,,,,
1309,0,0.0,0.69,,,,,,,,,,,,,,,,,,
1311,0,0.0,0.69,,,,,,,,,,,,,,,,,,
1313,0,0.0,0.69,,-0.2,0.12,0.98,-0,-0,-1,0.24,,,,,,,,,,
1315,0,0.0,0.69,,,,,,,,,,,,,,,,,,
1317,0,0.0,0.69,,,,,,,,,,,,,,,,,,
1319,0,0.0,0.69,,,,,,,,,,,,,,,,,,
1321,0,0.0,0.69,,,,,,,,,,,,,,,,,,
1323,0,0.0,0.69,,-0.05,0.06,1.04,0,-0,-0,0.08,0,1920,0,0.0,0.0,0.0,0.0,0,0,0.0
1325,0,0.0,0.69,,,,,,,,,,,,,,,,,,
1327,0,0.0,0.69,,,,,,,,,,,,,,,,,,
1329,0,0.0,0.69,,,,,,,,,,,,,,,,,,
1331,0,0.0,0.69,,,,,,,,,,,,,,,,,,
1333,0,0.0,0.7,,-0.04,0.07,0.98,-0,0,-0,0.08,,,,,,,,,,
1335,0,0.0,0.7,,,,,,,,,,,,,,,,,,
1337,0,0.0,0.69,,,,,,,,,,,,,,,,,,
1339,0,0.0,0.69,,,,,,,,,,,,,,,,,,
1341,0,0.0,0.69,,,,,,,,,,,,,,,,,,
1343,0,0.0,0.69,,-0.15,0.12,0.97,-0,-0,-1,0.19,0,1980,0,0.0,0.0,0.0,0.0,0,0,0.0
1345,0,0.0,0.69,,,,,,,,,,,,,,,,,,
1347,0,0.0,0.69,,,,,,,,,,,,,,,,,,
1349,0,0.0,0.69,,,,,,,,,,,,,,,,,,
1351,0,0.0,0.69,,,,,,,,,,,,,,,,,,
1353,0,0.0,0.69,,-0.09,0.05,0.93,0,-0,-0,0.1,,,,,,,,,,
1355,0,0.0,0.69,,,,,,,,,,,,,,,,,,
1357,0,0.0,0.69,,,,,,,,,,,,,,,,,,
1359,0,0.0,0.69,,,,,,,,,,,,,,,,,,
1361,0,0.0,0.69,,,,,,,,,,,,,,,,,,
1363,0,0.0,0.7,,-0.05,0.09,1.03,-0,0,-0,0.1,0,1920,0,0.0,0.0,0.0,0.0,0,0,0.0
1365,0,0.0,0.7,,,,,,,,,,,,,,,,,,
1367,0,0.0,0.69,,,,,,,,,,,,,,,,,,
1369,0,0.0,0.69,,,,,,,,,,,,,,,,,,
1371,0,0.0,0.69,,,,,,,,,,,,,,,,,,
1373,0,0.0,0.7,,-0.21,0.1,0.96,-0,-0,-1,0.23,,,,,,,,,,
1375,0,0.0,0.69,,,,,,,,,,,,,,,,,,
1377,0,0.0,0.69,,,,,,,,,,,,,,,,,,
1379,0,0.0,0.7,,,,,,,,,,,,,,,,,,
1381,0,0.0,0.7,,,,,,,,,,,,,,,,,,
1383,0,0.0,0.69,,-0.09,0.04,1.02,-0,-0,-0,0.1,0,1920,0,0.0,0.0,0.0,0.0,0,0,0.0
1385,0,0.0,0.7,,,,,,,,,,,,,,,,,,
1387,0,0.0,0.7,,,,,,,,,,,,,,,,,,
1389,0,0.0,0.7,,,,,,,,,,,,,,,,,,
1391,0,0.0,0.7,,,,,,,,,,,,,,,,,,
1393,0,0.0,0.7,,-0.05,0.06,0.97,-0,0,-0,0.08,,,,,,,,,,
1395,0,0.0,0.69,,,,,,,,,,,,,,,,,,
1397,0,0.01,0.7,,,,,,,,,,,,,,,,,,
1399,0,0.0,0.7,,,,,,,,,,,,,,,,,,
1401,0,0.0,0.7,,,,,,,,,,,,,,,,,,
1403,0,0.0,0.7,,-0.15,0.1,0.94,-0,-0,-1,0.18,0,1980,0,0.0,0.0,0.0,0.0,0,0,0.0
1405,0,0.0,0.7,,,,,,,,,,,,,,,,,,
1407,0,0.0,0.7,,,,,,,,,,,,,,,,,,
1409,0,0.0,0.69,,,,,,,,,,,,,,,,,,
1411,0,0.0,0.7,,,,,,,,,,,,,,,,,,
1413,0,0.0,0.7,,-0.12,0.05,0.96,0,-0,-0,0.13,,,,,,,,,,
1415,0,0.0,0.7,,,,,,,,,,,,,,,,,,
1417,0,0.01,0.7,,,,,,,,,,,,,,,,,,
1419,0,0.0,0.7,,,,,,,,,,,,,,,,,,
1421,0,0.0,0.7,,,,,,,,,,,,,,,,,,
1423,0,0.0,0.7,,-0.07,0.07,1.03,-0,0,-0,0.1,0,1980,0,0.0,0.0,0.0,0.0,0,0,0.0
1425,0,0.0,0.71,,,,,,,,,,,,,,,,,,
1427,0,0.0,0.7,,,,,,,,,,,,,,,,,,
1429,0,0.0,0.7,,,,,,,,,,,,,,,,,,
1431,0,0.01,0.7,,,,,,,,,,,,,,,,,,
1433,0,0.0,0.7,,-0.2,0.09,0.94,-0,-0,-1,0.22,,,,,,,,,,
1435,0,0.0,0.7,,,,,,,,,,,,,,,,,,
1437,0,0.0,0.7,,,,,,,,,,,,,,,,,,
1439,0,0.0,0.7,,,,,,,,,,,,,,,,,,
1441,0,0.0,0.7,,,,,,,,,,,,,,,,,,
1443,0,0.0,0.7,,-0.11,0.06,1.0,0,-0,-0,0.12,0,1920,0,0.0,0.0,0.0,0.0,0,0,0.0
1445,0,0.0,0.7,,,,,,,,,,,,,,,,,,
1447,0,0.0,0.7,,,,,,,,,,,,,,,,,,
1449,0,0.0,0.7,,,,,,,,,,,,,,,,,,
1451,0,0.0,0.7,,,,,,,,,,,,,,,,,,
1453,0,0.0,0.7,,-0.04,0.06,0.96,-0,0,-0,0.07,,,,,,,,,,
1455,0,0.0,0.72,,,,,,,,,,,,,,,,,,
1457,0,0.0,0.7,,,,,,,,,,,,,,,,,,
1459,0,0.01,0.7,,,,,,,,,,,,,,,,,,
1461,0,0.0,0.7,,,,,,,,,,,,,,,,,,
1463,0,0.0,0.7,,-0.15,0.12,0.93,-0,0,-1,0.19,0,1980,0,0.0,0.0,0.0,0.0,0,0,0.0
1465,0,0.0,0.7,,,,,,,,,,,,,,,,,,
1467,0,0.0,0.7,,,,,,,,,,,,,,,,,,
1469,0,0.0,0.71,,,,,,,,,,,,,,,,,,
1471,0,0.0,0.7,,,,,,,,,,,,,,,,,,
1473,0,0.0,0.71,,-0.15,0.07,0.97,0,-0,-0,0.17,,,,,,,,,,
1475,0,0.0,0.71,,,,,,,,,,,,,,,,,,
1477,0,0.0,0.7,,,,,,,,,,,,,,,,,,
1479,0,0.01,0.7,,,,,,,,,,,,,,,,,,
1481,0,0.0,0.7,,,,,,,,,,,,,,,,,,
1483,0,0.0,0.71,,-0.08,0.07,1.01,-0,0,-1,0.11,0,1980,0,0.0,0.0,0.0,0.0,0,0,0.0
1485,0,0.0,0.72,,,,,,,,,,,,,,,,,,
1487,0,0.0,0.71,,,,,,,,,,,,,,,,,,
1489,0,0.0,0.71,,,,,,,,,,,,,,,,,,
1491,0,0.0,0.71,,,,,,,,,,,,,,,,,,
1493,0,0.0,0.7,,-0.19,0.09,0.92,-0,-0,-1,0.21,,,,,,,,,,
1495,0,0.0,0.71,,,,,,,,,,,,,,,,,,
1497,0,0.0,0.71,,,,,,,,,,,,,,,,,,
1499,0,0.0,0.71,,,,,,,,,,,,,,,,,,
1501,0,0.0,0.71,,,,,,,,,,,,,,,,,,
1503,0,0.0,0.71,,-0.12,0.08,0.99,0,-0,-0,0.14,0,1920,0,0.0,0.0,0.0,0.0,0,0,0.0
1505,0,0.0,0.71,,,,,,,,,,,,,,,,,,
1507,0,0.0,0.71,,,,,,,,,,,,,,,,,,
1509,0,0.0,0.71,,,,,,,,,,,,,,,,,,
1511,0,0.0,0.71,,,,,,,,,,,,,,,,,,
1513,0,0.0,0.71,,-0.05,0.07,0.95,-0,-0,-0,0.09,,,,,,,,,,
1515,0,0.0,0.72,,,,,,,,,,,,,,,,,,
1517,0,0.0,0.71,,,,,,,,,,,,,,,,,,
1519,0,0.0,0.71,,,,,,,,,,,,,,,,,,
1521,0,0.0,0.71,,,,,,,,,,,,,,,,,,
1523,0,0.0,0.71,,-0.18,0.12,0.93,-0,0,-1,0.21,0,1980,0,0.0,0.0,0.0,0.0,0,0,0.0
1525,0,0.0,0.71,,,,,,,,,,,,,,,,,,
1527,0,0.0,0.71,,,,,,,,,,,,,,,,,,
1529,0,0.0,0.71,,,,,,,,,,,,,,,,,,
1531,0,0.0,0.71,,,,,,,,,,,,,,,,,,
1533,0,0.0,0.71,,-0.18,0.08,1.0,0,-0,-1,0.2,,,,,,,,,,
1535,0,0.0,0.71,,,,,,,,,,,,,,,,,,
1537,0,0.0,0.71,,,,,,,,,,,,,,,,,,
1539,0,0.0,0.71,,,,,,,,,,,,,,,,,,
1541,0,0.0,0.71,,,,,,,,,,,,,,,,,,
1543,0,0.0,0.71,,-0.07,0.07,1.01,-0,-0,-1,0.1,0,1980,0,0.0,0.0,0.0,0.0,0,0,0.0
1545,0,0.0,0.71,,,,,,,,,,,,,,,,,,
1547,0,0.0,0.72,,,,,,,,,,,,,,,,,,
1549,0,0.0,0.71,,,,,,,,,,,,,,,,,,
1551,0,0.0,0.71,,,,,,,,,,,,,,,,,,
1553,0,0.0,0.7,,-0.18,0.09,0.92,-0,0,-1,0.2,,,,,,,,,,
1555,0,0.01,0.7,,,,,,,,,,,,,,,,,,
1557,0,0.0,0.7,,,,,,,,,,,,,,,,,,
1559,0,0.0,0.7,,,,,,,,,,,,,,,,,,
1561,0,0.0,0.7,,,,,,,,,,,,,,,,,,
1563,0,0.0,0.7,,-0.16,0.09,1.04,0,0,-1,0.18,0,1920,0,0.0,0.0,0.0,0.0,0,0,0.0
1565,0,0.0,0.7,,,,,,,,,,,,,,,,,,
1567,0,0.0,0.7,,,,,,,,,,,,,,,,,,
1569,0,0.0,0.7,,,,,,,,,,,,,,,,,,
1571,0,0.0,0.69,,,,,,,,,,,,,,,,,,
1573,0,0.0,0.7,,-0.04,0.06,0.97,-0,0,-1,0.07,,,,,,,,,,
1575,0,0.0,0.7,,,,,,,,,,,,,,,,,,
1577,0,0.0,0.71,,,,,,,,,,,,,,,,,,
1579,0,0.0,0.7,,,,,,,,,,,,,,,,,,
1581,0,0.0,0.7,,,,,,,,,,,,,,,,,,
1583,0,0.0,0.7,,-0.2,0.11,0.93,-0,1,-1,0.23,0,1980,0,0.0,0.0,0.0,0.0,0,0,0.0
1585,0,0.0,0.69,,,,,,,,,,,,,,,,,,
1587,0,0.0,0.69,,,,,,,,,,,,,,,,,,
1589,0,0.0,0.69,,,,,,,,,,,,,,,,,,
1591,0,0.0,0.69,,,,,,,,,,,,,,,,,,
1593,0,0.0,0.69,,-0.24,0.09,1.03,0,0,-1,0.25,,,,,,,,,,
1595,0,0.0,0.69,,,,,,,,,,,,,,,,,,
1597,0,0.0,0.69,,,,,,,,,,,,,,,,,,
1599,0,0.0,0.69,,,,,,,,,,,,,,,,,,
1601,0,0.0,0.69,,,,,,,,,,,,,,,,,,
1603,0,0.0,0.69,,-0.09,0.04,0.98,-0,0,-1,0.1,0,1980,0,0.0,0.0,0.0,0.0,0,0,0.0
1605,0,0.0,0.69,,,,,,,,,,,,,,,,,,
1607,0,0.0,0.7,,,,,,,,,,,,,,,,,,
1609,0,0.0,0.69,,,,,,,,,,,,,,,,,,
1611,0,0.0,0.69,,,,,,,,,,,,,,,,,,
1613,0,0.0,0.69,,-0.18,0.09,0.92,-1,1,-1,0.2,,,,,,,,,,
1615,0,0.0,0.69,,,,,,,,,,,,,,,,,,
1617,0,0.0,0.69,,,,,,,,,,,,,,,,,,
1619,0,0.0,0.69,,,,,,,,,,,,,,,,,,
1621,0,0.0,0.69,,,,,,,,,,,,,,,,,,
1623,0,0.0,0.69,,-0.19,0.08,1.04,0,0,-1,0.21,0,1920,0,0.0,0.0,0.0,0.0,0,0,0.0
1625,0,0.0,0.69,,,,,,,,,,,,,,,,,,
1627,0,0.0,0.69,,,,,,,,,,,,,,,,,,
1629,0,0.0,0.69,,,,,,,,,,,,,,,,,,
1631,0,0.0,0.69,,,,,,,,,,,,,,,,,,
1633,0,0.0,0.69,,-0.04,0.04,0.94,-1,0,-1,0.06,,,,,,,,,,
1635,0,0.0,0.69,,,,,,,,,,,,,,,,,,
1637,0,0.0,0.7,,,,,,,,,,,,,,,,,,
1639,0,0.0,0.69,,,,,,,,,,,,,,,,,,
1641,0,0.0,0.69,,,,,,,,,,,,,,,,,,
1643,0,0.0,0.68,,-0.21,0.11,0.94,-1,1,-1,0.24,0,1980,0,0.0,0.0,0.0,0.0,0,0,0.0
1645,0,0.01,0.68,,,,,,,,,,,,,,,,,,
1647,0,0.0,0.68,,,,,,,,,,,,,,,,,,
1649,0,0.0,0.68,,,,,,,,,,,,,,,,,,
1651,0,0.0,0.68,,,,,,,,,,,,,,,,,,
1653,0,0.0,0.68,,-0.26,0.1,1.03,0,0,-1,0.28,,,,,,,,,,
1655,0,0.0,0.68,,,,,,,,,,,,,,,,,,
1657,0,0.0,0.68,,,,,,,,,,,,,,,,,,
1659,0,0.0,0.68,,,,,,,,,,,,,,,,,,
1661,0,0.0,0.68,,,,,,,,,,,,,,,,,,
1663,0,0.0,0.68,,-0.09,0.03,0.94,-0,-0,-1,0.1,0,1980,0,0.0,0.0,0.0,0.0,0,0,0.0
1665,0,0.01,0.68,,,,,,,,,,,,,,,,,,
1667,0,0.0,0.68,,,,,,,,,,,,,,,,,,
1669,0,0.01,0.69,,,,,,,,,,,,,,,,,,
1671,0,0.0,0.68,,,,,,,,,,,,,,,,,,
1673,0,0.0,0.68,,-0.16,0.09,0.93,-0,1,-1,0.19,,,,,,,,,,
1675,0,0.0,0.68,,,,,,,,,,,,,,,,,,
1677,0,0.0,0.68,,,,,,,,,,,,,,,,,,
1679,0,0.0,0.68,,,,,,,,,,,,,,,,,,
1681,0,0.0,0.68,,,,,,,,,,,,,,,,,,
1683,0,0.0,0.68,,-0.24,0.1,1.04,0,0,-1,0.26,0,1920,0,0.0,0.0,0.0,0.0,0,0,0.0
1685,0,0.0,0.68,,,,,,,,,,,,,,,,,,
1687,0,0.0,0.68,,,,,,,,,,,,,,,,,,
1689,0,0.0,0.68,,,,,,,,,,,,,,,,,,
1691,0,0.0,0.67,,,,,,,,,,,,,,,,,,
1693,0,0.0,0.68,,-0.06,0.03,0.99,-0,-0,-0,0.07,,,,,,,,,,
1695,0,0.0,0.68,,,,,,,,,,,,,,,,,,
1697,0,0.0,0.68,,,,,,,,,,,,,,,,,,
1699,0,0.0,0.69,,,,,,,,,,,,,,,,,,
1701,0,0.0,0.68,,,,,,,,,,,,,,,,,,
1703,0,0.0,0.67,,-0.22,0.09,0.97,-1,1,-1,0.23,0,1920,0,0.0,0.0,0.0,0.0,0,0,0.0
1705,0,0.0,0.68,,,,,,,,,,,,,,,,,,
1707,0,0.01,0.68,,,,,,,,,,,,,,,,,,
1709,0,0.0,0.68,,,,,,,,,,,,,,,,,,
1711,0,0.0,0.68,,,,,,,,,,,,,,,,,,
1713,0,0.0,0.68,,-0.29,0.11,1.08,-0,0,-1,0.31,,,,,,,,,,
1715,0,0.0,0.68,,,,,,,,,,,,,,,,,,
1717,0,0.0,0.68,,,,,,,,,,,,,,,,,,
1719,0,0.0,0.68,,,,,,,,,,,,,,,,,,
1721,0,0.0,0.69,,,,,,,,,,,,,,,,,,
1723,0,0.0,0.69,,-0.12,0.01,0.93,-0,-0,-0,0.12,0,1920,0,0.0,0.0,0.0,0.0,0,0,0.0
1725,0,0.0,0.69,,,,,,,,,,,,,,,,,,
1727,0,0.0,0.69,,,,,,,,,,,,,,,,,,
1729,0,0.0,0.69,,,,,,,,,,,,,,,,,,
1731,0,0.0,0.69,,,,,,,,,,,,,,,,,,
1733,0,0.0,0.69,,-0.16,0.1,0.93,-1,0,-0,0.19,,,,,,,,,,
1735,0,0.0,0.69,,,,,,,,,,,,,,,,,,
1737,0,0.0,0.69,,,,,,,,,,,,,,,,,,
1739,0,0.0,0.69,,,,,,,,,,,,,,,,,,
1741,0,0.0,0.69,,,,,,,,,,,,,,,,,,
1743,0,0.0,0.69,,-0.33,0.14,1.06,-0,-0,-1,0.36,0,1920,0,0.0,0.0,0.0,0.0,0,0,0.0
1745,0,0.0,0.69,,,,,,,,,,,,,,,,,,
1747,0,0.0,0.69,,,,,,,,,,,,,,,,,,
1749,0,0.0,0.69,,,,,,,,,,,,,,,,,,
1751,0,0.0,0.69,,,,,,,,,,,,,,,,,,
1753,0,0.0,0.69,,-0.14,0.0,0.97,-0,-0,-0,0.14,,,,,,,,,,
1755,0,0.0,0.69,,,,,,,,,,,,,,,,,,
1757,0,0.0,0.69,,,,,,,,,,,,,,,,,,
1759,0,0.0,0.69,,,,,,,,,,,,,,,,,,
1761,0,0.0,0.7,,,,,,,,,,,,,,,,,,
1763,0,0.0,0.7,,-0.25,0.09,0.95,-1,1,-0,0.26,0,1920,0,0.0,0.0,0.0,0.0,0,0,0.0
1765,0,0.0,0.69,,,,,,,,,,,,,,,,,,
1767,0,0.0,0.69,,,,,,,,,,,,,,,,,,
1769,0,0.0,0.69,,,,,,,,,,,,,,,,,,
1771,0,0.0,0.69,,,,,,,,,,,,,,,,,,
1773,0,0.0,0.69,,-0.34,0.13,1.06,-1,-0,-1,0.37,,,,,,,,,,
1775,0,0.0,0.69,,,,,,,,,,,,,,,,,,
1777,0,0.0,0.69,,,,,,,,,,,,,,,,,,
1779,0,0.0,0.69,,,,,,,,,,,,,,,,,,
1781,0,0.0,0.69,,,,,,,,,,,,,,,,,,
1783,0,0.01,0.69,,-0.17,0.03,0.88,-1,-0,-0,0.18,0,1920,0,0.0,0.0,0.0,0.0,0,0,0.0
1785,0,0.0,0.69,,,,,,,,,,,,,,,,,,
1787,0,0.0,0.7,,,,,,,,,,,,,,,,,,
1789,0,0.0,0.69,,,,,,,,,,,,,,,,,,
1791,0,0.0,0.69,,,,,,,,,,,,,,,,,,
1793,0,0.0,0.71,,-0.16,0.1,0.95,-1,0,-0,0.18,,,,,,,,,,
1795,0,0.0,0.69,,,,,,,,,,,,,,,,,,
1797,0,0.0,0.7,,,,,,,,,,,,,,,,,,
1799,0,0.0,0.7,,,,,,,,,,,,,,,,,,
1801,0,0.0,0.7,,,,,,,,,,,,,,,,,,
1803,0,0.0,0.7,,-0.38,0.13,0.99,-1,-0,-1,0.4,0,1860,0,0.0,0.0,0.0,0.0,0,0,0.0
1805,0,0.0,0.7,,,,,,,,,,,,,,,,,,
1807,0,0.0,0.7,,,,,,,,,,,,,,,,,,
1809,0,0.0,0.7,,,,,,,,,,,,,,,,,,
1811,0,0.01,0.7,,,,,,,,,,,,,,,,,,
1813,0,0.0,0.7,,-0.17,0.02,0.97,-1,-1,-0,0.17,,,,,,,,,,
1815,0,0.0,0.7,,,,,,,,,,,,,,,,,,
1817,0,0.0,0.7,,,,,,,,,,,,,,,,,,
1819,0,0.0,0.7,,,,,,,,,,,,,,,,,,
1821,0,0.0,0.7,,,,,,,,,,,,,,,,,,
1823,0,0.0,0.71,,-0.13,0.08,0.96,-1,-1,-0,0.16,0,1920,0,0.0,0.0,0.0,0.0,0,0,0.0
1825,0,0.0,0.7,,,,,,,,,,,,,,,,,,
1827,0,0.0,0.69,,,,,,,,,,,,,,,,,,
1829,0,0.0,0.69,,,,,,,,,,,,,,,,,,
1831,0,0.0,0.69,,,,,,,,,,,,,,,,,,
1833,0,0.0,0.69,,-0.28,0.14,0.98,-1,-1,-1,0.31,,,,,,,,,,
1835,0,0.0,0.69,,,,,,,,,,,,,,,,,,
1837,0,0.0,0.69,,,,,,,,,,,,,,,,,,
1839,0,0.0,0.69,,,,,,,,,,,,,,,,,,
1841,0,0.0,0.69,,,,,,,,,,,,,,,,,,
1843,0,0.0,0.69,,-0.16,0.04,0.95,-1,-2,-0,0.16,2,1920,0,0.0,0.0,0.0,0.0,0,0,0.0
1845,0,0.01,0.69,,,,,,,,,,,,,,,,,,
1847,0,0.0,0.68,,,,,,,,,,,,,,,,,,
1849,0,0.0,0.69,,,,,,,,,,,,,,,,,,
1851,0,0.0,0.68,,,,,,,,,,,,,,,,,,
1853,0,0.0,0.68,,-0.06,0.11,1.03,-1,-1,-1,0.12,,,,,,,,,,
1855,0,0.0,0.69,,,,,,,,,,,,,,,,,,
1857,0,0.0,0.68,,,,,,,,,,,,,,,,,,
1859,0,0.0,0.68,,,,,,,,,,,,,,,,,,
1861,0,0.0,0.68,,,,,,,,,,,,,,,,,,
1863,0,0.0,0.68,,-0.21,0.11,0.95,-1,-1,-1,0.24,2,1860,0,0.0,0.0,0.0,0.0,0,0,0.0
1865,0,0.0,0.68,,,,,,,,,,,,,,,,,,
1867,0,0.0,0.68,,,,,,,,,,,,,,,,,,
1869,0,0.0,0.68,,,,,,,,,,,,,,,,,,
1871,0,0.0,0.68,,,,,,,,,,,,,,,,,,
1873,0,0.0,0.68,,-0.1,0.03,1.06,-0,-1,-0,0.11,,,,,,,,,,
1875,0,0.0,0.68,,,,,,,,,,,,,,,,,,
1877,0,0.0,0.68,,,,,,,,,,,,,,,,,,
1879,0,0.0,0.68,,,,,,,,,,,,,,,,,,
1881,0,0.0,0.68,,,,,,,,,,,,,,,,,,
1883,0,0.0,0.68,,0.04,0.06,0.96,-1,-1,-0,0.07,2,1860,0,0.0,0.0,0.0,0.0,0,0,0.0
1885,0,0.0,0.68,,,,,,,,,,,,,,,,,,
1887,0,0.0,0.68,,,,,,,,,,,,,,,,,,
1889,0,0.0,0.68,,,,,,,,,,,,,,,,,,
1891,0,0.0,0.68,,,,,,,,,,,,,,,,,,
1893,0,0.0,0.68,,-0.12,0.12,0.9,-0,-0,-0,0.17,,,,,,,,,,
1895,0,0.0,0.67,,,,,,,,,,,,,,,,,,
1897,0,0.0,0.67,,,,,,,,,,,,,,,,,,
1899,0,0.0,0.67,,,,,,,,,,,,,,,,,,
1901,0,0.0,0.67,,,,,,,,,,,,,,,,,,
1903,0,0.0,0.68,,-0.17,0.07,1.05,0,-0,-0,0.18,2,1920,0,0.0,0.0,0.0,0.0,0,0,0.0
1905,0,0.0,0.68,,,,,,,,,,,,,,,,,,
1907,0,0.0,0.68,,,,,,,,,,,,,,,,,,
1909,0,0.0,0.68,,,,,,,,,,,,,,,,,,
1911,0,0.0,0.69,,,,,,,,,,,,,,,,,,
1913,0,0.0,0.69,,-0.05,0.03,1.0,-0,-1,-0,0.06,,,,,,,,,,
1915,0,0.0,0.69,,,,,,,,,,,,,,,,,,
1917,0,0.0,0.7,,,,,,,,,,,,,,,,,,
1919,0,0.0,0.69,,,,,,,,,,,,,,,,,,
1921,0,0.0,0.69,,,,,,,,,,,,,,,,,,
1923,0,0.0,0.69,,-0.1,0.08,0.91,-0,-1,-0,0.13,2,1860,0,0.0,0.0,0.0,0.0,0,0,0.0
1925,0,0.0,0.69,,,,,,,,,,,,,,,,,,
1927,0,0.0,0.69,,,,,,,,,,,,,,,,,,
1929,0,0.0,0.69,,,,,,,,,,,,,,,,,,
1931,0,0.0,0.69,,,,,,,,,,,,,,,,,,
1933,0,0.0,0.69,,-0.15,0.07,1.05,0,-1,-0,0.17,,,,,,,,,,
1935,0,0.0,0.69,,,,,,,,,,,,,,,,,,
1937,0,0.0,0.69,,,,,,,,,,,,,,,,,,
1939,0,0.0,0.69,,,,,,,,,,,,,,,,,,
1941,0,0.0,0.69,,,,,,,,,,,,,,,,,,
1943,0,0.0,0.69,,0.02,0.04,0.93,-0,-1,-0,0.04,2,1860,0,0.0,0.0,0.0,0.0,0,0,0.0
1945,0,0.0,0.69,,,,,,,,,,,,,,,,,,
1947,0,0.0,0.69,,,,,,,,,,,,,,,,,,
1949,0,0.0,0.7,,,,,,,,,,,,,,,,,,
1951,0,0.0,0.69,,,,,,,,,,,,,,,,,,
1953,0,0.0,0.69,,-0.11,0.14,0.88,-0,0,-1,0.18,,,,,,,,,,
1955,0,0.0,0.69,,,,,,,,,,,,,,,,,,
1957,0,0.0,0.69,,,,,,,,,,,,,,,,,,
1959,0,0.0,0.7,,,,,,,,,,,,,,,,,,
1961,0,0.0,0.69,,,,,,,,,,,,,,,,,,
1963,0,0.0,0.7,,-0.22,0.11,1.08,0,-1,-1,0.25,2,1920,0,0.0,0.0,0.0,0.0,0,0,0.0
1965,0,0.0,0.69,,,,,,,,,,,,,,,,,,
1967,0,0.0,0.69,,,,,,,,,,,,,,,,,,
1969,0,0.0,0.69,,,,,,,,,,,,,,,,,,
1971,0,0.0,0.69,,,,,,,,,,,,,,,,,,
1973,0,0.0,0.7,,-0.02,0.02,0.9,-0,-2,-1,0.03,,,,,,,,,,
1975,0,0.0,0.69,,,,,,,,,,,,,,,,,,
1977,0,0.0,0.69,,,,,,,,,,,,,,,,,,
1979,0,0.0,0.71,,,,,,,,,,,,,,,,,,
1981,0,0.0,0.69,,,,,,,,,,,,,,,,,,
1983,0,0.0,0.7,,-0.03,0.13,0.9,-1,-1,-1,0.13,2,1920,0,0.0,0.0,0.0,0.0,0,0,0.0
1985,0,0.0,0.7,,,,,,,,,,,,,,,,,,
1987,0,0.0,0.7,,,,,,,,,,,,,,,,,,
1989,0,0.0,0.7,,,,,,,,,,,,,,,,,,
1991,0,0.0,0.7,,,,,,,,,,,,,,,,,,
1993,0,0.0,0.7,,-0.14,0.11,1.05,-0,-2,-1,0.18,,,,,,,,,,
1995,0,0.0,0.7,,,,,,,,,,,,,,,,,,
1997,0,0.0,0.7,,,,,,,,,,,,,,,,,,
1999,0,0.0,0.7,,,,,,,,,,,,,,,,,,
2001,0,0.0,0.7,,,,,,,,,,,,,,,,,,
2003,0,0.0,0.69,,0.05,0.02,0.98,-1,-2,-0,0.05,12,1920,0,0.0,0.0,0.0,0.0,0,0,0.0
2005,0,0.0,0.69,,,,,,,,,,,,,,,,,,
2007,0,0.0,0.7,,,,,,,,,,,,,,,,,,
2009,0,0.0,0.7,,,,,,,,,,,,,,,,,,
2011,0,0.0,0.7,,,,,,,,,,,,,,,,,,
2013,0,0.0,0.69,,-0.02,0.09,0.96,-1,-1,-0,0.09,,,,,,,,,,
2015,0,0.0,0.69,,,,,,,,,,,,,,,,,,
2017,0,0.0,0.69,,,,,,,,,,,,,,,,,,
2019,0,0.0,0.69,,,,,,,,,,,,,,,,,,
2021,0,0.0,0.69,,,,,,,,,,,,,,,,,,
2023,0,0.0,0.69,,-0.1,0.07,1.09,-1,-2,-0,0.13,12,1920,0,0.0,0.0,0.0,0.0,0,0,0.0
2025,0,0.0,0.69,,,,,,,,,,,,,,,,,,
2027,0,0.0,0.69,,,,,,,,,,,,,,,,,,
2029,0,0.0,0.68,,,,,,,,,,,,,,,,,,
2031,0,0.0,0.68,,,,,,,,,,,,,,,,,,
2033,0,0.0,0.68,,0.06,0.02,0.96,-1,-2,0,0.06,,,,,,,,,,
2035,0,0.0,0.69,,,,,,,,,,,,,,,,,,
2037,0,0.0,0.68,,,,,,,,,,,,,,,,,,
2039,0,0.0,0.68,,,,,,,,,,,,,,,,,,
2041,0,0.0,0.69,,,,,,,,,,,,,,,,,,
2043,0,0.0,0.68,13.47,0.08,0.1,0.98,-1,-1,-0,0.12,12,1920,0,0.0,0.0,0.0,0.0,0,0,0.0
2045,0,0.01,0.68,,,,,,,,,,,,,,,,,,
2047,0,0.0,0.68,,,,,,,,,,,,,,,,,,
2049,0,0.0,0.68,,,,,,,,,,,,,,,,,,
2051,0,0.0,0.68,,,,,,,,,,,,,,,,,,
2053,0,0.0,0.68,,-0.09,0.08,1.08,-1,-1,-0,0.12,,,,,,,,,,
2055,0,0.0,0.68,,,,,,,,,,,,,,,,,,
2057,0,0.0,0.68,,,,,,,,,,,,,,,,,,
2059,0,0.0,0.68,,,,,,,,,,,,,,,,,,
2061,0,0.0,0.68,,,,,,,,,,,,,,,,,,
2063,0,0.0,0.68,,0.11,-0.0,1.02,-1,-2,0,0.11,12,1920,0,0.0,0.0,0.0,0.0,0,0,0.0
2065,0,0.0,0.68,,,,,,,,,,,,,,,,,,
2067,0,0.0,0.68,,,,,,,,,,,,,,,,,,
2069,0,0.0,0.68,,,,,,,,,,,,,,,,,,
2071,0,0.0,0.69,,,,,,,,,,,,,,,,,,
2073,0,0.0,0.68,,0.05,0.04,1.01,-1,-1,0,0.06,,,,,,,,,,
2075,0,0.0,0.67,,,,,,,,,,,,,,,,,,
2077,0,0.0,0.67,,,,,,,,,,,,,,,,,,
2079,0,0.0,0.67,,,,,,,,,,,,,,,,,,
2081,0,0.0,0.67,,,,,,,,,,,,,,,,,,
2083,0,0.0,0.68,,-0.03,0.1,1.07,-1,-1,0,0.1,12,1980,0,0.0,0.0,0.0,0.0,0,0,0.0
2085,0,0.0,0.67,,,,,,,,,,,,,,,,,,
2087,0,0.0,0.67,,,,,,,,,,,,,,,,,,
2089,0,0.0,0.67,,,,,,,,,,,,,,,,,,
2091,0,0.0,0.67,,,,,,,,,,,,,,,,,,
2093,0,0.0,0.67,,0.11,0.04,0.92,-1,-2,0,0.12,,,,,,,,,,
2095,0,0.0,0.67,,,,,,,,,,,,,,,,,,
2097,0,0.0,0.68,,,,,,,,,,,,,,,,,,
2099,0,0.0,0.68,,,,,,,,,,,,,,,,,,
2101,0,0.0,0.69,,,,,,,,,,,,,,,,,,
2103,0,0.01,0.68,,0.13,0.09,0.99,-1,-1,0,0.16,12,1920,0,0.0,0.0,0.0,0.0,0,0,0.0
2105,0,0.0,0.68,,,,,,,,,,,,,,,,,,
2107,0,0.0,0.68,,,,,,,,,,,,,,,,,,
2109,0,0.0,0.68,,,,,,,,,,,,,,,,,,
2111,0,0.0,0.68,,,,,,,,,,,,,,,,,,
2113,0,0.0,0.68,,-0.05,0.08,1.04,-1,-2,-0,0.09,,,,,,,,,,
2115,0,0.0,0.68,,,,,,,,,,,,,,,,,,
2117,0,0.0,0.68,,,,,,,,,,,,,,,,,,
2119,0,0.0,0.68,,,,,,,,,,,,,,,,,,
2121,0,0.01,0.68,,,,,,,,,,,,,,,,,,
2123,0,0.0,0.68,,0.12,-0.01,1.04,-1,-2,0,0.12,12,1920,0,0.0,0.0,0.0,0.0,0,0,0.0
2125,0,0.0,0.69,,,,,,,,,,,,,,,,,,
2127,0,0.0,0.69,,,,,,,,,,,,,,,,,,
2129,0,0.0,0.69,,,,,,,,,,,,,,,,,,
2131,0,0.0,0.7,,,,,,,,,,,,,,,,,,
2133,0,0.0,0.69,,0.05,0.02,1.05,-1,-1,-0,0.05,,,,,,,,,,
2135,0,0.0,0.69,,,,,,,,,,,,,,,,,,
2137,0,0.0,0.69,,,,,,,,,,,,,,,,,,
2139,0,0.0,0.69,,,,,,,,,,,,,,,,,,
2141,0,0.0,0.69,,,,,,,,,,,,,,,,,,
2143,0,0.0,0.69,,-0.05,0.07,1.06,-0,-1,0,0.09,12,1980,0,0.0,0.0,0.0,0.0,0,0,0.0
2145,0,0.0,0.69,,,,,,,,,,,,,,,,,,
2147,0,0.0,0.69,,,,,,,,,,,,,,,,,,
2149,0,0.0,0.69,,,,,,,,,,,,,,,,,,
2151,0,0.0,0.69,,,,,,,,,,,,,,,,,,
2153,0,0.0,0.69,,0.04,-0.01,0.94,1,-1,0,0.05,,,,,,,,,,
2155,0,0.01,0.69,,,,,,,,,,,,,,,,,,
2157,0,0.0,0.69,,,,,,,,,,,,,,,,,,
2159,0,0.0,0.69,,,,,,,,,,,,,,,,,,
2161,0,0.0,0.69,,,,,,,,,,,,,,,,,,
2163,0,0.0,0.7,,0.05,0.08,1.0,0,-0,0,0.1,12,1920,0,0.0,0.0,0.0,0.0,0,0,0.0
2165,0,0.0,0.69,,,,,,,,,,,,,,,,,,
2167,0,0.0,0.69,,,,,,,,,,,,,,,,,,
2169,0,0.0,0.7,,,,,,,,,,,,,,,,,,
2171,0,0.0,0.69,,,,,,,,,,,,,,,,,,
2173,0,0.0,0.7,,-0.06,0.11,0.93,1,-0,-0,0.12,,,,,,,,,,
2175,0,0.0,0.69,,,,,,,,,,,,,,,,,,
2177,0,0.0,0.7,,,,,,,,,,,,,,,,,,
2179,0,0.0,0.7,,,,,,,,,,,,,,,,,,
2181,0,0.0,0.7,,,,,,,,,,,,,,,,,,
2183,0,0.0,0.69,,0.12,0.07,0.93,1,-1,-0,0.13,12,1920,0,0.0,0.0,0.0,0.0,0,0,0.0
2185,0,0.0,0.7,,,,,,,,,,,,,,,,,,
2187,0,0.0,0.7,,,,,,,,,,,,,,,,,,
2189,0,0.0,0.7,,,,,,,,,,,,,,,,,,
2191,0,0.0,0.7,,,,,,,,,,,,,,,,,,
2193,0,0.0,0.71,,0.09,0.11,0.91,0,-0,-0,0.15,,,,,,,,,,
2195,0,0.0,0.7,,,,,,,,,,,,,,,,,,
2197,0,0.01,0.7,,,,,,,,,,,,,,,,,,
2199,0,0.0,0.7,,,,,,,,,,,,,,,,,,
2201,0,0.0,0.7,,,,,,,,,,,,,,,,,,
2203,0,0.0,0.7,,0.02,0.17,0.93,0,-1,-0,0.17,12,1920,0,0.0,0.0,0.0,0.0,0,0,0.0
2205,0,0.0,0.7,,,,,,,,,,,,,,,,,,
2207,0,0.0,0.7,,,,,,,,,,,,,,,,,,
2209,0,0.0,0.7,,,,,,,,,,,,,,,,,,
2211,0,0.0,0.7,,,,,,,,,,,,,,,,,,
2213,0,0.0,0.7,,0.1,0.09,0.93,0,-1,-0,0.14,,,,,,,,,,
2215,0,0.0,0.7,,,,,,,,,,,,,,,,,,
2217,0,0.0,0.7,,,,,,,,,,,,,,,,,,
2219,0,0.0,0.7,,,,,,,,,,,,,,,,,,
2221,0,0.0,0.7,,,,,,,,,,,,,,,,,,
2223,0,0.0,0.7,,0.08,0.1,1.07,-0,-1,-0,0.13,12,1920,0,0.0,0.0,0.0,0.0,0,0,0.0
2225,0,0.0,0.71,,,,,,,,,,,,,,,,,,
2227,0,0.0,0.7,,,,,,,,,,,,,,,,,,
2229,0,0.0,0.7,,,,,,,,,,,,,,,,,,
2231,0,0.0,0.7,,,,,,,,,,,,,,,,,,
2233,0,0.0,0.7,,-0.08,0.09,1.0,-0,-1,-0,0.11,,,,,,,,,,
2235,0,0.0,0.7,,,,,,,,,,,,,,,,,,
2237,0,0.0,0.7,,,,,,,,,,,,,,,,,,
2239,0,0.0,0.7,,,,,,,,,,,,,,,,,,
2241,0,0.0,0.7,,,,,,,,,,,,,,,,,,
2243,0,0.0,0.7,,0.1,0.05,1.08,-0,-1,0,0.11,12,1920,0,0.0,0.0,0.0,0.0,0,0,0.0
2245,0,0.0,0.7,,,,,,,,,,,,,,,,,,
2247,0,0.0,0.7,,,,,,,,,,,,,,,,,,
2249,0,0.0,0.71,,,,,,,,,,,,,,,,,,
2251,0,0.0,0.71,,,,,,,,,,,,,,,,,,
2253,0,0.0,0.7,,0.11,0.08,0.99,-0,-0,0,0.13,,,,,,,,,,
2255,0,0.0,0.72,,,,,,,,,,,,,,,,,,
2257,0,0.0,0.71,,,,,,,,,,,,,,,,,,
2259,0,0.0,0.71,,,,,,,,,,,,,,,,,,
2261,0,0.0,0.7,,,,,,,,,,,,,,,,,,
2263,0,0.0,0.71,,-0.0,0.12,0.96,-0,-0,-0,0.12,12,1920,0,0.0,0.0,0.0,0.0,0,0,0.0
2265,0,0.0,0.71,,,,,,,,,,,,,,,,,,
2267,0,0.0,0.71,,,,,,,,,,,,,,,,,,
2269,0,0.0,0.71,,,,,,,,,,,,,,,,,,
2271,0,0.0,0.71,,,,,,,,,,,,,,,,,,
2273,0,0.0,0.71,,0.06,0.06,0.96,-0,-0,0,0.08,,,,,,,,,,
2275,0,0.0,0.71,,,,,,,,,,,,,,,,,,
2277,0,0.0,0.71,,,,,,,,,,,,,,,,,,
2279,0,0.0,0.71,,,,,,,,,,,,,,,,,,
2281,0,0.0,0.71,,,,,,,,,,,,,,,,,,
2283,0,0.0,0.71,,0.09,0.07,1.03,-1,-0,-0,0.11,12,1920,0,0.0,0.0,0.0,0.0,0,0,0.0
2285,0,0.0,0.72,,,,,,,,,,,,,,,,,,
2287,0,0.0,0.71,,,,,,,,,,,,,,,,,,
2289,0,0.0,0.71,,,,,,,,,,,,,,,,,,
2291,0,0.0,0.71,,,,,,,,,,,,,,,,,,
2293,0,0.0,0.71,,-0.02,0.05,0.95,-1,-0,-0,0.06,,,,,,,,,,
2295,0,0.0,0.71,,,,,,,,,,,,,,,,,,
2297,0,0.0,0.71,,,,,,,,,,,,,,,,,,
2299,0,0.0,0.71,,,,,,,,,,,,,,,,,,
2301,0,0.0,0.71,,,,,,,,,,,,,,,,,,
2303,0,0.0,0.71,,0.07,0.04,1.04,-0,-0,-0,0.08,12,1920,0,0.0,0.0,0.0,0.0,0,0,0.0
2305,0,0.0,0.71,,,,,,,,,,,,,,,,,,
2307,0,0.0,0.71,,,,,,,,,,,,,,,,,,
2309,0,0.0,0.71,,,,,,,,,,,,,,,,,,
2311,0,0.0,0.71,,,,,,,,,,,,,,,,,,
2313,0,0.0,0.71,,0.13,0.03,1.0,-0,-0,-0,0.13,,,,,,,,,,
2315,0,0.0,0.73,,,,,,,,,,,,,,,,,,
2317,0,0.0,0.71,,,,,,,,,,,,,,,,,,
2319,0,0.0,0.71,,,,,,,,,,,,,,,,,,
2321,0,0.01,0.71,,,,,,,,,,,,,,,,,,
2323,0,0.0,0.71,,-0.0,0.07,0.96,-0,-0,-0,0.07,12,1920,0,0.0,0.0,0.0,0.0,0,0,0.0
2325,0,0.0,0.71,,,,,,,,,,,,,,,,,,
2327,0,0.0,0.71,,,,,,,,,,,,,,,,,,
2329,0,0.0,0.71,,,,,,,,,,,,,,,,,,
2331,0,0.0,0.71,,,,,,,,,,,,,,,,,,
2333,0,0.0,0.71,,-0.0,0.03,1.04,0,-0,-0,0.03,,,,,,,,,,
2335,0,0.0,0.72,,,,,,,,,,,,,,,,,,
2337,0,0.0,0.72,,,,,,,,,,,,,,,,,,
2339,0,0.0,0.72,,,,,,,,,,,,,,,,,,
2341,0,0.0,0.72,,,,,,,,,,,,,,,,,,
2343,0,0.0,0.72,,0.08,0.03,1.04,-0,-0,-0,0.08,12,1920,0,0.0,0.0,0.0,0.0,0,0,0.0
2345,0,0.0,0.72,,,,,,,,,,,,,,,,,,
2347,0,0.0,0.73,,,,,,,,,,,,,,,,,,
2349,0,0.0,0.72,,,,,,,,,,,,,,,,,,
2351,0,0.01,0.72,,,,,,,,,,,,,,,,,,
2353,0,0.0,0.72,,0.0,0.07,0.95,0,-1,-0,0.07,,,,,,,,,,
2355,0,0.01,0.72,,,,,,,,,,,,,,,,,,
2357,0,0.0,0.72,,,,,,,,,,,,,,,,,,
2359,0,0.0,0.72,,,,,,,,,,,,,,,,,,
2361,0,0.0,0.72,,,,,,,,,,,,,,,,,,
2363,0,0.0,0.72,,0.04,0.06,1.05,1,-0,0,0.07,12,1920,0,0.0,0.0,0.0,0.0,0,0,0.0
2365,0,0.0,0.72,,,,,,,,,,,,,,,,,,
2367,0,0.0,0.72,,,,,,,,,,,,,,,,,,
2369,0,0.0,0.72,,,,,,,,,,,,,,,,,,
2371,0,0.0,0.72,,,,,,,,,,,,,,,,,,
2373,0,0.0,0.72,,0.11,0.06,1.0,0,-0,0,0.12,,,,,,,,,,
2375,0,0.0,0.72,,,,,,,,,,,,,,,,,,
2377,0,0.0,0.73,,,,,,,,,,,,,,,,,,
2379,0,0.0,0.72,,,,,,,,,,,,,,,,,,
2381,0,0.0,0.72,,,,,,,,,,,,,,,,,,
2383,0,0.0,0.72,,-0.04,0.12,0.94,0,0,-0,0.12,12,1920,0,0.0,0.0,0.0,0.0,0,0,0.0
2385,0,0.0,0.72,,,,,,,,,,,,,,,,,,
2387,0,0.0,0.72,,,,,,,,,,,,,,,,,,
2389,0,0.0,0.72,,,,,,,,,,,,,,,,,,
2391,0,0.0,0.72,,,,,,,,,,,,,,,,,,
2393,0,0.0,0.72,,-0.08,0.11,1.07,1,0,-0,0.13,,,,,,,,,,
2395,0,0.0,0.72,,,,,,,,,,,,,,,,,,
2397,0,0.01,0.72,,,,,,,,,,,,,,,,,,
2399,0,0.0,0.73,,,,,,,,,,,,,,,,,,
2401,0,0.0,0.72,,,,,,,,,,,,,,,,,,
2403,0,0.01,0.72,,0.03,0.08,1.02,-0,-0,-0,0.08,12,1920,0,0.0,0.0,0.0,0.0,0,0,0.0
2405,0,0.0,0.72,,,,,,,,,,,,,,,,,,
2407,0,0.0,0.73,,,,,,,,,,,,,,,,,,
2409,0,0.0,0.73,,,,,,,,,,,,,,,,,,
2411,0,0.0,0.72,,,,,,,,,,,,,,,,,,
2413,0,0.0,0.72,,-0.03,0.11,0.94,-0,1,-0,0.12,,,,,,,,,,
2415,0,0.0,0.72,,,,,,,,,,,,,,,,,,
2417,0,0.01,0.72,,,,,,,,,,,,,,,,,,
2419,0,0.0,0.72,,,,,,,,,,,,,,,,,,
2421,0,0.0,0.73,,,,,,,,,,,,,,,,,,
2423,0,0.0,0.73,,-0.08,0.13,1.05,0,1,-0,0.15,12,1920,0,0.0,0.0,0.0,0.0,0,0,0.0
2425,0,0.0,0.73,,,,,,,,,,,,,,,,,,
2427,0,0.0,0.73,,,,,,,,,,,,,,,,,,
2429,0,0.0,0.72,,,,,,,,,,,,,,,,,,
2431,0,0.0,0.73,,,,,,,,,,,,,,,,,,
2433,0,0.0,0.73,,0.05,0.08,0.97,-0,1,-0,0.09,,,,,,,,,,
2435,0,0.0,0.73,,,,,,,,,,,,,,,,,,
2437,0,0.0,0.73,,,,,,,,,,,,,,,,,,
2439,0,0.0,0.74,,,,,,,,,,,,,,,,,,
2441,0,0.0,0.73,,,,,,,,,,,,,,,,,,
2443,0,0.0,0.73,,-0.13,0.11,0.96,-1,2,-1,0.17,12,1980,0,0.0,0.0,0.0,0.0,0,0,0.0
2445,0,0.0,0.73,,,,,,,,,,,,,,,,,,
2447,0,0.0,0.73,,,,,,,,,,,,,,,,,,
2449,0,0.0,0.73,,,,,,,,,,,,,,,,,,
2451,0,0.0,0.73,,,,,,,,,,,,,,,,,,
2453,0,0.0,0.73,,-0.2,0.14,1.06,-0,1,-1,0.24,,,,,,,,,,
2455,0,0.0,0.73,,,,,,,,,,,,,,,,,,
2457,0,0.0,0.73,,,,,,,,,,,,,,,,,,
2459,0,0.01,0.73,,,,,,,,,,,,,,,,,,
2461,0,0.0,0.73,,,,,,,,,,,,,,,,,,
2463,0,0.0,0.73,,-0.04,0.02,0.94,-0,0,-1,0.04,12,1980,0,0.0,0.0,0.0,0.0,0,0,0.0
2465,0,0.0,0.73,,,,,,,,,,,,,,,,,,
2467,0,0.0,0.73,,,,,,,,,,,,,,,,,,
2469,0,0.0,0.74,,,,,,,,,,,,,,,,,,
2471,0,0.0,0.73,,,,,,,,,,,,,,,,,,
2473,0,0.01,0.73,,-0.1,0.1,0.97,-0,1,-1,0.14,,,,,,,,,,
2475,0,0.0,0.73,,,,,,,,,,,,,,,,,,
2477,0,0.0,0.73,,,,,,,,,,,,,,,,,,
2479,0,0.0,0.73,,,,,,,,,,,,,,,,,,
2481,0,0.0,0.73,,,,,,,,,,,,,,,,,,
2483,0,0.0,0.74,,-0.19,0.12,1.05,0,1,-1,0.22,12,1920,0,0.0,0.0,0.0,0.0,0,0,0.0
2485,0,0.0,0.73,,,,,,,,,,,,,,,,,,
2487,0,0.0,0.73,,,,,,,,,,,,,,,,,,
2489,0,0.0,0.73,,,,,,,,,,,,,,,,,,
2491,0,0.0,0.73,,,,,,,,,,,,,,,,,,
2493,0,0.0,0.73,,-0.01,0.02,0.99,0,0,-1,0.02,,,,,,,,,,
2495,0,0.0,0.73,,,,,,,,,,,,,,,,,,
2497,0,0.0,0.74,,,,,,,,,,,,,,,,,,
2499,0,0.0,0.74,,,,,,,,,,,,,,,,,,
2501,0,0.0,0.73,,,,,,,,,,,,,,,,,,
2503,0,0.0,0.73,,-0.17,0.07,0.98,-0,2,-1,0.18,12,1980,0,0.0,0.0,0.0,0.0,0,0,0.0
2505,0,0.0,0.73,,,,,,,,,,,,,,,,,,
2507,0,0.0,0.73,,,,,,,,,,,,,,,,,,
2509,0,0.0,0.73,,,,,,,,,,,,,,,,,,
2511,0,0.0,0.74,,,,,,,,,,,,,,,,,,
2513,0,0.0,0.73,,-0.25,0.13,1.06,1,0,-1,0.28,,,,,,,,,,
2515,0,0.0,0.73,,,,,,,,,,,,,,,,,,
2517,0,0.0,0.74,,,,,,,,,,,,,,,,,,
2519,0,0.0,0.74,,,,,,,,,,,,,,,,,,
2521,0,0.0,0.74,,,,,,,,,,,,,,,,,,
2523,0,0.0,0.74,,-0.05,0.02,0.92,0,-1,-1,0.05,12,1980,0,0.0,0.0,0.0,0.0,0,0,0.0
2525,0,0.0,0.74,,,,,,,,,,,,,,,,,,
2527,0,0.0,0.73,,,,,,,,,,,,,,,,,,
2529,0,0.0,0.75,,,,,,,,,,,,,,,,,,
2531,0,0.0,0.73,,,,,,,,,,,,,,,,,,
2533,0,0.0,0.74,,-0.1,0.08,0.97,0,1,-1,0.13,,,,,,,,,,
2535,0,0.0,0.74,,,,,,,,,,,,,,,,,,
2537,0,0.0,0.74,,,,,,,,,,,,,,,,,,
2539,0,0.0,0.74,,,,,,,,,,,,,,,,,,
2541,0,0.0,0.74,,,,,,,,,,,,,,,,,,
2543,0,0.0,0.74,,-0.24,0.13,1.03,1,-0,-1,0.28,12,1920,0,0.0,0.0,0.0,0.0,0,0,0.0
2545,0,0.0,0.74,,,,,,,,,,,,,,,,,,
2547,0,0.0,0.74,,,,,,,,,,,,,,,,,,
2549,0,0.0,0.74,,,,,,,,,,,,,,,,,,
2551,0,0.0,0.74,,,,,,,,,,,,,,,,,,
2553,0,0.0,0.74,,-0.04,0.03,1.01,0,-1,-1,0.05,,,,,,,,,,
2555,0,0.0,0.74,,,,,,,,,,,,,,,,,,
2557,0,0.0,0.74,,,,,,,,,,,,,,,,,,
2559,0,0.0,0.74,,,,,,,,,,,,,,,,,,
2561,0,0.0,0.74,,,,,,,,,,,,,,,,,,
2563,0,0.0,0.74,,-0.14,0.07,0.97,-0,1,-1,0.16,12,1980,0,0.0,0.0,0.0,0.0,0,0,0.0
2565,0,0.0,0.74,,,,,,,,,,,,,,,,,,
2567,0,0.0,0.74,,,,,,,,,,,,,,,,,,
2569,0,0.0,0.74,,,,,,,,,,,,,,,,,,
2571,0,0.0,0.74,,,,,,,,,,,,,,,,,,
2573,0,0.0,0.74,,-0.22,0.11,1.05,0,-1,-1,0.25,,,,,,,,,,
2575,0,0.0,0.74,,,,,,,,,,,,,,,,,,
2577,0,0.0,0.74,,,,,,,,,,,,,,,,,,
2579,0,0.0,0.74,,,,,,,,,,,,,,,,,,
2581,0,0.0,0.74,,,,,,,,,,,,,,,,,,
2583,0,0.0,0.74,,-0.04,0.03,0.92,0,-1,-0,0.04,12,1980,0,0.0,0.0,0.0,0.0,0,0,0.0
2585,0,0.0,0.74,,,,,,,,,,,,,,,,,,
2587,0,0.0,0.75,,,,,,,,,,,,,,,,,,
2589,0,0.0,0.74,,,,,,,,,,,,,,,,,,
2591,0,0.0,0.76,,,,,,,,,,,,,,,,,,
2593,0,0.0,0.74,,-0.05,0.08,0.99,-0,0,-1,0.09,,,,,,,,,,
2595,0,0.0,0.74,,,,,,,,,,,,,,,,,,
2597,0,0.01,0.74,,,,,,,,,,,,,,,,,,
2599,0,0.0,0.74,,,,,,,,,,,,,,,,,,
2601,0,0.0,0.75,,,,,,,,,,,,,,,,,,
2603,0,0.0,0.74,,-0.21,0.11,1.04,0,-1,-1,0.23,12,1920,0,0.0,0.0,0.0,0.0,0,0,0.0
2605,0,0.0,0.74,,,,,,,,,,,,,,,,,,
2607,0,0.0,0.75,,,,,,,,,,,,,,,,,,
2609,0,0.0,0.75,,,,,,,,,,,,,,,,,,
2611,0,0.0,0.74,,,,,,,,,,,,,,,,,,
2613,0,0.0,0.75,,0.01,0.03,1.03,-0,-1,-0,0.03,,,,,,,,,,
2615,0,0.0,0.75,,,,,,,,,,,,,,,,,,
2617,0,0.0,0.75,,,,,,,,,,,,,,,,,,
2619,0,0.0,0.75,,,,,,,,,,,,,,,,,,
2621,0,0.0,0.76,,,,,,,,,,,,,,,,,,
2623,0,0.0,0.75,,-0.08,0.05,1.0,-0,0,-1,0.09,12,1980,0,0.0,0.0,0.0,0.0,0,0,0.0
2625,0,0.0,0.75,,,,,,,,,,,,,,,,,,
2627,0,0.0,0.75,,,,,,,,,,,,,,,,,,
2629,0,0.0,0.74,,,,,,,,,,,,,,,,,,
2631,0,0.01,0.75,,,,,,,,,,,,,,,,,,
2633,0,0.0,0.75,,-0.16,0.09,1.05,0,-1,-1,0.18,,,,,,,,,,
2635,0,0.0,0.75,,,,,,,,,,,,,,,,,,
2637,0,0.0,0.75,,,,,,,,,,,,,,,,,,
2639,0,0.0,0.75,,,,,,,,,,,,,,,,,,
2641,0,0.0,0.75,,,,,,,,,,,,,,,,,,
2643,0,0.0,0.75,,-0.0,0.02,0.93,0,-1,-0,0.02,12,1980,0,0.0,0.0,0.0,0.0,0,0,0.0
2645,0,0.0,0.75,,,,,,,,,,,,,,,,,,
2647,0,0.0,0.75,,,,,,,,,,,,,,,,,,
2649,0,0.0,0.75,,,,,,,,,,,,,,,,,,
2651,0,0.0,0.76,,,,,,,,,,,,,,,,,,
2653,0,0.0,0.75,,-0.0,0.08,1.0,-0,0,-0,0.08,,,,,,,,,,
2655,0,0.0,0.75,,,,,,,,,,,,,,,,,,
2657,0,0.0,0.75,,,,,,,,,,,,,,,,,,
2659,0,0.0,0.75,,,,,,,,,,,,,,,,,,
2661,0,0.0,0.75,,,,,,,,,,,,,,,,,,
2663,0,0.0,0.75,,-0.19,0.1,1.02,0,-0,-1,0.21,12,1920,0,0.0,0.0,0.0,0.0,0,0,0.0
2665,0,0.0,0.75,,,,,,,,,,,,,,,,,,
2667,0,0.0,0.75,,,,,,,,,,,,,,,,,,
2669,0,0.0,0.75,,,,,,,,,,,,,,,,,,
2671,0,0.0,0.75,,,,,,,,,,,,,,,,,,
2673,0,0.0,0.75,,0.03,0.03,1.01,0,-1,-0,0.04,,,,,,,,,,
2675,0,0.0,0.75,,,,,,,,,,,,,,,,,,
2677,0,0.0,0.75,,,,,,,,,,,,,,,,,,
2679,0,0.0,0.75,,,,,,,,,,,,,,,,,,
2681,0,0.0,0.77,,,,,,,,,,,,,,,,,,
2683,0,0.0,0.76,,-0.03,0.07,0.99,-0,0,-0,0.07,12,1980,0,0.0,0.0,0.0,0.0,0,0,0.0
2685,0,0.0,0.75,,,,,,,,,,,,,,,,,,
2687,0,0.0,0.75,,,,,,,,,,,,,,,,,,
2689,0,0.0,0.75,,,,,,,,,,,,,,,,,,
2691,0,0.0,0.75,,,,,,,,,,,,,,,,,,
2693,0,0.0,0.75,,-0.12,0.11,1.01,0,-1,-0,0.17,,,,,,,,,,
2695,0,0.0,0.75,,,,,,,,,,,,,,,,,,
2697,0,0.0,0.75,,,,,,,,,,,,,,,,,,
2699,0,0.0,0.75,,,,,,,,,,,,,,,,,,
2701,0,0.0,0.75,,,,,,,,,,,,,,,,,,
2703,0,0.0,0.76,,0.01,0.05,0.92,0,-1,-0,0.05,12,1980,0,0.0,0.0,0.0,0.0,0,0,0.0
2705,0,0.0,0.76,,,,,,,,,,,,,,,,,,
2707,0,0.0,0.76,,,,,,,,,,,,,,,,,,
2709,0,0.0,0.76,,,,,,,,,,,,,,,,,,
2711,0,0.0,0.76,,,,,,,,,,,,,,,,,,
2713,0,0.0,0.77,,0.0,0.1,1.02,-0,0,-0,0.1,,,,,,,,,,
2715,0,0.0,0.76,,,,,,,,,,,,,,,,,,
2717,0,0.0,0.76,,,,,,,,,,,,,,,,,,
2719,0,0.0,0.76,,,,,,,,,,,,,,,,,,
2721,0,0.0,0.75,,,,,,,,,,,,,,,,,,
2723,0,0.0,0.76,,-0.21,0.12,1.0,0,-0,-1,0.24,12,1920,0,0.0,0.0,0.0,0.0,0,0,0.0
2725,0,0.0,0.76,,,,,,,,,,,,,,,,,,
2727,0,0.0,0.76,,,,,,,,,,,,,,,,,,
2729,0,0.0,0.76,,,,,,,,,,,,,,,,,,
2731,0,0.0,0.75,,,,,,,,,,,,,,,,,,
2733,0,0.0,0.76,,-0.0,0.04,1.02,0,-0,-0,0.04,,,,,,,,,,
2735,0,0.0,0.76,,,,,,,,,,,,,,,,,,
2737,0,0.0,0.76,,,,,,,,,,,,,,,,,,
2739,0,0.0,0.76,,,,,,,,,,,,,,,,,,
2741,0,0.0,0.76,,,,,,,,,,,,,,,,,,
2743,0,0.0,0.77,,-0.04,0.08,0.99,-0,1,-0,0.08,12,1980,0,0.0,0.0,0.0,0.0,0,0,0.0
2745,0,0.0,0.76,,,,,,,,,,,,,,,,,,
2747,0,0.0,0.76,,,,,,,,,,,,,,,,,,
2749,0,0.0,0.76,,,,,,,,,,,,,,,,,,
2751,0,0.0,0.76,,,,,,,,,,,,,,,,,,
2753,0,0.0,0.76,,-0.14,0.12,0.99,0,-0,-1,0.18,,,,,,,,,,
2755,0,0.0,0.76,,,,,,,,,,,,,,,,,,
2757,0,0.0,0.76,,,,,,,,,,,,,,,,,,
2759,0,0.0,0.76,,,,,,,,,,,,,,,,,,
2761,0,0.0,0.76,,,,,,,,,,,,,,,,,,
2763,0,0.0,0.76,,-0.03,0.05,0.93,0,-0,-0,0.05,12,1980,0,0.0,0.0,0.0,0.0,0,0,0.0
2765,0,0.0,0.76,,,,,,,,,,,,,,,,,,
2767,0,0.0,0.76,,,,,,,,,,,,,,,,,,
2769,0,0.01,0.76,,,,,,,,,,,,,,,,,,
2771,0,0.0,0.76,,,,,,,,,,,,,,,,,,
2773,0,0.0,0.77,,-0.02,0.1,1.03,-0,1,-0,0.11,,,,,,,,,,
2775,0,0.0,0.76,,,,,,,,,,,,,,,,,,
2777,0,0.0,0.76,,,,,,,,,,,,,,,,,,
2779,0,0.0,0.76,,,,,,,,,,,,,,,,,,
2781,0,0.0,0.76,,,,,,,,,,,,,,,,,,
2783,0,0.0,0.76,,-0.22,0.11,0.97,0,-0,-1,0.25,12,1920,0,0.0,0.0,0.0,0.0,0,0,0.0
2785,0,0.0,0.76,,,,,,,,,,,,,,,,,,
2787,0,0.0,0.76,,,,,,,,,,,,,,,,,,
2789,0,0.0,0.76,,,,,,,,,,,,,,,,,,
2791,0,0.0,0.76,,,,,,,,,,,,,,,,,,
2793,0,0.0,0.76,,-0.04,0.04,1.02,0,-1,-0,0.05,,,,,,,,,,
2795,0,0.0,0.76,,,,,,,,,,,,,,,,,,
2797,0,0.01,0.76,,,,,,,,,,,,,,,,,,
2799,0,0.0,0.76,,,,,,,,,,,,,,,,,,
2801,0,0.0,0.76,,,,,,,,,,,,,,,,,,
2803,0,0.0,0.78,,-0.04,0.07,0.97,-0,0,-0,0.08,12,1980,0,0.0,0.0,0.0,0.0,0,0,0.0
2805,0,0.0,0.76,,,,,,,,,,,,,,,,,,
2807,0,0.0,0.77,,,,,,,,,,,,,,,,,,
2809,0,0.0,0.76,,,,,,,,,,,,,,,,,,
2811,0,0.01,0.76,,,,,,,,,,,,,,,,,,
2813,0,0.0,0.76,,-0.16,0.1,0.97,0,-0,-1,0.19,,,,,,,,,,
2815,0,0.0,0.76,,,,,,,,,,,,,,,,,,
2817,0,0.0,0.76,,,,,,,,,,,,,,,,,,
2819,0,0.0,0.76,,,,,,,,,,,,,,,,,,
2821,0,0.0,0.77,,,,,,,,,,,,,,,,,,
2823,0,0.0,0.76,,-0.08,0.05,0.95,0,-1,-0,0.09,12,1980,0,0.0,0.0,0.0,0.0,0,0,0.0
2825,0,0.0,0.77,,,,,,,,,,,,,,,,,,
2827,0,0.0,0.77,,,,,,,,,,,,,,,,,,
2829,0,0.0,0.77,,,,,,,,,,,,,,,,,,
2831,0,0.01,0.77,,,,,,,,,,,,,,,,,,
2833,0,0.0,0.76,,-0.04,0.09,1.04,-0,0,-0,0.1,,,,,,,,,,
2835,0,0.0,0.77,,,,,,,,,,,,,,,,,,
2837,0,0.0,0.77,,,,,,,,,,,,,,,,,,
2839,0,0.0,0.77,,,,,,,,,,,,,,,,,,
2841,0,0.0,0.77,,,,,,,,,,,,,,,,,,
2843,0,0.0,0.76,,-0.21,0.08,0.96,0,-0,-1,0.22,12,1920,0,0.0,0.0,0.0,0.0,0,0,0.0
2845,0,0.0,0.77,,,,,,,,,,,,,,,,,,
2847,0,0.0,0.77,,,,,,,,,,,,,,,,,,
2849,0,0.0,0.77,,,,,,,,,,,,,,,,,,
2851,0,0.0,0.77,,,,,,,,,,,,,,,,,,
2853,0,0.0,0.77,,-0.06,0.05,1.01,0,-1,-0,0.08,,,,,,,,,,
2855,0,0.0,0.77,,,,,,,,,,,,,,,,,,
2857,0,0.0,0.77,,,,,,,,,,,,,,,,,,
2859,0,0.0,0.77,,,,,,,,,,,,,,,,,,
2861,0,0.0,0.77,,,,,,,,,,,,,,,,,,
2863,0,0.0,0.77,,-0.02,0.06,0.98,-0,-0,-0,0.07,12,1920,0,0.0,0.0,0.0,0.0,0,0,0.0
2865,0,0.0,0.78,,,,,,,,,,,,,,,,,,
2867,0,0.0,0.77,,,,,,,,,,,,,,,,,,
2869,0,0.0,0.77,,,,,,,,,,,,,,,,,,
2871,0,0.0,0.77,,,,,,,,,,,,,,,,,,
2873,0,0.0,0.77,,-0.15,0.1,0.94,0,-0,-1,0.18,,,,,,,,,,
2875,0,0.0,0.77,,,,,,,,,,,,,,,,,,
2877,0,0.0,0.77,,,,,,,,,,,,,,,,,,
2879,0,0.0,0.77,,,,,,,,,,,,,,,,,,
2881,0,0.0,0.77,,,,,,,,,,,,,,,,,,
2883,0,0.0,0.77,,-0.1,0.06,0.97,0,-1,-0,0.12,12,1920,0,0.0,0.0,0.0,0.0,0,0,0.0
2885,0,0.0,0.77,,,,,,,,,,,,,,,,,,
2887,0,0.0,0.77,,,,,,,,,,,,,,,,,,
2889,0,0.0,0.77,,,,,,,,,,,,,,,,,,
2891,0,0.0,0.77,,,,,,,,,,,,,,,,,,
2893,0,0.01,0.77,,-0.03,0.08,1.04,-0,-0,-0,0.08,,,,,,,,,,
2895,0,0.0,0.78,,,,,,,,,,,,,,,,,,
2897,0,0.0,0.77,,,,,,,,,,,,,,,,,,
2899,0,0.0,0.77,,,,,,,,,,,,,,,,,,
2901,0,0.0,0.77,,,,,,,,,,,,,,,,,,
2903,0,0.0,0.77,,-0.16,0.08,0.94,0,-1,-1,0.17,12,1920,0,0.0,0.0,0.0,0.0,0,0,0.0
2905,0,0.0,0.77,,,,,,,,,,,,,,,,,,
2907,0,0.01,0.77,,,,,,,,,,,,,,,,,,
2909,0,0.0,0.77,,,,,,,,,,,,,,,,,,
2911,0,0.0,0.77,,,,,,,,,,,,,,,,,,
2913,0,0.0,0.77,,-0.07,0.06,1.01,0,-1,-0,0.09,,,,,,,,,,
2915,0,0.0,0.78,,,,,,,,,,,,,,,,,,
2917,0,0.0,0.77,,,,,,,,,,,,,,,,,,
2919,0,0.0,0.77,,,,,,,,,,,,,,,,,,
2921,0,0.01,0.77,,,,,,,,,,,,,,,,,,
2923,0,0.0,0.77,,0.0,0.05,0.98,-0,-0,-0,0.05,12,1920,0,0.0,0.0,0.0,0.0,0,0,0.0
2925,0,0.0,0.79,,,,,,,,,,,,,,,,,,
2927,0,0.0,0.78,,,,,,,,,,,,,,,,,,
2929,0,0.0,0.78,,,,,,,,,,,,,,,,,,
2931,0,0.0,0.78,,,,,,,,,,,,,,,,,,
2933,0,0.0,0.77,,-0.13,0.11,0.94,-0,-0,-1,0.17,,,,,,,,,,
2935,0,0.01,0.78,,,,,,,,,,,,,,,,,,
2937,0,0.0,0.77,,,,,,,,,,,,,,,,,,
2939,0,0.0,0.78,,,,,,,,,,,,,,,,,,
2941,0,0.0,0.77,,,,,,,,,,,,,,,,,,
2943,0,0.0,0.77,,-0.12,0.08,1.0,0,-1,-1,0.15,12,1920,0,0.0,0.0,0.0,0.0,0,0,0.0
2945,0,0.0,0.78,,,,,,,,,,,,,,,,,,
2947,0,0.0,0.78,,,,,,,,,,,,,,,,,,
2949,0,0.0,0.78,,,,,,,,,,,,,,,,,,
2951,0,0.0,0.78,,,,,,,,,,,,,,,,,,
2953,0,0.0,0.78,,-0.01,0.05,1.03,-0,-1,-0,0.06,,,,,,,,,,
2955,0,0.0,0.78,,,,,,,,,,,,,,,,,,
2957,0,0.0,0.79,,,,,,,,,,,,,,,,,,
2959,0,0.0,0.78,,,,,,,,,,,,,,,,,,
2961,0,0.0,0.78,,,,,,,,,,,,,,,,,,
2963,0,0.0,0.78,,-0.1,0.08,0.93,-0,-1,-1,0.13,0,1920,0,0.0,0.0,0.0,0.0,0,0,0.0
2965,0,0.0,0.78,,,,,,,,,,,,,,,,,,
2967,0,0.0,0.78,,,,,,,,,,,,,,,,,,
2969,0,0.0,0.78,,,,,,,,,,,,,,,,,,
2971,0,0.0,0.78,,,,,,,,,,,,,,,,,,
2973,0,0.0,0.78,,-0.06,0.08,1.04,0,-0,-0,0.1,,,,,,,,,,
2975,0,0.0,0.78,,,,,,,,,,,,,,,,,,
2977,0,0.0,0.78,,,,,,,,,,,,,,,,,,
2979,0,0.0,0.78,,,,,,,,,,,,,,,,,,
2981,0,0.0,0.78,,,,,,,,,,,,,,,,,,
2983,0,0.01,0.78,,0.03,0.03,0.99,-0,-1,0,0.05,0,1920,0,0.0,0.0,0.0,0.0,0,0,0.0
2985,0,0.0,0.78,,,,,,,,,,,,,,,,,,
2987,0,0.0,0.8,,,,,,,,,,,,,,,,,,
2989,0,0.0,0.78,,,,,,,,,,,,,,,,,,
2991,0,0.0,0.78,,,,,,,,,,,,,,,,,,
2993,0,0.0,0.78,,-0.11,0.1,0.94,0,0,-0,0.15,,,,,,,,,,
2995,0,0.0,0.78,,,,,,,,,,,,,,,,,,
2997,0,0.0,0.78,,,,,,,,,,,,,,,,,,
2999,0,0.0,0.78,,,,,,,,,,,,,,,,,,
3001,0,0.0,0.78,,,,,,,,,,,,,,,,,,
3003,0,0.0,0.78,,-0.15,0.1,1.05,0,-0,-0,0.18,0,1980,0,0.0,0.0,0.0,0.0,0,0,0.0
3005,0,0.0,0.78,,,,,,,,,,,,,,,,,,
3007,0,0.0,0.78,,,,,,,,,,,,,,,,,,
3009,0,0.0,0.78,,,,,,,,,,,,,,,,,,
3011,0,0.01,0.78,,,,,,,,,,,,,,,,,,
3013,0,0.0,0.78,,-0.01,0.03,1.01,-0,-0,-0,0.03,,,,,,,,,,
3015,0,0.0,0.78,,,,,,,,,,,,,,,,,,
3017,0,0.0,0.79,,,,,,,,,,,,,,,,,,
3019,0,0.0,0.78,,,,,,,,,,,,,,,,,,
3021,0,0.0,0.78,,,,,,,,,,,,,,,,,,
3023,0,0.0,0.78,,-0.08,0.08,0.94,0,-0,-1,0.11,0,1920,0,0.0,0.0,0.0,0.0,0,0,0.0
3025,0,0.0,0.78,,,,,,,,,,,,,,,,,,
3027,0,0.0,0.78,,,,,,,,,,,,,,,,,,
3029,0,0.0,0.78,,,,,,,,,,,,,,,,,,
3031,0,0.01,0.78,,,,,,,,,,,,,,,,,,
3033,0,0.0,0.78,,-0.12,0.1,1.03,1,-0,-0,0.15,,,,,,,,,,
3035,0,0.0,0.78,,,,,,,,,,,,,,,,,,
3037,0,0.0,0.78,,,,,,,,,,,,,,,,,,
3039,0,0.0,0.79,,,,,,,,,,,,,,,,,,
3041,0,0.0,0.79,,,,,,,,,,,,,,,,,,
3043,0,0.0,0.78,13.42,0.03,0.05,1.01,-0,-0,-0,0.06,0,1920,0,0.0,0.0,0.0,0.0,0,0,0.0
3045,0,0.0,0.78,,,,,,,,,,,,,,,,,,
3047,0,0.0,0.8,,,,,,,,,,,,,,,,,,
3049,0,0.0,0.79,,,,,,,,,,,,,,,,,,
3051,0,0.0,0.78,,,,,,,,,,,,,,,,,,
3053,0,0.0,0.79,,-0.11,0.1,0.94,-0,0,-1,0.15,,,,,,,,,,
3055,0,0.0,0.79,,,,,,,,,,,,,,,,,,
3057,0,0.0,0.78,,,,,,,,,,,,,,,,,,
3059,0,0.0,0.79,,,,,,,,,,,,,,,,,,
3061,0,0.0,0.79,,,,,,,,,,,,,,,,,,
3063,0,0.0,0.79,,-0.18,0.11,1.06,0,-0,-1,0.21,0,1920,0,0.0,0.0,0.0,0.0,0,0,0.0
3065,0,0.0,0.79,,,,,,,,,,,,,,,,,,
3067,0,0.0,0.79,,,,,,,,,,,,,,,,,,
3069,0,0.0,0.79,,,,,,,,,,,,,,,,,,
3071,0,0.0,0.79,,,,,,,,,,,,,,,,,,
3073,0,0.0,0.79,,-0.02,0.03,0.97,-0,-1,-0,0.03,,,,,,,,,,
3075,0,0.0,0.79,,,,,,,,,,,,,,,,,,
3077,0,0.0,0.79,,,,,,,,,,,,,,,,,,
3079,0,0.0,0.8,,,,,,,,,,,,,,,,,,
3081,0,0.0,0.79,,,,,,,,,,,,,,,,,,
3083,0,0.0,0.79,,-0.06,0.08,0.95,-0,-0,-1,0.1,0,1920,0,0.0,0.0,0.0,0.0,0,0,0.0
3085,0,0.0,0.79,,,,,,,,,,,,,,,,,,
3087,0,0.0,0.79,,,,,,,,,,,,,,,,,,
3089,0,0.0,0.79,,,,,,,,,,,,,,,,,,
3091,0,0.0,0.79,,,,,,,,,,,,,,,,,,
3093,0,0.0,0.79,,-0.16,0.12,1.04,0,-0,-0,0.2,,,,,,,,,,
3095,0,0.0,0.79,,,,,,,,,,,,,,,,,,
3097,0,0.0,0.79,,,,,,,,,,,,,,,,,,
3099,0,0.0,0.79,,,,,,,,,,,,,,,,,,
3101,0,0.0,0.79,,,,,,,,,,,,,,,,,,
3103,0,0.0,0.79,,0.01,0.04,1.01,-0,-1,-0,0.04,0,1920,0,0.0,0.0,0.0,0.0,0,0,0.0
