"Interval"|"ms"|0|0|1,"Utc"|"ms"|0|0|1,"Analog4"|"Volts"|0.0|5.0|500,"Analog5"|"Volts"|0.0|5.0|500,"Battery"|"Volts"|0.0|20.0|1,"AccelX"|"G"|-3.0|3.0|200,"AccelY"|"G"|-3.0|3.0|200,"AccelZ"|"G"|-3.0|3.0|200,"Yaw"|"Deg/Sec"|-120|120|200,"Pitch"|"Deg/Sec"|-120|120|200,"Roll"|"Deg/Sec"|-120|120|200,"Gsum"|"G"|0.0|3.0|200,"RPM2"|"rpm"|0|8000|50,"RPM3"|"rpm"|0|8000|50,"GPIO1"|""|0.0|1.0|50,"Latitude"|"Degrees"|-180.0|180.0|50,"Longitude"|"Degrees"|-180.0|180.0|50,"Speed"|"mph"|0.0|150.0|50,"Altitude"|"ft"|0.0|4000.0|50,"GPSSats"|""|0|20|50,"GPSQual"|""|0|5|50,"GPSDOP"|""|0.0|20.0|50
101,0,0.0,0.25,,,,,,,,,,,,,,,,,,
103,0,0.0,0.26,,0.03,0.07,1.02,0,-1,-0,0.08,0,1980,0,0.0,0.0,0.0,0.0,0,0,0.0
105,0,0.0,0.26,,,,,,,,,,,,,,,,,,
107,0,0.0,0.26,,,,,,,,,,,,,,,,,,
109,0,0.0,0.26,,,,,,,,,,,,,,,,,,
111,0,0.0,0.26,,,,,,,,,,,,,,,,,,
113,0,0.01,0.26,,-0.08,0.09,0.94,-0,0,-0,0.12,,,,,,,,,,
115,0,0.0,0.25,,,,,,,,,,,,,,,,,,
117,0,0.0,0.26,,,,,,,,,,,,,,,,,,
119,0,0.0,0.26,,,,,,,,,,,,,,,,,,
121,0,0.0,0.26,,,,,,,,,,,,,,,,,,
123,0,0.0,0.26,,-0.1,0.05,1.04,1,0,-0,0.11,0,1980,0,0.0,0.0,0.0,0.0,0,0,0.0
125,0,0.0,0.25,,,,,,,,,,,,,,,,,,
127,0,0.01,0.26,,,,,,,,,,,,,,,,,,
129,0,0.0,0.26,,,,,,,,,,,,,,,,,,
131,0,0.0,0.26,,,,,,,,,,,,,,,,,,
133,0,0.0,0.26,,0.06,0.05,0.97,0,-1,0,0.07,,,,,,,,,,
135,0,0.0,0.27,,,,,,,,,,,,,,,,,,
137,0,0.0,0.26,,,,,,,,,,,,,,,,,,
139,0,0.0,0.26,,,,,,,,,,,,,,,,,,
141,0,0.0,0.26,,,,,,,,,,,,,,,,,,
143,0,0.0,0.26,,-0.08,0.1,0.93,-0,0,-1,0.13,0,1980,0,0.0,0.0,0.0,0.0,0,0,0.0
145,0,0.0,0.26,,,,,,,,,,,,,,,,,,
147,0,0.01,0.26,,,,,,,,,,,,,,,,,,
149,0,0.0,0.26,,,,,,,,,,,,,,,,,,
151,0,0.0,0.26,,,,,,,,,,,,,,,,,,
153,0,0.0,0.26,,-0.15,0.08,0.96,0,-0,-0,0.17,,,,,,,,,,
155,0,0.0,0.26,,,,,,,,,,,,,,,,,,
157,0,0.0,0.26,,,,,,,,,,,,,,,,,,
159,0,0.0,0.26,,,,,,,,,,,,,,,,,,
161,0,0.01,0.26,,,,,,,,,,,,,,,,,,
163,0,0.0,0.26,,0.04,0.06,1.0,0,-0,-0,0.07,0,1980,0,0.0,0.0,0.0,0.0,0,0,0.0
165,0,0.0,0.27,,,,,,,,,,,,,,,,,,
167,0,0.0,0.26,,,,,,,,,,,,,,,,,,
169,0,0.0,0.26,,,,,,,,,,,,,,,,,,
171,0,0.0,0.26,,,,,,,,,,,,,,,,,,
173,0,0.0,0.26,,-0.09,0.07,0.92,-0,0,-0,0.12,,,,,,,,,,
175,0,0.01,0.26,,,,,,,,,,,,,,,,,,
177,0,0.0,0.26,,,,,,,,,,,,,,,,,,
179,0,0.0,0.26,,,,,,,,,,,,,,,,,,
181,0,0.0,0.26,,,,,,,,,,,,,,,,,,
183,0,0.0,0.26,,-0.09,0.05,1.03,1,-0,-0,0.1,0,1980,0,0.0,0.0,0.0,0.0,0,0,0.0
185,0,0.0,0.26,,,,,,,,,,,,,,,,,,
187,0,0.0,0.26,,,,,,,,,,,,,,,,,,
189,0,0.0,0.26,,,,,,,,,,,,,,,,,,
191,0,0.0,0.26,,,,,,,,,,,,,,,,,,
193,0,0.0,0.27,,0.06,0.04,0.97,0,-0,0,0.07,,,,,,,,,,
195,0,0.0,0.28,,,,,,,,,,,,,,,,,,
197,0,0.0,0.27,,,,,,,,,,,,,,,,,,
199,0,0.0,0.27,,,,,,,,,,,,,,,,,,
201,0,0.0,0.27,,,,,,,,,,,,,,,,,,
203,0,0.0,0.27,,-0.1,0.1,0.93,-0,0,-0,0.14,0,1980,0,0.0,0.0,0.0,0.0,0,0,0.0
205,0,0.0,0.26,,,,,,,,,,,,,,,,,,
207,0,0.0,0.27,,,,,,,,,,,,,,,,,,
209,0,0.01,0.27,,,,,,,,,,,,,,,,,,
211,0,0.0,0.27,,,,,,,,,,,,,,,,,,
213,0,0.0,0.26,,-0.16,0.07,0.98,0,-0,0,0.17,,,,,,,,,,
215,0,0.0,0.26,,,,,,,,,,,,,,,,,,
217,0,0.0,0.27,,,,,,,,,,,,,,,,,,
219,0,0.0,0.27,,,,,,,,,,,,,,,,,,
221,0,0.0,0.27,,,,,,,,,,,,,,,,,,
223,0,0.01,0.27,,0.04,0.08,0.99,-0,-0,-0,0.09,0,1980,0,0.0,0.0,0.0,0.0,0,0,0.0
225,0,0.0,0.28,,,,,,,,,,,,,,,,,,
227,0,0.0,0.27,,,,,,,,,,,,,,,,,,
229,0,0.0,0.27,,,,,,,,,,,,,,,,,,
231,0,0.0,0.27,,,,,,,,,,,,,,,,,,
233,0,0.0,0.27,,-0.12,0.07,0.91,-0,0,-1,0.14,,,,,,,,,,
235,0,0.0,0.27,,,,,,,,,,,,,,,,,,
237,0,0.01,0.27,,,,,,,,,,,,,,,,,,
239,0,0.0,0.27,,,,,,,,,,,,,,,,,,
241,0,0.0,0.27,,,,,,,,,,,,,,,,,,
243,0,0.0,0.26,,-0.09,0.03,1.03,0,-0,-0,0.09,0,1980,0,0.0,0.0,0.0,0.0,0,0,0.0
245,0,0.0,0.27,,,,,,,,,,,,,,,,,,
247,0,0.0,0.27,,,,,,,,,,,,,,,,,,
249,0,0.0,0.27,,,,,,,,,,,,,,,,,,
251,0,0.01,0.27,,,,,,,,,,,,,,,,,,
253,0,0.0,0.28,,0.05,0.03,0.94,-0,-0,0,0.06,,,,,,,,,,
255,0,0.0,0.28,,,,,,,,,,,,,,,,,,
257,0,0.0,0.28,,,,,,,,,,,,,,,,,,
259,0,0.0,0.27,,,,,,,,,,,,,,,,,,
261,0,0.0,0.27,,,,,,,,,,,,,,,,,,
263,0,0.0,0.27,,-0.12,0.12,0.94,-0,0,-0,0.17,0,1980,0,0.0,0.0,0.0,0.0,0,0,0.0
265,0,0.0,0.27,,,,,,,,,,,,,,,,,,
267,0,0.0,0.27,,,,,,,,,,,,,,,,,,
269,0,0.0,0.27,,,,,,,,,,,,,,,,,,
271,0,0.01,0.27,,,,,,,,,,,,,,,,,,
273,0,0.0,0.27,,-0.15,0.07,0.98,0,-0,0,0.16,,,,,,,,,,
275,0,0.0,0.27,,,,,,,,,,,,,,,,,,
277,0,0.0,0.27,,,,,,,,,,,,,,,,,,
279,0,0.0,0.27,,,,,,,,,,,,,,,,,,
281,0,0.0,0.27,,,,,,,,,,,,,,,,,,
283,0,0.0,0.27,,0.04,0.09,0.99,-0,-0,-0,0.1,0,1980,0,0.0,0.0,0.0,0.0,0,0,0.0
285,0,0.0,0.29,,,,,,,,,,,,,,,,,,
287,0,0.0,0.27,,,,,,,,,,,,,,,,,,
289,0,0.0,0.27,,,,,,,,,,,,,,,,,,
291,0,0.0,0.27,,,,,,,,,,,,,,,,,,
293,0,0.0,0.27,,-0.14,0.06,0.91,-0,-0,-1,0.16,,,,,,,,,,
295,0,0.0,0.27,,,,,,,,,,,,,,,,,,
297,0,0.0,0.27,,,,,,,,,,,,,,,,,,
299,0,0.0,0.27,,,,,,,,,,,,,,,,,,
301,0,0.0,0.27,,,,,,,,,,,,,,,,,,
303,0,0.0,0.28,,-0.09,0.01,1.03,0,-0,-0,0.09,0,1980,0,0.0,0.0,0.0,0.0,0,0,0.0
305,0,0.0,0.27,,,,,,,,,,,,,,,,,,
307,0,0.0,0.28,,,,,,,,,,,,,,,,,,
309,0,0.0,0.28,,,,,,,,,,,,,,,,,,
311,0,0.0,0.28,,,,,,,,,,,,,,,,,,
313,0,0.01,0.28,,0.04,0.04,0.95,-0,-0,0,0.06,,,,,,,,,,
315,0,0.0,0.29,,,,,,,,,,,,,,,,,,
317,0,0.0,0.28,,,,,,,,,,,,,,,,,,
319,0,0.0,0.28,,,,,,,,,,,,,,,,,,
321,0,0.0,0.28,,,,,,,,,,,,,,,,,,
323,0,0.0,0.28,,-0.11,0.11,0.94,-0,-0,-0,0.16,0,1980,0,0.0,0.0,0.0,0.0,0,0,0.0
325,0,0.01,0.28,,,,,,,,,,,,,,,,,,
327,0,0.01,0.28,,,,,,,,,,,,,,,,,,
329,0,0.0,0.28,,,,,,,,,,,,,,,,,,
331,0,0.0,0.28,,,,,,,,,,,,,,,,,,
333,0,0.01,0.28,,-0.14,0.07,0.99,1,-1,-0,0.16,,,,,,,,,,
335,0,0.0,0.28,,,,,,,,,,,,,,,,,,
337,0,0.0,0.28,,,,,,,,,,,,,,,,,,
339,0,0.0,0.28,,,,,,,,,,,,,,,,,,
341,0,0.0,0.28,,,,,,,,,,,,,,,,,,
343,0,0.0,0.28,,0.05,0.08,0.98,-0,-0,-0,0.1,0,1980,0,0.0,0.0,0.0,0.0,0,0,0.0
345,0,0.0,0.29,,,,,,,,,,,,,,,,,,
347,0,0.0,0.28,,,,,,,,,,,,,,,,,,
349,0,0.0,0.28,,,,,,,,,,,,,,,,,,
351,0,0.0,0.28,,,,,,,,,,,,,,,,,,
353,0,0.0,0.28,,-0.14,0.08,0.92,-0,0,-1,0.16,,,,,,,,,,
355,0,0.0,0.28,,,,,,,,,,,,,,,,,,
357,0,0.0,0.28,,,,,,,,,,,,,,,,,,
359,0,0.0,0.28,,,,,,,,,,,,,,,,,,
361,0,0.0,0.28,,,,,,,,,,,,,,,,,,
363,0,0.0,0.28,,-0.08,0.02,1.04,0,-0,0,0.09,0,1920,0,0.0,0.0,0.0,0.0,0,0,0.0
365,0,0.0,0.28,,,,,,,,,,,,,,,,,,
367,0,0.0,0.28,,,,,,,,,,,,,,,,,,
369,0,0.0,0.28,,,,,,,,,,,,,,,,,,
371,0,0.0,0.28,,,,,,,,,,,,,,,,,,
373,0,0.0,0.29,,0.07,0.05,0.94,-0,-0,0,0.08,,,,,,,,,,
375,0,0.0,0.3,,,,,,,,,,,,,,,,,,
377,0,0.0,0.29,,,,,,,,,,,,,,,,,,
379,0,0.0,0.29,,,,,,,,,,,,,,,,,,
381,0,0.0,0.29,,,,,,,,,,,,,,,,,,
383,0,0.0,0.29,,-0.13,0.13,0.94,-0,-0,-0,0.18,0,1980,0,0.0,0.0,0.0,0.0,0,0,0.0
385,0,0.0,0.28,,,,,,,,,,,,,,,,,,
387,0,0.0,0.29,,,,,,,,,,,,,,,,,,
389,0,0.01,0.28,,,,,,,,,,,,,,,,,,
391,0,0.0,0.28,,,,,,,,,,,,,,,,,,
393,0,0.0,0.29,,-0.15,0.08,0.97,0,-1,-0,0.17,,,,,,,,,,
395,0,0.0,0.28,,,,,,,,,,,,,,,,,,
397,0,0.0,0.28,,,,,,,,,,,,,,,,,,
399,0,0.0,0.29,,,,,,,,,,,,,,,,,,
401,0,0.0,0.28,,,,,,,,,,,,,,,,,,
403,0,0.0,0.29,,0.05,0.1,0.99,-0,-0,-0,0.11,0,1980,0,0.0,0.0,0.0,0.0,0,0,0.0
405,0,0.0,0.3,,,,,,,,,,,,,,,,,,
407,0,0.0,0.29,,,,,,,,,,,,,,,,,,
409,0,0.0,0.29,,,,,,,,,,,,,,,,,,
411,0,0.0,0.29,,,,,,,,,,,,,,,,,,
413,0,0.0,0.29,,-0.14,0.09,0.93,-0,0,-1,0.16,,,,,,,,,,
415,0,0.0,0.29,,,,,,,,,,,,,,,,,,
417,0,0.0,0.29,,,,,,,,,,,,,,,,,,
419,0,0.0,0.29,,,,,,,,,,,,,,,,,,
421,0,0.0,0.29,,,,,,,,,,,,,,,,,,
423,0,0.0,0.29,,-0.09,0.04,1.03,0,-0,-0,0.1,0,1920,0,0.0,0.0,0.0,0.0,0,0,0.0
425,0,0.0,0.29,,,,,,,,,,,,,,,,,,
427,0,0.0,0.29,,,,,,,,,,,,,,,,,,
429,0,0.0,0.29,,,,,,,,,,,,,,,,,,
431,0,0.0,0.29,,,,,,,,,,,,,,,,,,
433,0,0.0,0.29,,0.08,0.04,0.94,-0,-0,-0,0.08,,,,,,,,,,
435,0,0.0,0.3,,,,,,,,,,,,,,,,,,
437,0,0.0,0.29,,,,,,,,,,,,,,,,,,
439,0,0.0,0.29,,,,,,,,,,,,,,,,,,
441,0,0.0,0.29,,,,,,,,,,,,,,,,,,
443,0,0.0,0.29,,-0.12,0.11,0.94,-0,-0,-0,0.17,0,1980,0,0.0,0.0,0.0,0.0,0,0,0.0
445,0,0.0,0.29,,,,,,,,,,,,,,,,,,
447,0,0.0,0.29,,,,,,,,,,,,,,,,,,
449,0,0.0,0.29,,,,,,,,,,,,,,,,,,
451,0,0.0,0.29,,,,,,,,,,,,,,,,,,
453,0,0.0,0.29,,-0.15,0.06,0.96,1,-1,-0,0.17,,,,,,,,,,
455,0,0.0,0.29,,,,,,,,,,,,,,,,,,
457,0,0.0,0.29,,,,,,,,,,,,,,,,,,
459,0,0.0,0.29,,,,,,,,,,,,,,,,,,
461,0,0.0,0.29,,,,,,,,,,,,,,,,,,
463,0,0.0,0.29,,0.05,0.09,1.0,0,-0,-0,0.1,0,1980,0,0.0,0.0,0.0,0.0,0,0,0.0
465,0,0.0,0.3,,,,,,,,,,,,,,,,,,
467,0,0.0,0.3,,,,,,,,,,,,,,,,,,
469,0,0.0,0.3,,,,,,,,,,,,,,,,,,
471,0,0.0,0.3,,,,,,,,,,,,,,,,,,
473,0,0.0,0.29,,-0.13,0.09,0.93,-0,0,-1,0.16,,,,,,,,,,
475,0,0.0,0.3,,,,,,,,,,,,,,,,,,
477,0,0.0,0.29,,,,,,,,,,,,,,,,,,
479,0,0.0,0.29,,,,,,,,,,,,,,,,,,
481,0,0.0,0.29,,,,,,,,,,,,,,,,,,
483,0,0.0,0.3,,-0.09,0.03,1.03,1,-0,-0,0.09,0,1920,0,0.0,0.0,0.0,0.0,0,0,0.0
485,0,0.0,0.3,,,,,,,,,,,,,,,,,,
487,0,0.0,0.3,,,,,,,,,,,,,,,,,,
489,0,0.0,0.3,,,,,,,,,,,,,,,,,,
491,0,0.0,0.3,,,,,,,,,,,,,,,,,,
493,0,0.0,0.3,,0.08,0.03,0.94,0,-0,0,0.08,,,,,,,,,,
495,0,0.0,0.31,,,,,,,,,,,,,,,,,,
497,0,0.0,0.3,,,,,,,,,,,,,,,,,,
499,0,0.0,0.3,,,,,,,,,,,,,,,,,,
501,0,0.0,0.3,,,,,,,,,,,,,,,,,,
503,0,0.0,0.3,,-0.11,0.11,0.92,-0,0,-0,0.16,0,1980,0,0.0,0.0,0.0,0.0,0,0,0.0
505,0,0.0,0.3,,,,,,,,,,,,,,,,,,
507,0,0.0,0.3,,,,,,,,,,,,,,,,,,
509,0,0.0,0.3,,,,,,,,,,,,,,,,,,
511,0,0.0,0.3,,,,,,,,,,,,,,,,,,
513,0,0.0,0.3,,-0.16,0.07,0.96,1,-0,-0,0.17,,,,,,,,,,
515,0,0.0,0.3,,,,,,,,,,,,,,,,,,
517,0,0.0,0.3,,,,,,,,,,,,,,,,,,
519,0,0.0,0.3,,,,,,,,,,,,,,,,,,
521,0,0.0,0.3,,,,,,,,,,,,,,,,,,
523,0,0.0,0.3,,0.04,0.08,1.0,-0,-0,-0,0.09,0,1980,0,0.0,0.0,0.0,0.0,0,0,0.0
525,0,0.0,0.31,,,,,,,,,,,,,,,,,,
527,0,0.01,0.3,,,,,,,,,,,,,,,,,,
529,0,0.0,0.3,,,,,,,,,,,,,,,,,,
531,0,0.0,0.3,,,,,,,,,,,,,,,,,,
533,0,0.0,0.3,,-0.13,0.08,0.9,-0,0,-1,0.15,,,,,,,,,,
535,0,0.0,0.3,,,,,,,,,,,,,,,,,,
537,0,0.0,0.3,,,,,,,,,,,,,,,,,,
539,0,0.0,0.3,,,,,,,,,,,,,,,,,,
541,0,0.0,0.3,,,,,,,,,,,,,,,,,,
543,0,0.0,0.3,,-0.09,0.03,1.04,1,-0,-0,0.09,0,1980,0,0.0,0.0,0.0,0.0,0,0,0.0
545,0,0.0,0.3,,,,,,,,,,,,,,,,,,
547,0,0.0,0.3,,,,,,,,,,,,,,,,,,
549,0,0.0,0.3,,,,,,,,,,,,,,,,,,
551,0,0.0,0.31,,,,,,,,,,,,,,,,,,
553,0,0.0,0.3,,0.05,0.02,0.94,-0,-0,0,0.05,,,,,,,,,,
555,0,0.0,0.32,,,,,,,,,,,,,,,,,,
557,0,0.0,0.31,,,,,,,,,,,,,,,,,,
559,0,0.0,0.31,,,,,,,,,,,,,,,,,,
561,0,0.01,0.31,,,,,,,,,,,,,,,,,,
563,0,0.0,0.31,,-0.11,0.1,0.93,-0,-0,-0,0.15,0,1980,0,0.0,0.0,0.0,0.0,0,0,0.0
565,0,0.0,0.31,,,,,,,,,,,,,,,,,,
567,0,0.0,0.3,,,,,,,,,,,,,,,,,,
569,0,0.0,0.31,,,,,,,,,,,,,,,,,,
571,0,0.0,0.31,,,,,,,,,,,,,,,,,,
573,0,0.0,0.31,,-0.14,0.07,0.95,0,-0,-0,0.16,,,,,,,,,,
575,0,0.01,0.3,,,,,,,,,,,,,,,,,,
577,0,0.0,0.31,,,,,,,,,,,,,,,,,,
579,0,0.0,0.31,,,,,,,,,,,,,,,,,,
581,0,0.0,0.3,,,,,,,,,,,,,,,,,,
583,0,0.0,0.31,,0.04,0.08,1.0,0,-0,-0,0.09,0,1980,0,0.0,0.0,0.0,0.0,0,0,0.0
585,0,0.0,0.32,,,,,,,,,,,,,,,,,,
587,0,0.0,0.31,,,,,,,,,,,,,,,,,,
589,0,0.0,0.31,,,,,,,,,,,,,,,,,,
591,0,0.0,0.31,,,,,,,,,,,,,,,,,,
593,0,0.0,0.31,,-0.15,0.06,0.9,0,0,-1,0.16,,,,,,,,,,
595,0,0.0,0.31,,,,,,,,,,,,,,,,,,
597,0,0.0,0.31,,,,,,,,,,,,,,,,,,
599,0,0.0,0.31,,,,,,,,,,,,,,,,,,
601,0,0.0,0.31,,,,,,,,,,,,,,,,,,
603,0,0.0,0.31,,-0.09,0.01,1.04,0,-1,0,0.09,0,1980,0,0.0,0.0,0.0,0.0,0,0,0.0
605,0,0.0,0.31,,,,,,,,,,,,,,,,,,
607,0,0.0,0.31,,,,,,,,,,,,,,,,,,
609,0,0.01,0.31,,,,,,,,,,,,,,,,,,
611,0,0.0,0.31,,,,,,,,,,,,,,,,,,
613,0,0.0,0.32,,0.05,0.03,0.95,0,-0,0,0.06,,,,,,,,,,
615,0,0.0,0.31,,,,,,,,,,,,,,,,,,
617,0,0.0,0.31,,,,,,,,,,,,,,,,,,
619,0,0.0,0.31,,,,,,,,,,,,,,,,,,
621,0,0.0,0.31,,,,,,,,,,,,,,,,,,
623,0,0.01,0.31,,-0.12,0.1,0.93,0,-0,-0,0.16,0,2040,0,0.0,0.0,0.0,0.0,0,0,0.0
625,0,0.0,0.31,,,,,,,,,,,,,,,,,,
627,0,0.0,0.32,,,,,,,,,,,,,,,,,,
629,0,0.0,0.31,,,,,,,,,,,,,,,,,,
631,0,0.0,0.31,,,,,,,,,,,,,,,,,,
633,0,0.0,0.31,,-0.14,0.07,0.96,1,-1,-0,0.15,,,,,,,,,,
635,0,0.0,0.31,,,,,,,,,,,,,,,,,,
637,0,0.0,0.31,,,,,,,,,,,,,,,,,,
639,0,0.0,0.31,,,,,,,,,,,,,,,,,,
641,0,0.0,0.31,,,,,,,,,,,,,,,,,,
643,0,0.0,0.32,,0.02,0.09,1.01,0,-0,-0,0.09,0,1980,0,0.0,0.0,0.0,0.0,0,0,0.0
645,0,0.0,0.32,,,,,,,,,,,,,,,,,,
647,0,0.0,0.32,,,,,,,,,,,,,,,,,,
649,0,0.0,0.31,,,,,,,,,,,,,,,,,,
651,0,0.0,0.32,,,,,,,,,,,,,,,,,,
653,0,0.0,0.31,,-0.18,0.08,0.94,-0,0,-1,0.19,,,,,,,,,,
655,0,0.0,0.32,,,,,,,,,,,,,,,,,,
657,0,0.0,0.32,,,,,,,,,,,,,,,,,,
659,0,0.0,0.32,,,,,,,,,,,,,,,,,,
661,0,0.0,0.32,,,,,,,,,,,,,,,,,,
663,0,0.0,0.31,,-0.09,0.04,1.05,0,-1,0,0.1,0,1980,0,0.0,0.0,0.0,0.0,0,0,0.0
665,0,0.0,0.32,,,,,,,,,,,,,,,,,,
667,0,0.0,0.32,,,,,,,,,,,,,,,,,,
669,0,0.0,0.32,,,,,,,,,,,,,,,,,,
671,0,0.0,0.32,,,,,,,,,,,,,,,,,,
673,0,0.0,0.33,,0.01,0.04,0.95,-0,0,0,0.05,,,,,,,,,,
675,0,0.0,0.32,,,,,,,,,,,,,,,,,,
677,0,0.0,0.32,,,,,,,,,,,,,,,,,,
679,0,0.0,0.32,,,,,,,,,,,,,,,,,,
681,0,0.0,0.32,,,,,,,,,,,,,,,,,,
683,0,0.0,0.32,,-0.14,0.15,0.93,-0,-0,-0,0.21,0,1980,0,0.0,0.0,0.0,0.0,0,0,0.0
685,0,0.01,0.32,,,,,,,,,,,,,,,,,,
687,0,0.0,0.32,,,,,,,,,,,,,,,,,,
689,0,0.0,0.32,,,,,,,,,,,,,,,,,,
691,0,0.0,0.32,,,,,,,,,,,,,,,,,,
693,0,0.0,0.32,,-0.13,0.05,0.88,0,-1,-0,0.14,,,,,,,,,,
695,0,0.0,0.32,,,,,,,,,,,,,,,,,,
697,0,0.0,0.32,,,,,,,,,,,,,,,,,,
699,0,0.01,0.32,,,,,,,,,,,,,,,,,,
701,0,0.0,0.32,,,,,,,,,,,,,,,,,,
703,0,0.0,0.33,,-0.01,0.11,0.96,-0,0,-0,0.11,0,1980,0,0.0,0.0,0.0,0.0,0,0,0.0
705,0,0.0,0.32,,,,,,,,,,,,,,,,,,
707,0,0.0,0.32,,,,,,,,,,,,,,,,,,
709,0,0.0,0.32,,,,,,,,,,,,,,,,,,
711,0,0.0,0.32,,,,,,,,,,,,,,,,,,
713,0,0.0,0.32,,-0.26,0.11,0.94,-0,0,-1,0.28,,,,,,,,,,
715,0,0.0,0.32,,,,,,,,,,,,,,,,,,
717,0,0.0,0.32,,,,,,,,,,,,,,,,,,
719,0,0.0,0.32,,,,,,,,,,,,,,,,,,
721,0,0.0,0.32,,,,,,,,,,,,,,,,,,
723,0,0.0,0.32,,-0.07,0.02,1.02,0,-1,-0,0.08,0,1980,0,0.0,0.0,0.0,0.0,0,0,0.0
725,0,0.0,0.32,,,,,,,,,,,,,,,,,,
727,0,0.0,0.33,,,,,,,,,,,,,,,,,,
729,0,0.0,0.33,,,,,,,,,,,,,,,,,,
731,0,0.0,0.33,,,,,,,,,,,,,,,,,,
733,0,0.01,0.34,,-0.03,0.05,0.96,-0,0,-0,0.06,,,,,,,,,,
735,0,0.0,0.33,,,,,,,,,,,,,,,,,,
737,0,0.0,0.33,,,,,,,,,,,,,,,,,,
739,0,0.0,0.33,,,,,,,,,,,,,,,,,,
741,0,0.0,0.33,,,,,,,,,,,,,,,,,,
743,0,0.0,0.33,,-0.21,0.12,1.01,-0,-0,-1,0.24,0,1980,0,0.0,0.0,0.0,0.0,0,0,0.0
745,0,0.0,0.33,,,,,,,,,,,,,,,,,,
747,0,0.0,0.33,,,,,,,,,,,,,,,,,,
749,0,0.0,0.33,,,,,,,,,,,,,,,,,,
751,0,0.0,0.33,,,,,,,,,,,,,,,,,,
753,0,0.0,0.33,,-0.12,0.02,0.93,0,-1,-0,0.12,,,,,,,,,,
755,0,0.0,0.33,,,,,,,,,,,,,,,,,,
757,0,0.0,0.33,,,,,,,,,,,,,,,,,,
759,0,0.0,0.33,,,,,,,,,,,,,,,,,,
761,0,0.0,0.33,,,,,,,,,,,,,,,,,,
763,0,0.0,0.34,,-0.02,0.09,1.02,-0,-0,-0,0.09,0,1980,0,0.0,0.0,0.0,0.0,0,0,0.0
765,0,0.0,0.33,,,,,,,,,,,,,,,,,,
767,0,0.0,0.33,,,,,,,,,,,,,,,,,,
769,0,0.0,0.33,,,,,,,,,,,,,,,,,,
771,0,0.0,0.33,,,,,,,,,,,,,,,,,,
773,0,0.0,0.33,,-0.29,0.09,0.98,-0,-0,-1,0.3,,,,,,,,,,
775,0,0.0,0.33,,,,,,,,,,,,,,,,,,
777,0,0.0,0.33,,,,,,,,,,,,,,,,,,
779,0,0.0,0.33,,,,,,,,,,,,,,,,,,
781,0,0.0,0.33,,,,,,,,,,,,,,,,,,
783,0,0.0,0.33,,-0.07,0.01,1.02,0,-1,-0,0.07,0,1980,0,0.0,0.0,0.0,0.0,0,0,0.0
785,0,0.0,0.33,,,,,,,,,,,,,,,,,,
787,0,0.0,0.33,,,,,,,,,,,,,,,,,,
789,0,0.0,0.33,,,,,,,,,,,,,,,,,,
791,0,0.0,0.33,,,,,,,,,,,,,,,,,,
793,0,0.0,0.35,,-0.04,0.04,0.96,-0,0,-0,0.06,,,,,,,,,,
795,0,0.0,0.34,,,,,,,,,,,,,,,,,,
797,0,0.0,0.34,,,,,,,,,,,,,,,,,,
799,0,0.0,0.34,,,,,,,,,,,,,,,,,,
801,0,0.0,0.33,,,,,,,,,,,,,,,,,,
803,0,0.0,0.33,,-0.24,0.09,1.02,-0,-0,-1,0.25,0,1980,0,0.0,0.0,0.0,0.0,0,0,0.0
805,0,0.0,0.34,,,,,,,,,,,,,,,,,,
807,0,0.0,0.34,,,,,,,,,,,,,,,,,,
809,0,0.0,0.33,,,,,,,,,,,,,,,,,,
811,0,0.0,0.33,,,,,,,,,,,,,,,,,,
813,0,0.0,0.34,,-0.14,0.03,0.94,0,-1,0,0.15,,,,,,,,,,
815,0,0.0,0.33,,,,,,,,,,,,,,,,,,
817,0,0.0,0.33,,,,,,,,,,,,,,,,,,
819,0,0.0,0.34,,,,,,,,,,,,,,,,,,
821,0,0.0,0.34,,,,,,,,,,,,,,,,,,
823,0,0.01,0.35,,-0.05,0.1,1.01,-0,0,-0,0.11,0,1980,0,0.0,0.0,0.0,0.0,0,0,0.0
825,0,0.0,0.34,,,,,,,,,,,,,,,,,,
827,0,0.0,0.34,,,,,,,,,,,,,,,,,,
829,0,0.0,0.33,,,,,,,,,,,,,,,,,,
831,0,0.0,0.34,,,,,,,,,,,,,,,,,,
833,0,0.0,0.34,,-0.32,0.11,0.98,0,0,-1,0.34,,,,,,,,,,
835,0,0.0,0.34,,,,,,,,,,,,,,,,,,
837,0,0.01,0.34,,,,,,,,,,,,,,,,,,
839,0,0.0,0.34,,,,,,,,,,,,,,,,,,
841,0,0.0,0.34,,,,,,,,,,,,,,,,,,
843,0,0.0,0.34,,-0.09,0.03,1.0,0,-1,-0,0.09,0,1980,0,0.0,0.0,0.0,0.0,0,0,0.0
845,0,0.0,0.34,,,,,,,,,,,,,,,,,,
847,0,0.0,0.34,,,,,,,,,,,,,,,,,,
849,0,0.0,0.34,,,,,,,,,,,,,,,,,,
851,0,0.01,0.34,,,,,,,,,,,,,,,,,,
853,0,0.0,0.35,,-0.06,0.06,0.95,-0,1,-0,0.08,,,,,,,,,,
855,0,0.0,0.34,,,,,,,,,,,,,,,,,,
857,0,0.0,0.33,,,,,,,,,,,,,,,,,,
859,0,0.0,0.33,,,,,,,,,,,,,,,,,,
861,0,0.0,0.33,,,,,,,,,,,,,,,,,,
863,0,0.0,0.33,,-0.26,0.1,1.0,0,0,-1,0.28,0,1980,0,0.0,0.0,0.0,0.0,0,0,0.0
865,0,0.0,0.33,,,,,,,,,,,,,,,,,,
867,0,0.0,0.33,,,,,,,,,,,,,,,,,,
869,0,0.0,0.33,,,,,,,,,,,,,,,,,,
871,0,0.0,0.33,,,,,,,,,,,,,,,,,,
873,0,0.0,0.33,,-0.15,0.04,0.93,0,-0,-0,0.15,,,,,,,,,,
875,0,0.0,0.33,,,,,,,,,,,,,,,,,,
877,0,0.0,0.33,,,,,,,,,,,,,,,,,,
879,0,0.0,0.32,,,,,,,,,,,,,,,,,,
881,0,0.0,0.33,,,,,,,,,,,,,,,,,,
883,0,0.0,0.34,,-0.09,0.11,1.05,-0,1,-1,0.14,0,1980,0,0.0,0.0,0.0,0.0,0,0,0.0
885,0,0.01,0.33,,,,,,,,,,,,,,,,,,
887,0,0.0,0.33,,,,,,,,,,,,,,,,,,
889,0,0.0,0.33,,,,,,,,,,,,,,,,,,
891,0,0.0,0.32,,,,,,,,,,,,,,,,,,
893,0,0.0,0.32,,-0.39,0.11,1.02,0,1,-1,0.41,,,,,,,,,,
895,0,0.0,0.33,,,,,,,,,,,,,,,,,,
897,0,0.0,0.32,,,,,,,,,,,,,,,,,,
899,0,0.01,0.32,,,,,,,,,,,,,,,,,,
901,0,0.0,0.32,,,,,,,,,,,,,,,,,,
903,0,0.0,0.33,,-0.12,0.03,1.01,0,-0,-1,0.12,0,1980,0,0.0,0.0,0.0,0.0,0,0,0.0
905,0,0.0,0.32,,,,,,,,,,,,,,,,,,
907,0,0.0,0.32,,,,,,,,,,,,,,,,,,
909,0,0.0,0.32,,,,,,,,,,,,,,,,,,
911,0,0.0,0.32,,,,,,,,,,,,,,,,,,
913,0,0.0,0.34,,-0.08,0.06,0.94,0,1,-1,0.1,,,,,,,,,,
915,0,0.0,0.32,,,,,,,,,,,,,,,,,,
917,0,0.0,0.33,,,,,,,,,,,,,,,,,,
919,0,0.0,0.32,,,,,,,,,,,,,,,,,,
921,0,0.0,0.32,,,,,,,,,,,,,,,,,,
923,0,0.0,0.32,,-0.29,0.1,0.99,0,-0,-1,0.3,0,1980,0,0.0,0.0,0.0,0.0,0,0,0.0
925,0,0.0,0.32,,,,,,,,,,,,,,,,,,
927,0,0.01,0.32,,,,,,,,,,,,,,,,,,
929,0,0.0,0.33,,,,,,,,,,,,,,,,,,
931,0,0.0,0.33,,,,,,,,,,,,,,,,,,
933,0,0.0,0.33,,-0.14,0.03,0.87,1,-1,-1,0.14,,,,,,,,,,
935,0,0.0,0.33,,,,,,,,,,,,,,,,,,
937,0,0.0,0.33,,,,,,,,,,,,,,,,,,
939,0,0.0,0.33,,,,,,,,,,,,,,,,,,
941,0,0.0,0.33,,,,,,,,,,,,,,,,,,
943,0,0.0,0.34,,-0.05,0.09,1.01,0,0,-1,0.1,0,1920,0,0.0,0.0,0.0,0.0,0,0,0.0
945,0,0.0,0.33,,,,,,,,,,,,,,,,,,
947,0,0.01,0.33,,,,,,,,,,,,,,,,,,
949,0,0.0,0.33,,,,,,,,,,,,,,,,,,
951,0,0.0,0.33,,,,,,,,,,,,,,,,,,
953,0,0.0,0.33,,-0.38,0.12,1.01,0,-0,-1,0.4,,,,,,,,,,
955,0,0.0,0.33,,,,,,,,,,,,,,,,,,
957,0,0.0,0.33,,,,,,,,,,,,,,,,,,
959,0,0.0,0.33,,,,,,,,,,,,,,,,,,
961,0,0.0,0.33,,,,,,,,,,,,,,,,,,
963,0,0.0,0.33,,-0.08,0.03,1.03,1,-1,-1,0.09,0,1920,0,0.0,0.0,0.0,0.0,0,0,0.0
965,0,0.0,0.34,,,,,,,,,,,,,,,,,,
967,0,0.0,0.33,,,,,,,,,,,,,,,,,,
969,0,0.0,0.34,,,,,,,,,,,,,,,,,,
971,0,0.0,0.34,,,,,,,,,,,,,,,,,,
973,0,0.0,0.35,,-0.03,0.04,0.95,0,-0,-1,0.05,,,,,,,,,,
975,0,0.01,0.34,,,,,,,,,,,,,,,,,,
977,0,0.0,0.34,,,,,,,,,,,,,,,,,,
979,0,0.0,0.34,,,,,,,,,,,,,,,,,,
981,0,0.0,0.34,,,,,,,,,,,,,,,,,,
983,0,0.0,0.34,,-0.28,0.1,1.03,0,-1,-1,0.3,0,1980,0,0.0,0.0,0.0,0.0,0,0,0.0
985,0,0.0,0.34,,,,,,,,,,,,,,,,,,
987,0,0.0,0.34,,,,,,,,,,,,,,,,,,
989,0,0.0,0.34,,,,,,,,,,,,,,,,,,
991,0,0.0,0.33,,,,,,,,,,,,,,,,,,
993,0,0.0,0.34,,-0.09,0.02,0.95,1,-1,-0,0.09,,,,,,,,,,
995,0,0.0,0.34,,,,,,,,,,,,,,,,,,
997,0,0.0,0.34,,,,,,,,,,,,,,,,,,
999,0,0.0,0.34,,,,,,,,,,,,,,,,,,
1001,0,0.0,0.34,,,,,,,,,,,,,,,,,,
1003,0,0.0,0.35,,-0.04,0.12,1.07,0,0,-1,0.13,0,1920,0,0.0,0.0,0.0,0.0,0,0,0.0
1005,0,0.0,0.34,,,,,,,,,,,,,,,,,,
1007,0,0.0,0.34,,,,,,,,,,,,,,,,,,
1009,0,0.01,0.34,,,,,,,,,,,,,,,,,,
1011,0,0.0,0.34,,,,,,,,,,,,,,,,,,
1013,0,0.0,0.34,,-0.4,0.1,1.04,0,0,-1,0.42,,,,,,,,,,
1015,0,0.0,0.34,,,,,,,,,,,,,,,,,,
1017,0,0.0,0.34,,,,,,,,,,,,,,,,,,
1019,0,0.0,0.34,,,,,,,,,,,,,,,,,,
1021,0,0.0,0.34,,,,,,,,,,,,,,,,,,
1023,0,0.01,0.34,,-0.05,0.03,1.05,1,-1,-0,0.06,0,1920,0,0.0,0.0,0.0,0.0,0,0,0.0
1025,0,0.0,0.34,,,,,,,,,,,,,,,,,,
1027,0,0.0,0.35,,,,,,,,,,,,,,,,,,
1029,0,0.0,0.34,,,,,,,,,,,,,,,,,,
1031,0,0.0,0.35,,,,,,,,,,,,,,,,,,
1033,0,0.0,0.36,,-0.01,0.07,0.93,0,0,-1,0.07,,,,,,,,,,
1035,0,0.0,0.35,,,,,,,,,,,,,,,,,,
1037,0,0.0,0.35,,,,,,,,,,,,,,,,,,
1039,0,0.0,0.35,,,,,,,,,,,,,,,,,,
1041,0,0.0,0.35,,,,,,,,,,,,,,,,,,
1043,0,0.0,0.35,13.14,-0.26,0.12,1.0,0,-1,-1,0.29,0,1980,0,0.0,0.0,0.0,0.0,0,0,0.0
1045,0,0.0,0.35,,,,,,,,,,,,,,,,,,
1047,0,0.0,0.35,,,,,,,,,,,,,,,,,,
1049,0,0.0,0.35,,,,,,,,,,,,,,,,,,
1051,0,0.01,0.35,,,,,,,,,,,,,,,,,,
1053,0,0.0,0.35,,-0.01,0.02,0.88,1,-1,-1,0.02,,,,,,,,,,
1055,0,0.0,0.35,,,,,,,,,,,,,,,,,,
1057,0,0.0,0.35,,,,,,,,,,,,,,,,,,
1059,0,0.0,0.35,,,,,,,,,,,,,,,,,,
1061,0,0.0,0.35,,,,,,,,,,,,,,,,,,
1063,0,0.0,0.36,,-0.0,0.11,1.03,-0,1,-1,0.11,0,1980,0,0.0,0.0,0.0,0.0,0,0,0.0
1065,0,0.01,0.35,,,,,,,,,,,,,,,,,,
1067,0,0.0,0.35,,,,,,,,,,,,,,,,,,
1069,0,0.0,0.35,,,,,,,,,,,,,,,,,,
1071,0,0.0,0.35,,,,,,,,,,,,,,,,,,
1073,0,0.0,0.35,,-0.36,0.12,1.03,0,0,-1,0.38,,,,,,,,,,
1075,0,0.0,0.35,,,,,,,,,,,,,,,,,,
1077,0,0.0,0.35,,,,,,,,,,,,,,,,,,
1079,0,0.0,0.35,,,,,,,,,,,,,,,,,,
1081,0,0.0,0.35,,,,,,,,,,,,,,,,,,
1083,0,0.0,0.35,,-0.01,0.02,1.04,1,-1,-1,0.02,0,1980,0,0.0,0.0,0.0,0.0,0,0,0.0
1085,0,0.01,0.35,,,,,,,,,,,,,,,,,,
1087,0,0.0,0.35,,,,,,,,,,,,,,,,,,
1089,0,0.0,0.35,,,,,,,,,,,,,,,,,,
1091,0,0.0,0.36,,,,,,,,,,,,,,,,,,
1093,0,0.0,0.35,,-0.05,0.05,0.94,-0,0,-1,0.07,,,,,,,,,,
1095,0,0.0,0.36,,,,,,,,,,,,,,,,,,
1097,0,0.0,0.36,,,,,,,,,,,,,,,,,,
1099,0,0.01,0.36,,,,,,,,,,,,,,,,,,
1101,0,0.0,0.36,,,,,,,,,,,,,,,,,,
1103,0,0.0,0.36,,-0.27,0.13,1.03,0,-1,-1,0.29,0,2040,0,0.0,0.0,0.0,0.0,0,0,0.0
1105,0,0.0,0.35,,,,,,,,,,,,,,,,,,
1107,0,0.0,0.35,,,,,,,,,,,,,,,,,,
1109,0,0.0,0.35,,,,,,,,,,,,,,,,,,
1111,0,0.0,0.35,,,,,,,,,,,,,,,,,,
1113,0,0.0,0.36,,0.02,0.02,0.88,1,-1,-1,0.02,,,,,,,,,,
1115,0,0.0,0.35,,,,,,,,,,,,,,,,,,
1117,0,0.0,0.36,,,,,,,,,,,,,,,,,,
1119,0,0.0,0.35,,,,,,,,,,,,,,,,,,
1121,0,0.0,0.37,,,,,,,,,,,,,,,,,,
1123,0,0.0,0.36,,-0.01,0.08,1.02,-0,1,-1,0.09,0,1980,0,0.0,0.0,0.0,0.0,0,0,0.0
1125,0,0.0,0.36,,,,,,,,,,,,,,,,,,
1127,0,0.0,0.35,,,,,,,,,,,,,,,,,,
1129,0,0.0,0.36,,,,,,,,,,,,,,,,,,
1131,0,0.0,0.36,,,,,,,,,,,,,,,,,,
1133,0,0.0,0.36,,-0.35,0.13,1.06,0,-0,-1,0.37,,,,,,,,,,
1135,0,0.0,0.36,,,,,,,,,,,,,,,,,,
1137,0,0.0,0.36,,,,,,,,,,,,,,,,,,
1139,0,0.0,0.36,,,,,,,,,,,,,,,,,,
1141,0,0.0,0.36,,,,,,,,,,,,,,,,,,
1143,0,0.0,0.36,,0.02,-0.0,1.02,1,-1,-1,0.02,0,1980,0,0.0,0.0,0.0,0.0,0,0,0.0
1145,0,0.0,0.36,,,,,,,,,,,,,,,,,,
1147,0,0.0,0.36,,,,,,,,,,,,,,,,,,
1149,0,0.0,0.36,,,,,,,,,,,,,,,,,,
1151,0,0.0,0.37,,,,,,,,,,,,,,,,,,
1153,0,0.0,0.36,,-0.09,0.05,1.0,-0,1,-1,0.1,,,,,,,,,,
1155,0,0.0,0.36,,,,,,,,,,,,,,,,,,
1157,0,0.0,0.36,,,,,,,,,,,,,,,,,,
1159,0,0.0,0.36,,,,,,,,,,,,,,,,,,
1161,0,0.0,0.36,,,,,,,,,,,,,,,,,,
1163,0,0.0,0.35,,-0.3,0.12,1.07,0,-0,-1,0.32,35,2040,0,0.0,0.0,0.0,0.0,0,0,0.0
1165,0,0.0,0.35,,,,,,,,,,,,,,,,,,
1167,0,0.0,0.35,,,,,,,,,,,,,,,,,,
1169,0,0.0,0.35,,,,,,,,,,,,,,,,,,
1171,0,0.0,0.35,,,,,,,,,,,,,,,,,,
1173,0,0.0,0.35,,0.02,-0.02,0.89,0,-0,-0,0.03,,,,,,,,,,
1175,0,0.0,0.35,,,,,,,,,,,,,,,,,,
1177,0,0.0,0.35,,,,,,,,,,,,,,,,,,
1179,0,0.0,0.35,,,,,,,,,,,,,,,,,,
1181,0,0.0,0.36,,,,,,,,,,,,,,,,,,
1183,0,0.0,0.35,,-0.05,0.08,1.01,-0,1,-1,0.09,35,1980,0,0.0,0.0,0.0,0.0,0,0,0.0
1185,0,0.0,0.35,,,,,,,,,,,,,,,,,,
1187,0,0.0,0.35,,,,,,,,,,,,,,,,,,
1189,0,0.0,0.35,,,,,,,,,,,,,,,,,,
1191,0,0.0,0.35,,,,,,,,,,,,,,,,,,
1193,0,0.0,0.35,,-0.35,0.13,1.07,0,0,-1,0.37,,,,,,,,,,
1195,0,0.0,0.35,,,,,,,,,,,,,,,,,,
1197,0,0.0,0.35,,,,,,,,,,,,,,,,,,
1199,0,0.0,0.35,,,,,,,,,,,,,,,,,,
1201,0,0.0,0.34,,,,,,,,,,,,,,,,,,
1203,0,0.0,0.35,,0.04,-0.0,0.95,0,-0,-1,0.04,35,1980,0,0.0,0.0,0.0,0.0,0,0,0.0
1205,0,0.0,0.35,,,,,,,,,,,,,,,,,,
1207,0,0.0,0.35,,,,,,,,,,,,,,,,,,
1209,0,0.01,0.35,,,,,,,,,,,,,,,,,,
1211,0,0.0,0.36,,,,,,,,,,,,,,,,,,
1213,0,0.0,0.35,,-0.13,0.05,0.99,-0,1,-1,0.14,,,,,,,,,,
1215,0,0.0,0.35,,,,,,,,,,,,,,,,,,
1217,0,0.0,0.35,,,,,,,,,,,,,,,,,,
1219,0,0.0,0.35,,,,,,,,,,,,,,,,,,
1221,0,0.0,0.35,,,,,,,,,,,,,,,,,,
1223,0,0.0,0.34,,-0.33,0.09,1.06,0,-0,-1,0.34,35,1980,0,0.0,0.0,0.0,0.0,0,0,0.0
1225,0,0.0,0.34,,,,,,,,,,,,,,,,,,
1227,0,0.0,0.34,,,,,,,,,,,,,,,,,,
1229,0,0.0,0.34,,,,,,,,,,,,,,,,,,
1231,0,0.0,0.34,,,,,,,,,,,,,,,,,,
1233,0,0.0,0.34,,0.02,-0.04,0.85,1,-1,-0,0.04,,,,,,,,,,
1235,0,0.0,0.34,,,,,,,,,,,,,,,,,,
1237,0,0.01,0.34,,,,,,,,,,,,,,,,,,
1239,0,0.0,0.35,,,,,,,,,,,,,,,,,,
1241,0,0.0,0.35,,,,,,,,,,,,,,,,,,
1243,0,0.0,0.34,,-0.06,0.07,0.99,-0,0,-1,0.09,35,1980,0,0.0,0.0,0.0,0.0,0,0,0.0
1245,0,0.0,0.34,,,,,,,,,,,,,,,,,,
1247,0,0.0,0.34,,,,,,,,,,,,,,,,,,
1249,0,0.0,0.34,,,,,,,,,,,,,,,,,,
1251,0,0.01,0.34,,,,,,,,,,,,,,,,,,
1253,0,0.0,0.34,,-0.33,0.12,1.07,0,-1,-1,0.35,,,,,,,,,,
1255,0,0.0,0.34,,,,,,,,,,,,,,,,,,
1257,0,0.0,0.34,,,,,,,,,,,,,,,,,,
1259,0,0.0,0.34,,,,,,,,,,,,,,,,,,
1261,0,0.01,0.34,,,,,,,,,,,,,,,,,,
1263,0,0.0,0.34,,0.06,-0.0,0.95,0,-1,-0,0.06,35,1980,0,0.0,0.0,0.0,0.0,0,0,0.0
1265,0,0.01,0.34,,,,,,,,,,,,,,,,,,
1267,0,0.0,0.35,,,,,,,,,,,,,,,,,,
1269,0,0.0,0.35,,,,,,,,,,,,,,,,,,
1271,0,0.0,0.36,,,,,,,,,,,,,,,,,,
1273,0,0.0,0.35,,-0.09,0.06,1.02,-0,0,-0,0.11,,,,,,,,,,
1275,0,0.0,0.35,,,,,,,,,,,,,,,,,,
1277,0,0.0,0.35,,,,,,,,,,,,,,,,,,
1279,0,0.0,0.35,,,,,,,,,,,,,,,,,,
1281,0,0.01,0.35,,,,,,,,,,,,,,,,,,
1283,0,0.0,0.35,,-0.3,0.1,1.1,0,-1,-0,0.32,35,1980,0,0.0,0.0,0.0,0.0,0,0,0.0
1285,0,0.0,0.35,,,,,,,,,,,,,,,,,,
1287,0,0.0,0.35,,,,,,,,,,,,,,,,,,
1289,0,0.0,0.35,,,,,,,,,,,,,,,,,,
1291,0,0.0,0.35,,,,,,,,,,,,,,,,,,
1293,0,0.0,0.35,,0.0,-0.01,0.91,1,-2,0,0.01,,,,,,,,,,
1295,0,0.0,0.35,,,,,,,,,,,,,,,,,,
1297,0,0.0,0.35,,,,,,,,,,,,,,,,,,
1299,0,0.0,0.35,,,,,,,,,,,,,,,,,,
1301,0,0.0,0.37,,,,,,,,,,,,,,,,,,
1303,0,0.0,0.36,,-0.07,0.09,1.01,0,0,-0,0.12,35,1980,0,0.0,0.0,0.0,0.0,0,0,0.0
1305,0,0.0,0.36,,,,,,,,,,,,,,,,,,
1307,0,0.0,0.35,,,,,,,,,,,,,,,,,,
1309,0,0.0,0.35,,,,,,,,,,,,,,,,,,
1311,0,0.0,0.36,,,,,,,,,,,,,,,,,,
1313,0,0.01,0.36,,-0.32,0.12,1.06,1,-1,-1,0.34,,,,,,,,,,
1315,0,0.0,0.35,,,,,,,,,,,,,,,,,,
1317,0,0.0,0.35,,,,,,,,,,,,,,,,,,
1319,0,0.0,0.35,,,,,,,,,,,,,,,,,,
1321,0,0.0,0.36,,,,,,,,,,,,,,,,,,
1323,0,0.0,0.36,,0.11,0.03,0.9,1,-1,-0,0.11,35,1980,0,0.0,0.0,0.0,0.0,0,0,0.0
1325,0,0.0,0.36,,,,,,,,,,,,,,,,,,
1327,0,0.01,0.36,,,,,,,,,,,,,,,,,,
1329,0,0.0,0.36,,,,,,,,,,,,,,,,,,
1345,0,0.0,0.36,,,,,,,,,,,,,,,,,,
1347,0,0.01,0.36,,,,,,,,,,,,,,,,,,
1349,0,0.0,0.36,,,,,,,,,,,,,,,,,,
1361,0,0.0,0.37,,,,,,,,,,,,,,,,,,
1363,0,0.0,0.36,,-0.14,0.1,1.08,0,1,-1,0.18,35,1980,0,0.0,0.0,0.0,0.0,0,0,0.0
1365,0,0.0,0.36,,,,,,,,,,,,,,,,,,
1367,0,0.0,0.36,,,,,,,,,,,,,,,,,,
1369,0,0.0,0.36,,,,,,,,,,,,,,,,,,
1371,0,0.0,0.36,,,,,,,,,,,,,,,,,,
1373,0,0.0,0.36,,-0.42,0.14,1.17,1,1,-1,0.44,,,,,,,,,,
1375,0,0.0,0.36,,,,,,,,,,,,,,,,,,
1377,0,0.0,0.36,,,,,,,,,,,,,,,,,,
1379,0,0.0,0.36,,,,,,,,,,,,,,,,,,
1381,0,0.0,0.36,,,,,,,,,,,,,,,,,,
1383,0,0.0,0.37,,-0.03,0.02,1.0,1,1,-0,0.04,35,1980,0,0.0,0.0,0.0,0.0,0,0,0.0
1385,0,0.0,0.37,,,,,,,,,,,,,,,,,,
1387,0,0.0,0.37,,,,,,,,,,,,,,,,,,
1389,0,0.0,0.38,,,,,,,,,,,,,,,,,,
1391,0,0.0,0.37,,,,,,,,,,,,,,,,,,
1393,0,0.0,0.37,,-0.21,0.08,0.97,0,2,-0,0.22,,,,,,,,,,
1395,0,0.0,0.37,,,,,,,,,,,,,,,,,,
1397,0,0.0,0.37,,,,,,,,,,,,,,,,,,
1399,0,0.0,0.37,,,,,,,,,,,,,,,,,,
1401,0,0.0,0.37,,,,,,,,,,,,,,,,,,
1403,0,0.0,0.37,,-0.32,0.17,1.0,1,1,-1,0.36,35,1980,0,0.0,0.0,0.0,0.0,0,0,0.0
1405,0,0.0,0.37,,,,,,,,,,,,,,,,,,
1407,0,0.0,0.37,,,,,,,,,,,,,,,,,,
1409,0,0.01,0.37,,,,,,,,,,,,,,,,,,
1411,0,0.0,0.37,,,,,,,,,,,,,,,,,,
1413,0,0.0,0.37,,0.05,0.02,0.76,1,-0,-1,0.06,,,,,,,,,,
1415,0,0.0,0.36,,,,,,,,,,,,,,,,,,
1417,0,0.0,0.36,,,,,,,,,,,,,,,,,,
1419,0,0.0,0.37,,,,,,,,,,,,,,,,,,
1421,0,0.0,0.36,,,,,,,,,,,,,,,,,,
1423,0,0.0,0.36,,-0.11,0.13,0.92,-0,1,-1,0.17,5,1980,0,0.0,0.0,0.0,0.0,0,0,0.0
1425,0,0.0,0.36,,,,,,,,,,,,,,,,,,
1427,0,0.0,0.36,,,,,,,,,,,,,,,,,,
1429,0,0.0,0.36,,,,,,,,,,,,,,,,,,
1431,0,0.0,0.36,,,,,,,,,,,,,,,,,,
1433,0,0.0,0.36,,-0.32,0.17,1.07,0,-0,-2,0.37,,,,,,,,,,
1435,0,0.0,0.36,,,,,,,,,,,,,,,,,,
1437,0,0.01,0.36,,,,,,,,,,,,,,,,,,
1439,0,0.0,0.36,,,,,,,,,,,,,,,,,,
1441,0,0.0,0.36,,,,,,,,,,,,,,,,,,
1443,0,0.0,0.36,,-0.03,0.01,1.0,0,-0,-1,0.03,5,1980,0,0.0,0.0,0.0,0.0,0,0,0.0
1445,0,0.0,0.36,,,,,,,,,,,,,,,,,,
1447,0,0.0,0.36,,,,,,,,,,,,,,,,,,
1449,0,0.0,0.37,,,,,,,,,,,,,,,,,,
1451,0,0.0,0.36,,,,,,,,,,,,,,,,,,
1453,0,0.0,0.36,,-0.31,0.07,1.11,-1,1,-1,0.32,,,,,,,,,,
1455,0,0.0,0.36,,,,,,,,,,,,,,,,,,
1457,0,0.0,0.35,,,,,,,,,,,,,,,,,,
1459,0,0.0,0.35,,,,,,,,,,,,,,,,,,
1461,0,0.0,0.35,,,,,,,,,,,,,,,,,,
1463,0,0.0,0.35,,-0.38,0.1,1.16,0,0,-1,0.4,5,1980,0,0.0,0.0,0.0,0.0,0,0,0.0
1465,0,0.01,0.35,,,,,,,,,,,,,,,,,,
1467,0,0.0,0.35,,,,,,,,,,,,,,,,,,
1469,0,0.0,0.35,,,,,,,,,,,,,,,,,,
1471,0,0.0,0.36,,,,,,,,,,,,,,,,,,
1473,0,0.0,0.36,,-0.02,-0.03,0.9,0,-0,-0,0.04,,,,,,,,,,
1475,0,0.0,0.36,,,,,,,,,,,,,,,,,,
1477,0,0.0,0.35,,,,,,,,,,,,,,,,,,
1479,0,0.0,0.37,,,,,,,,,,,,,,,,,,
1481,0,0.0,0.36,,,,,,,,,,,,,,,,,,
1483,0,0.0,0.36,,-0.17,0.09,0.96,-0,1,-1,0.19,5,1980,0,0.0,0.0,0.0,0.0,0,0,0.0
1485,0,0.0,0.36,,,,,,,,,,,,,,,,,,
1487,0,0.0,0.36,,,,,,,,,,,,,,,,,,
1489,0,0.0,0.36,,,,,,,,,,,,,,,,,,
1491,0,0.0,0.36,,,,,,,,,,,,,,,,,,
1493,0,0.0,0.36,,-0.24,0.09,0.99,1,-1,-1,0.25,,,,,,,,,,
1495,0,0.0,0.36,,,,,,,,,,,,,,,,,,
1497,0,0.0,0.36,,,,,,,,,,,,,,,,,,
1499,0,0.01,0.36,,,,,,,,,,,,,,,,,,
1501,0,0.0,0.36,,,,,,,,,,,,,,,,,,
1503,0,0.0,0.36,,0.1,0.01,0.84,0,-1,-1,0.1,5,1980,0,0.0,0.0,0.0,0.0,0,0,0.0
1505,0,0.0,0.36,,,,,,,,,,,,,,,,,,
1507,0,0.0,0.36,,,,,,,,,,,,,,,,,,
1509,0,0.0,0.38,,,,,,,,,,,,,,,,,,
1511,0,0.0,0.36,,,,,,,,,,,,,,,,,,
1513,0,0.01,0.36,,-0.17,0.08,0.98,0,0,-2,0.19,,,,,,,,,,
1515,0,0.0,0.36,,,,,,,,,,,,,,,,,,
1517,0,0.0,0.36,,,,,,,,,,,,,,,,,,
1519,0,0.0,0.36,,,,,,,,,,,,,,,,,,
1521,0,0.0,0.36,,,,,,,,,,,,,,,,,,
1523,0,0.0,0.36,,-0.32,0.05,1.15,1,-0,-2,0.32,5,2040,0,0.0,0.0,0.0,0.0,0,0,0.0
1525,0,0.0,0.36,,,,,,,,,,,,,,,,,,
1527,0,0.0,0.37,,,,,,,,,,,,,,,,,,
1529,0,0.0,0.37,,,,,,,,,,,,,,,,,,
1531,0,0.0,0.37,,,,,,,,,,,,,,,,,,
1533,0,0.0,0.37,,-0.04,-0.05,1.05,1,-0,-1,0.06,,,,,,,,,,
1535,0,0.0,0.37,,,,,,,,,,,,,,,,,,
1537,0,0.0,0.37,,,,,,,,,,,,,,,,,,
1539,0,0.0,0.38,,,,,,,,,,,,,,,,,,
1541,0,0.0,0.37,,,,,,,,,,,,,,,,,,
1543,0,0.0,0.37,,-0.28,0.07,1.1,1,2,-1,0.28,5,1980,0,0.0,0.0,0.0,0.0,0,0,0.0
1545,0,0.0,0.37,,,,,,,,,,,,,,,,,,
1547,0,0.0,0.37,,,,,,,,,,,,,,,,,,
1549,0,0.0,0.37,,,,,,,,,,,,,,,,,,
1551,0,0.0,0.37,,,,,,,,,,,,,,,,,,
1553,0,0.0,0.37,,-0.37,0.08,1.14,2,1,-1,0.38,,,,,,,,,,
1555,0,0.0,0.37,,,,,,,,,,,,,,,,,,
1557,0,0.0,0.37,,,,,,,,,,,,,,,,,,
1559,0,0.0,0.37,,,,,,,,,,,,,,,,,,
1561,0,0.01,0.38,,,,,,,,,,,,,,,,,,
1563,0,0.0,0.38,,-0.04,-0.0,0.92,1,1,-0,0.04,5,1980,0,0.0,0.0,0.0,0.0,0,0,0.0
1565,0,0.0,0.38,,,,,,,,,,,,,,,,,,
1567,0,0.0,0.38,,,,,,,,,,,,,,,,,,
1569,0,0.0,0.38,,,,,,,,,,,,,,,,,,
1571,0,0.0,0.37,,,,,,,,,,,,,,,,,,
1573,0,0.0,0.37,,-0.26,0.1,0.89,1,3,-1,0.28,,,,,,,,,,
1575,0,0.01,0.37,,,,,,,,,,,,,,,,,,
1577,0,0.0,0.37,,,,,,,,,,,,,,,,,,
1579,0,0.0,0.37,,,,,,,,,,,,,,,,,,
1581,0,0.0,0.36,,,,,,,,,,,,,,,,,,
1583,0,0.0,0.37,,-0.28,0.14,0.96,1,1,-1,0.31,10,1980,0,0.0,0.0,0.0,0.0,0,0,0.0
1585,0,0.0,0.37,,,,,,,,,,,,,,,,,,
1587,0,0.0,0.36,,,,,,,,,,,,,,,,,,
1589,0,0.0,0.36,,,,,,,,,,,,,,,,,,
1591,0,0.0,0.36,,,,,,,,,,,,,,,,,,
1593,0,0.0,0.36,,0.02,0.06,0.79,1,1,-2,0.06,,,,,,,,,,
1595,0,0.0,0.36,,,,,,,,,,,,,,,,,,
1597,0,0.0,0.36,,,,,,,,,,,,,,,,,,
1599,0,0.0,0.36,,,,,,,,,,,,,,,,,,
1601,0,0.0,0.36,,,,,,,,,,,,,,,,,,
1603,0,0.0,0.36,,-0.23,0.13,0.9,-0,1,-2,0.27,10,1980,0,0.0,0.0,0.0,0.0,0,0,0.0
1605,0,0.0,0.36,,,,,,,,,,,,,,,,,,
1607,0,0.0,0.37,,,,,,,,,,,,,,,,,,
1609,0,0.0,0.37,,,,,,,,,,,,,,,,,,
1611,0,0.0,0.37,,,,,,,,,,,,,,,,,,
1613,0,0.0,0.37,,-0.33,0.11,1.08,0,-0,-2,0.35,,,,,,,,,,
1615,0,0.0,0.37,,,,,,,,,,,,,,,,,,
1617,0,0.0,0.37,,,,,,,,,,,,,,,,,,
1619,0,0.0,0.37,,,,,,,,,,,,,,,,,,
1621,0,0.0,0.37,,,,,,,,,,,,,,,,,,
1623,0,0.0,0.37,,-0.04,-0.03,0.97,-0,-0,-1,0.05,10,1980,0,0.0,0.0,0.0,0.0,0,0,0.0
1625,0,0.0,0.37,,,,,,,,,,,,,,,,,,
1627,0,0.0,0.38,,,,,,,,,,,,,,,,,,
1629,0,0.0,0.37,,,,,,,,,,,,,,,,,,
1631,0,0.0,0.37,,,,,,,,,,,,,,,,,,
1633,0,0.0,0.37,,-0.3,0.08,0.97,-1,0,-1,0.31,,,,,,,,,,
1635,0,0.0,0.37,,,,,,,,,,,,,,,,,,
1637,0,0.01,0.37,,,,,,,,,,,,,,,,,,
1639,0,0.0,0.37,,,,,,,,,,,,,,,,,,
1641,0,0.0,0.37,,,,,,,,,,,,,,,,,,
1643,0,0.0,0.37,,-0.31,0.09,1.08,1,-1,-1,0.32,10,1980,0,0.0,0.0,0.0,0.0,0,0,0.0
1645,0,0.0,0.37,,,,,,,,,,,,,,,,,,
1647,0,0.0,0.38,,,,,,,,,,,,,,,,,,
1649,0,0.0,0.38,,,,,,,,,,,,,,,,,,
1651,0,0.01,0.38,,,,,,,,,,,,,,,,,,
1653,0,0.0,0.38,,0.03,-0.04,0.9,0,-2,-0,0.05,,,,,,,,,,
1655,0,0.0,0.38,,,,,,,,,,,,,,,,,,
1657,0,0.0,0.39,,,,,,,,,,,,,,,,,,
1659,0,0.0,0.38,,,,,,,,,,,,,,,,,,
1661,0,0.0,0.38,,,,,,,,,,,,,,,,,,
1663,0,0.0,0.38,,-0.12,0.06,0.89,-0,-1,-0,0.14,10,1980,0,0.0,0.0,0.0,0.0,0,0,0.0
1665,0,0.0,0.38,,,,,,,,,,,,,,,,,,
1667,0,0.0,0.38,,,,,,,,,,,,,,,,,,
1669,0,0.0,0.38,,,,,,,,,,,,,,,,,,
1671,0,0.0,0.38,,,,,,,,,,,,,,,,,,
1673,0,0.0,0.38,,-0.23,0.05,1.11,1,-1,-0,0.23,,,,,,,,,,
1675,0,0.0,0.38,,,,,,,,,,,,,,,,,,
1677,0,0.0,0.38,,,,,,,,,,,,,,,,,,
1679,0,0.0,0.37,,,,,,,,,,,,,,,,,,
1681,0,0.0,0.37,,,,,,,,,,,,,,,,,,
1683,0,0.0,0.37,,0.04,-0.06,0.98,0,-2,-0,0.07,20,1980,0,0.0,0.0,0.0,0.0,0,0,0.0
1685,0,0.0,0.37,,,,,,,,,,,,,,,,,,
1687,0,0.0,0.38,,,,,,,,,,,,,,,,,,
1689,0,0.0,0.37,,,,,,,,,,,,,,,,,,
1691,0,0.0,0.37,,,,,,,,,,,,,,,,,,
1693,0,0.0,0.37,,-0.26,0.1,1.03,-0,0,-1,0.28,,,,,,,,,,
1695,0,0.0,0.37,,,,,,,,,,,,,,,,,,
1697,0,0.0,0.37,,,,,,,,,,,,,,,,,,
1699,0,0.0,0.37,,,,,,,,,,,,,,,,,,
1701,0,0.0,0.37,,,,,,,,,,,,,,,,,,
1703,0,0.0,0.37,,-0.34,0.07,1.17,1,-0,-1,0.35,20,1980,0,0.0,0.0,0.0,0.0,0,0,0.0
1705,0,0.0,0.37,,,,,,,,,,,,,,,,,,
1707,0,0.0,0.37,,,,,,,,,,,,,,,,,,
1709,0,0.0,0.37,,,,,,,,,,,,,,,,,,
1711,0,0.0,0.37,,,,,,,,,,,,,,,,,,
1713,0,0.0,0.37,,-0.07,-0.05,1.01,1,0,-1,0.08,,,,,,,,,,
1715,0,0.0,0.37,,,,,,,,,,,,,,,,,,
1717,0,0.0,0.38,,,,,,,,,,,,,,,,,,
1719,0,0.0,0.37,,,,,,,,,,,,,,,,,,
1721,0,0.0,0.37,,,,,,,,,,,,,,,,,,
1723,0,0.0,0.37,,-0.25,0.05,0.92,0,1,-0,0.26,20,1980,0,0.0,0.0,0.0,0.0,0,0,0.0
1725,0,0.0,0.37,,,,,,,,,,,,,,,,,,
1727,0,0.01,0.37,,,,,,,,,,,,,,,,,,
1729,0,0.0,0.37,,,,,,,,,,,,,,,,,,
1731,0,0.0,0.38,,,,,,,,,,,,,,,,,,
1733,0,0.0,0.37,,-0.23,0.05,1.03,2,0,0,0.23,,,,,,,,,,
1735,0,0.0,0.37,,,,,,,,,,,,,,,,,,
1737,0,0.0,0.38,,,,,,,,,,,,,,,,,,
1739,0,0.0,0.37,,,,,,,,,,,,,,,,,,
1741,0,0.0,0.38,,,,,,,,,,,,,,,,,,
1743,0,0.0,0.38,,0.07,-0.03,0.83,1,-0,0,0.07,20,1980,0,0.0,0.0,0.0,0.0,0,0,0.0
1745,0,0.0,0.38,,,,,,,,,,,,,,,,,,
1747,0,0.01,0.39,,,,,,,,,,,,,,,,,,
1749,0,0.0,0.38,,,,,,,,,,,,,,,,,,
1751,0,0.0,0.38,,,,,,,,,,,,,,,,,,
1753,0,0.0,0.38,,-0.18,0.16,0.84,0,1,0,0.24,,,,,,,,,,
1755,0,0.0,0.38,,,,,,,,,,,,,,,,,,
1757,0,0.0,0.38,,,,,,,,,,,,,,,,,,
1759,0,0.0,0.38,,,,,,,,,,,,,,,,,,
1761,0,0.01,0.38,,,,,,,,,,,,,,,,,,
1763,0,0.0,0.38,,-0.23,0.12,1.04,1,-0,-0,0.26,20,1980,0,0.0,0.0,0.0,0.0,0,0,0.0
1765,0,0.0,0.38,,,,,,,,,,,,,,,,,,
1767,0,0.0,0.37,,,,,,,,,,,,,,,,,,
1769,0,0.0,0.37,,,,,,,,,,,,,,,,,,
1771,0,0.0,0.38,,,,,,,,,,,,,,,,,,
1773,0,0.0,0.37,,-0.06,-0.03,1.02,0,0,0,0.07,,,,,,,,,,
1775,0,0.0,0.37,,,,,,,,,,,,,,,,,,
1777,0,0.0,0.38,,,,,,,,,,,,,,,,,,
1779,0,0.0,0.37,,,,,,,,,,,,,,,,,,
1781,0,0.0,0.37,,,,,,,,,,,,,,,,,,
1783,0,0.0,0.37,,-0.33,0.1,1.04,0,1,0,0.34,20,1920,0,0.0,0.0,0.0,0.0,0,0,0.0
1785,0,0.0,0.37,,,,,,,,,,,,,,,,,,
1787,0,0.0,0.37,,,,,,,,,,,,,,,,,,
1789,0,0.01,0.37,,,,,,,,,,,,,,,,,,
1791,0,0.0,0.37,,,,,,,,,,,,,,,,,,
1793,0,0.0,0.37,,-0.39,0.1,1.18,1,1,0,0.41,,,,,,,,,,
1795,0,0.0,0.37,,,,,,,,,,,,,,,,,,
1797,0,0.0,0.37,,,,,,,,,,,,,,,,,,
1799,0,0.0,0.37,,,,,,,,,,,,,,,,,,
1801,0,0.0,0.37,,,,,,,,,,,,,,,,,,
1803,0,0.01,0.37,,-0.11,-0.0,0.96,1,1,0,0.11,20,1920,0,0.0,0.0,0.0,0.0,0,0,0.0
1805,0,0.0,0.37,,,,,,,,,,,,,,,,,,
1807,0,0.0,0.38,,,,,,,,,,,,,,,,,,
1809,0,0.0,0.37,,,,,,,,,,,,,,,,,,
1811,0,0.0,0.37,,,,,,,,,,,,,,,,,,
1813,0,0.0,0.37,,-0.33,0.14,0.81,0,2,-0,0.36,,,,,,,,,,
1815,0,0.0,0.37,,,,,,,,,,,,,,,,,,
1817,0,0.0,0.37,,,,,,,,,,,,,,,,,,
1819,0,0.0,0.37,,,,,,,,,,,,,,,,,,
1821,0,0.0,0.37,,,,,,,,,,,,,,,,,,
1823,0,0.01,0.37,,-0.28,0.16,0.87,1,-0,-1,0.32,20,1980,0,0.0,0.0,0.0,0.0,0,0,0.0
1825,0,0.0,0.37,,,,,,,,,,,,,,,,,,
1827,0,0.0,0.37,,,,,,,,,,,,,,,,,,
1829,0,0.0,0.38,,,,,,,,,,,,,,,,,,
1831,0,0.0,0.38,,,,,,,,,,,,,,,,,,
1833,0,0.0,0.38,,0.1,0.06,0.72,-0,-1,-1,0.12,,,,,,,,,,
1835,0,0.0,0.38,,,,,,,,,,,,,,,,,,
1837,0,0.01,0.39,,,,,,,,,,,,,,,,,,
1839,0,0.0,0.38,,,,,,,,,,,,,,,,,,
1841,0,0.0,0.38,,,,,,,,,,,,,,,,,,
1843,0,0.0,0.38,,-0.12,0.17,0.82,-1,-1,-1,0.21,20,1920,0,0.0,0.0,0.0,0.0,0,0,0.0
1845,0,0.0,0.38,,,,,,,,,,,,,,,,,,
1847,0,0.0,0.38,,,,,,,,,,,,,,,,,,
1849,0,0.0,0.38,,,,,,,,,,,,,,,,,,
1851,0,0.0,0.37,,,,,,,,,,,,,,,,,,
1853,0,0.0,0.37,,-0.27,0.11,1.11,0,-1,-0,0.29,,,,,,,,,,
1855,0,0.0,0.37,,,,,,,,,,,,,,,,,,
1857,0,0.0,0.37,,,,,,,,,,,,,,,,,,
1859,0,0.0,0.37,,,,,,,,,,,,,,,,,,
1861,0,0.0,0.37,,,,,,,,,,,,,,,,,,
1863,0,0.0,0.37,,-0.07,-0.05,1.13,-0,-1,0,0.09,25,1920,0,0.0,0.0,0.0,0.0,0,0,0.0
1865,0,0.01,0.37,,,,,,,,,,,,,,,,,,
1867,0,0.0,0.38,,,,,,,,,,,,,,,,,,
1869,0,0.0,0.37,,,,,,,,,,,,,,,,,,
1871,0,0.0,0.37,,,,,,,,,,,,,,,,,,
1873,0,0.0,0.37,,-0.39,0.09,1.09,-0,1,0,0.4,,,,,,,,,,
1875,0,0.0,0.37,,,,,,,,,,,,,,,,,,
1877,0,0.0,0.37,,,,,,,,,,,,,,,,,,
1879,0,0.0,0.37,,,,,,,,,,,,,,,,,,
1881,0,0.0,0.37,,,,,,,,,,,,,,,,,,
1883,0,0.0,0.37,,-0.39,0.05,1.17,1,-1,0,0.4,25,1980,0,0.0,0.0,0.0,0.0,0,0,0.0
1885,0,0.0,0.37,,,,,,,,,,,,,,,,,,
1887,0,0.0,0.37,,,,,,,,,,,,,,,,,,
1889,0,0.0,0.37,,,,,,,,,,,,,,,,,,
1891,0,0.0,0.37,,,,,,,,,,,,,,,,,,
1893,0,0.0,0.37,,0.04,-0.08,0.87,0,-1,1,0.09,,,,,,,,,,
1895,0,0.0,0.37,,,,,,,,,,,,,,,,,,
1897,0,0.0,0.38,,,,,,,,,,,,,,,,,,
1899,0,0.0,0.37,,,,,,,,,,,,,,,,,,
1901,0,0.0,0.37,,,,,,,,,,,,,,,,,,
1903,0,0.0,0.37,,-0.1,0.11,0.8,0,-1,-0,0.15,25,1980,0,0.0,0.0,0.0,0.0,0,0,0.0
1905,0,0.0,0.37,,,,,,,,,,,,,,,,,,
1907,0,0.0,0.37,,,,,,,,,,,,,,,,,,
1909,0,0.0,0.38,,,,,,,,,,,,,,,,,,
1911,0,0.0,0.38,,,,,,,,,,,,,,,,,,
1913,0,0.0,0.38,,-0.09,0.14,0.92,1,-2,-1,0.17,,,,,,,,,,
1915,0,0.0,0.38,,,,,,,,,,,,,,,,,,
1917,0,0.0,0.38,,,,,,,,,,,,,,,,,,
1919,0,0.0,0.38,,,,,,,,,,,,,,,,,,
1921,0,0.0,0.38,,,,,,,,,,,,,,,,,,
1923,0,0.0,0.38,,0.23,-0.01,0.85,0,-3,-1,0.23,25,1980,0,0.0,0.0,0.0,0.0,0,0,0.0
1925,0,0.0,0.38,,,,,,,,,,,,,,,,,,
1927,0,0.01,0.39,,,,,,,,,,,,,,,,,,
1929,0,0.0,0.38,,,,,,,,,,,,,,,,,,
1931,0,0.0,0.38,,,,,,,,,,,,,,,,,,
1933,0,0.0,0.38,,-0.09,0.06,0.96,-0,-2,-1,0.11,,,,,,,,,,
1935,0,0.0,0.38,,,,,,,,,,,,,,,,,,
1937,0,0.0,0.37,,,,,,,,,,,,,,,,,,
1939,0,0.0,0.37,,,,,,,,,,,,,,,,,,
1941,0,0.0,0.37,,,,,,,,,,,,,,,,,,
1943,0,0.0,0.37,,-0.25,0.05,1.24,1,-2,-0,0.25,28,1980,0,0.0,0.0,0.0,0.0,0,0,0.0
1945,0,0.0,0.37,,,,,,,,,,,,,,,,,,
1947,0,0.0,0.37,,,,,,,,,,,,,,,,,,
1949,0,0.0,0.37,,,,,,,,,,,,,,,,,,
1951,0,0.0,0.37,,,,,,,,,,,,,,,,,,
1953,0,0.0,0.37,,0.01,-0.07,1.15,1,-2,1,0.07,,,,,,,,,,
1955,0,0.0,0.37,,,,,,,,,,,,,,,,,,
1957,0,0.0,0.38,,,,,,,,,,,,,,,,,,
1959,0,0.0,0.37,,,,,,,,,,,,,,,,,,
1961,0,0.0,0.37,,,,,,,,,,,,,,,,,,
1963,0,0.0,0.37,,-0.25,0.0,1.12,1,0,1,0.25,28,1920,0,0.0,0.0,0.0,0.0,0,0,0.0
1965,0,0.0,0.37,,,,,,,,,,,,,,,,,,
1967,0,0.0,0.37,,,,,,,,,,,,,,,,,,
1969,0,0.0,0.37,,,,,,,,,,,,,,,,,,
1971,0,0.0,0.37,,,,,,,,,,,,,,,,,,
1973,0,0.0,0.37,,-0.28,0.07,1.15,2,-0,1,0.29,,,,,,,,,,
1975,0,0.0,0.37,,,,,,,,,,,,,,,,,,
1977,0,0.0,0.37,,,,,,,,,,,,,,,,,,
1979,0,0.0,0.37,,,,,,,,,,,,,,,,,,
1981,0,0.0,0.37,,,,,,,,,,,,,,,,,,
1983,0,0.0,0.37,,0.09,-0.02,0.88,2,0,1,0.09,28,1920,0,0.0,0.0,0.0,0.0,0,0,0.0
1985,0,0.0,0.38,,,,,,,,,,,,,,,,,,
1987,0,0.0,0.39,,,,,,,,,,,,,,,,,,
1989,0,0.0,0.38,,,,,,,,,,,,,,,,,,
1991,0,0.0,0.38,,,,,,,,,,,,,,,,,,
1993,0,0.0,0.38,,-0.14,0.14,0.73,1,1,0,0.2,,,,,,,,,,
1995,0,0.0,0.38,,,,,,,,,,,,,,,,,,
1997,0,0.0,0.38,,,,,,,,,,,,,,,,,,
1999,0,0.0,0.38,,,,,,,,,,,,,,,,,,
2001,0,0.0,0.38,,,,,,,,,,,,,,,,,,
2003,0,0.01,0.38,,-0.15,0.26,0.88,2,-1,-1,0.3,28,1980,0,0.0,0.0,0.0,0.0,0,0,0.0
2005,0,0.0,0.38,,,,,,,,,,,,,,,,,,
2007,0,0.0,0.38,,,,,,,,,,,,,,,,,,
2009,0,0.01,0.38,,,,,,,,,,,,,,,,,,
2011,0,0.0,0.38,,,,,,,,,,,,,,,,,,
2013,0,0.0,0.39,,0.22,0.11,0.68,1,-1,-1,0.24,,,,,,,,,,
2015,0,0.0,0.38,,,,,,,,,,,,,,,,,,
2017,0,0.0,0.39,,,,,,,,,,,,,,,,,,
2019,0,0.0,0.38,,,,,,,,,,,,,,,,,,
2021,0,0.0,0.38,,,,,,,,,,,,,,,,,,
2023,0,0.0,0.38,,-0.12,0.19,0.87,-0,-0,-1,0.23,30,1920,0,0.0,0.0,0.0,0.0,0,0,0.0
2025,0,0.0,0.38,,,,,,,,,,,,,,,,,,
2027,0,0.0,0.37,,,,,,,,,,,,,,,,,,
2029,0,0.0,0.37,,,,,,,,,,,,,,,,,,
2031,0,0.0,0.37,,,,,,,,,,,,,,,,,,
2033,0,0.0,0.37,,-0.27,0.19,1.17,0,-2,-1,0.33,,,,,,,,,,
2035,0,0.0,0.37,,,,,,,,,,,,,,,,,,
2037,0,0.0,0.37,,,,,,,,,,,,,,,,,,
2039,0,0.0,0.37,,,,,,,,,,,,,,,,,,
2041,0,0.0,0.37,,,,,,,,,,,,,,,,,,
2043,0,0.0,0.37,13.11,0.02,0.03,1.08,-0,-1,-0,0.03,30,1920,0,0.0,0.0,0.0,0.0,0,0,0.0
2045,0,0.0,0.37,,,,,,,,,,,,,,,,,,
2047,0,0.0,0.38,,,,,,,,,,,,,,,,,,
2049,0,0.0,0.37,,,,,,,,,,,,,,,,,,
2051,0,0.0,0.37,,,,,,,,,,,,,,,,,,
2053,0,0.0,0.37,,-0.33,0.12,1.11,-1,1,0,0.35,,,,,,,,,,
2055,0,0.0,0.37,,,,,,,,,,,,,,,,,,
2057,0,0.0,0.37,,,,,,,,,,,,,,,,,,
2059,0,0.0,0.37,,,,,,,,,,,,,,,,,,
2061,0,0.0,0.38,,,,,,,,,,,,,,,,,,
2063,0,0.0,0.37,,-0.31,0.07,1.15,0,-0,0,0.32,30,1980,0,0.0,0.0,0.0,0.0,0,0,0.0
2065,0,0.01,0.38,,,,,,,,,,,,,,,,,,
2067,0,0.0,0.38,,,,,,,,,,,,,,,,,,
2069,0,0.0,0.38,,,,,,,,,,,,,,,,,,
2071,0,0.0,0.38,,,,,,,,,,,,,,,,,,
2073,0,0.0,0.38,,0.16,-0.04,0.83,-1,-1,0,0.17,,,,,,,,,,
2075,0,0.0,0.38,,,,,,,,,,,,,,,,,,
2077,0,0.0,0.39,,,,,,,,,,,,,,,,,,
2079,0,0.0,0.38,,,,,,,,,,,,,,,,,,
2081,0,0.0,0.39,,,,,,,,,,,,,,,,,,
2083,0,0.0,0.39,,-0.02,0.12,0.82,-1,0,-1,0.13,30,1920,0,0.0,0.0,0.0,0.0,0,0,0.0
2085,0,0.0,0.39,,,,,,,,,,,,,,,,,,
2087,0,0.0,0.39,,,,,,,,,,,,,,,,,,
2089,0,0.0,0.39,,,,,,,,,,,,,,,,,,
2091,0,0.0,0.38,,,,,,,,,,,,,,,,,,
2093,0,0.0,0.39,,-0.04,0.07,0.94,1,-1,-2,0.08,,,,,,,,,,
2095,0,0.0,0.39,,,,,,,,,,,,,,,,,,
2097,0,0.0,0.39,,,,,,,,,,,,,,,,,,
2099,0,0.01,0.38,,,,,,,,,,,,,,,,,,
2101,0,0.0,0.38,,,,,,,,,,,,,,,,,,
2103,0,0.0,0.38,,0.25,-0.1,0.88,-0,-1,-2,0.27,35,1920,0,0.0,0.0,0.0,0.0,0,0,0.0
2105,0,0.0,0.38,,,,,,,,,,,,,,,,,,
2107,0,0.0,0.39,,,,,,,,,,,,,,,,,,
2109,0,0.0,0.38,,,,,,,,,,,,,,,,,,
2111,0,0.0,0.38,,,,,,,,,,,,,,,,,,
2113,0,0.0,0.38,,-0.18,-0.0,1.05,-0,1,-2,0.18,,,,,,,,,,
2115,0,0.0,0.37,,,,,,,,,,,,,,,,,,
2117,0,0.0,0.37,,,,,,,,,,,,,,,,,,
2119,0,0.0,0.37,,,,,,,,,,,,,,,,,,
2121,0,0.0,0.38,,,,,,,,,,,,,,,,,,
2123,0,0.0,0.37,,-0.32,-0.03,1.17,1,-1,-1,0.32,35,1980,0,0.0,0.0,0.0,0.0,0,0,0.0
2125,0,0.0,0.37,,,,,,,,,,,,,,,,,,
2127,0,0.01,0.37,,,,,,,,,,,,,,,,,,
2129,0,0.0,0.37,,,,,,,,,,,,,,,,,,
2131,0,0.0,0.37,,,,,,,,,,,,,,,,,,
2133,0,0.0,0.37,,0.04,-0.16,1.01,1,-1,1,0.17,,,,,,,,,,
2135,0,0.0,0.37,,,,,,,,,,,,,,,,,,
2137,0,0.0,0.38,,,,,,,,,,,,,,,,,,
2139,0,0.0,0.37,,,,,,,,,,,,,,,,,,
2141,0,0.0,0.38,,,,,,,,,,,,,,,,,,
2143,0,0.0,0.37,,-0.15,-0.01,0.96,1,-1,2,0.15,35,1980,0,0.0,0.0,0.0,0.0,0,0,0.0
2145,0,0.0,0.38,,,,,,,,,,,,,,,,,,
2147,0,0.01,0.38,,,,,,,,,,,,,,,,,,
2149,0,0.0,0.38,,,,,,,,,,,,,,,,,,
2151,0,0.0,0.38,,,,,,,,,,,,,,,,,,
2153,0,0.0,0.38,,-0.08,0.07,0.99,3,-2,1,0.11,,,,,,,,,,
2155,0,0.0,0.38,,,,,,,,,,,,,,,,,,
2157,0,0.0,0.38,,,,,,,,,,,,,,,,,,
2159,0,0.0,0.38,,,,,,,,,,,,,,,,,,
2161,0,0.0,0.38,,,,,,,,,,,,,,,,,,
2163,0,0.0,0.38,,0.29,0.02,0.78,2,-3,1,0.3,35,1980,0,0.0,0.0,0.0,0.0,0,0,0.0
2165,0,0.0,0.39,,,,,,,,,,,,,,,,,,
2167,0,0.0,0.39,,,,,,,,,,,,,,,,,,
2169,0,0.0,0.39,,,,,,,,,,,,,,,,,,
2171,0,0.0,0.39,,,,,,,,,,,,,,,,,,
2173,0,0.0,0.39,,0.05,0.16,0.83,1,-2,-1,0.17,,,,,,,,,,
2175,0,0.0,0.39,,,,,,,,,,,,,,,,,,
2177,0,0.0,0.39,,,,,,,,,,,,,,,,,,
2179,0,0.0,0.39,,,,,,,,,,,,,,,,,,
2181,0,0.0,0.38,,,,,,,,,,,,,,,,,,
2183,0,0.0,0.38,,0.02,0.15,1.01,2,-3,-1,0.15,25,2040,0,0.0,0.0,0.0,0.0,0,0,0.0
2185,0,0.0,0.38,,,,,,,,,,,,,,,,,,
2187,0,0.0,0.38,,,,,,,,,,,,,,,,,,
2189,0,0.0,0.38,,,,,,,,,,,,,,,,,,
2191,0,0.0,0.38,,,,,,,,,,,,,,,,,,
2193,0,0.0,0.38,,0.22,-0.02,1.02,1,-2,-1,0.22,,,,,,,,,,
2195,0,0.0,0.38,,,,,,,,,,,,,,,,,,
2197,0,0.0,0.39,,,,,,,,,,,,,,,,,,
2199,0,0.0,0.38,,,,,,,,,,,,,,,,,,
2201,0,0.0,0.38,,,,,,,,,,,,,,,,,,
2203,0,0.0,0.38,,-0.1,0.06,1.19,0,-1,-0,0.11,25,1980,0,0.0,0.0,0.0,0.0,0,0,0.0
2205,0,0.0,0.38,,,,,,,,,,,,,,,,,,
2207,0,0.0,0.38,,,,,,,,,,,,,,,,,,
2209,0,0.0,0.38,,,,,,,,,,,,,,,,,,
2211,0,0.0,0.38,,,,,,,,,,,,,,,,,,
2213,0,0.0,0.38,,-0.17,0.05,1.22,2,-0,1,0.18,,,,,,,,,,
2215,0,0.0,0.38,,,,,,,,,,,,,,,,,,
2217,0,0.0,0.39,,,,,,,,,,,,,,,,,,
2219,0,0.0,0.39,,,,,,,,,,,,,,,,,,
2221,0,0.0,0.39,,,,,,,,,,,,,,,,,,
2223,0,0.01,0.39,,0.06,-0.01,1.14,1,1,1,0.06,25,1980,0,0.0,0.0,0.0,0.0,0,0,0.0
2225,0,0.0,0.39,,,,,,,,,,,,,,,,,,
2227,0,0.0,0.4,,,,,,,,,,,,,,,,,,
2229,0,0.0,0.39,,,,,,,,,,,,,,,,,,
2231,0,0.0,0.39,,,,,,,,,,,,,,,,,,
2233,0,0.0,0.39,,-0.19,0.13,0.99,1,3,1,0.23,,,,,,,,,,
2235,0,0.0,0.39,,,,,,,,,,,,,,,,,,
2237,0,0.0,0.39,,,,,,,,,,,,,,,,,,
2239,0,0.0,0.39,,,,,,,,,,,,,,,,,,
2241,0,0.0,0.39,,,,,,,,,,,,,,,,,,
2243,0,0.0,0.39,,-0.2,0.08,1.05,2,3,1,0.22,25,1980,0,0.0,0.0,0.0,0.0,0,0,0.0
2245,0,0.0,0.39,,,,,,,,,,,,,,,,,,
2247,0,0.0,0.39,,,,,,,,,,,,,,,,,,
2249,0,0.0,0.39,,,,,,,,,,,,,,,,,,
2251,0,0.0,0.39,,,,,,,,,,,,,,,,,,
2253,0,0.0,0.39,,0.08,0.07,0.82,1,3,0,0.11,,,,,,,,,,
2255,0,0.0,0.4,,,,,,,,,,,,,,,,,,
2257,0,0.0,0.4,,,,,,,,,,,,,,,,,,
2259,0,0.0,0.4,,,,,,,,,,,,,,,,,,
2261,0,0.0,0.4,,,,,,,,,,,,,,,,,,
2263,0,0.0,0.39,,-0.13,0.23,0.8,0,3,-0,0.27,40,1920,0,0.0,0.0,0.0,0.0,0,0,0.0
2265,0,0.01,0.39,,,,,,,,,,,,,,,,,,
2267,0,0.0,0.39,,,,,,,,,,,,,,,,,,
2269,0,0.0,0.39,,,,,,,,,,,,,,,,,,
2271,0,0.0,0.39,,,,,,,,,,,,,,,,,,
2273,0,0.0,0.39,,-0.09,0.21,0.86,1,1,-0,0.23,,,,,,,,,,
2275,0,0.0,0.39,,,,,,,,,,,,,,,,,,
2277,0,0.0,0.38,,,,,,,,,,,,,,,,,,
2279,0,0.0,0.38,,,,,,,,,,,,,,,,,,
2281,0,0.0,0.39,,,,,,,,,,,,,,,,,,
2283,0,0.0,0.39,,0.15,0.14,0.76,-1,0,-0,0.21,40,1920,0,0.0,0.0,0.0,0.0,0,0,0.0
2285,0,0.0,0.39,,,,,,,,,,,,,,,,,,
2287,0,0.0,0.4,,,,,,,,,,,,,,,,,,
2289,0,0.0,0.39,,,,,,,,,,,,,,,,,,
2291,0,0.0,0.38,,,,,,,,,,,,,,,,,,
2293,0,0.0,0.38,,-0.17,0.3,0.84,-1,-0,-0,0.34,,,,,,,,,,
2295,0,0.0,0.38,,,,,,,,,,,,,,,,,,
2297,0,0.0,0.39,,,,,,,,,,,,,,,,,,
2299,0,0.0,0.39,,,,,,,,,,,,,,,,,,
2301,0,0.0,0.39,,,,,,,,,,,,,,,,,,
2303,0,0.0,0.39,,-0.13,0.22,1.02,-1,-2,-1,0.25,40,1980,0,0.0,0.0,0.0,0.0,0,0,0.0
2305,0,0.0,0.39,,,,,,,,,,,,,,,,,,
2307,0,0.0,0.39,,,,,,,,,,,,,,,,,,
2309,0,0.0,0.39,,,,,,,,,,,,,,,,,,
2311,0,0.0,0.39,,,,,,,,,,,,,,,,,,
2313,0,0.01,0.39,,0.09,0.1,1.0,-2,-3,-1,0.13,,,,,,,,,,
2315,0,0.0,0.39,,,,,,,,,,,,,,,,,,
2317,0,0.0,0.4,,,,,,,,,,,,,,,,,,
2319,0,0.0,0.39,,,,,,,,,,,,,,,,,,
2321,0,0.0,0.4,,,,,,,,,,,,,,,,,,
2323,0,0.0,0.39,,-0.17,0.13,1.06,-2,-2,-1,0.22,40,1920,0,0.0,0.0,0.0,0.0,0,0,0.0
2325,0,0.0,0.39,,,,,,,,,,,,,,,,,,
2327,0,0.0,0.39,,,,,,,,,,,,,,,,,,
2329,0,0.0,0.39,,,,,,,,,,,,,,,,,,
2331,0,0.0,0.4,,,,,,,,,,,,,,,,,,
2333,0,0.0,0.39,,-0.08,0.02,1.18,-1,-3,-1,0.08,,,,,,,,,,
2335,0,0.0,0.4,,,,,,,,,,,,,,,,,,
2337,0,0.0,0.4,,,,,,,,,,,,,,,,,,
2339,0,0.01,0.4,,,,,,,,,,,,,,,,,,
2341,0,0.0,0.4,,,,,,,,,,,,,,,,,,
2343,0,0.0,0.39,,0.23,-0.07,1.01,-1,-3,-1,0.24,40,1920,0,0.0,0.0,0.0,0.0,0,0,0.0
2345,0,0.0,0.4,,,,,,,,,,,,,,,,,,
2347,0,0.0,0.41,,,,,,,,,,,,,,,,,,
2349,0,0.0,0.4,,,,,,,,,,,,,,,,,,
2351,0,0.0,0.4,,,,,,,,,,,,,,,,,,
2353,0,0.0,0.4,,-0.06,-0.0,0.96,-1,-2,-1,0.06,,,,,,,,,,
2355,0,0.0,0.4,,,,,,,,,,,,,,,,,,
2357,0,0.0,0.4,,,,,,,,,,,,,,,,,,
2359,0,0.0,0.4,,,,,,,,,,,,,,,,,,
2361,0,0.0,0.4,,,,,,,,,,,,,,,,,,
2363,0,0.0,0.4,,-0.04,-0.1,1.1,0,-3,-1,0.11,40,1980,0,0.0,0.0,0.0,0.0,0,0,0.0
2365,0,0.0,0.4,,,,,,,,,,,,,,,,,,
2367,0,0.0,0.39,,,,,,,,,,,,,,,,,,
2369,0,0.0,0.39,,,,,,,,,,,,,,,,,,
2371,0,0.0,0.4,,,,,,,,,,,,,,,,,,
2373,0,0.0,0.39,,0.32,-0.12,0.89,0,-4,0,0.34,,,,,,,,,,
2375,0,0.0,0.39,,,,,,,,,,,,,,,,,,
2377,0,0.0,0.41,,,,,,,,,,,,,,,,,,
2379,0,0.0,0.39,,,,,,,,,,,,,,,,,,
2381,0,0.0,0.39,,,,,,,,,,,,,,,,,,
2383,0,0.0,0.39,,0.09,-0.03,0.98,1,-3,0,0.09,25,1980,0,0.0,0.0,0.0,0.0,0,0,0.0
2385,0,0.0,0.39,,,,,,,,,,,,,,,,,,
2387,0,0.0,0.39,,,,,,,,,,,,,,,,,,
2389,0,0.0,0.39,,,,,,,,,,,,,,,,,,
2391,0,0.0,0.39,,,,,,,,,,,,,,,,,,
2393,0,0.0,0.39,,0.02,-0.1,1.12,2,-3,0,0.1,,,,,,,,,,
2395,0,0.0,0.4,,,,,,,,,,,,,,,,,,
2397,0,0.0,0.4,,,,,,,,,,,,,,,,,,
2399,0,0.0,0.4,,,,,,,,,,,,,,,,,,
2401,0,0.0,0.4,,,,,,,,,,,,,,,,,,
2403,0,0.0,0.4,,0.25,-0.15,1.1,2,-2,1,0.29,25,1980,0,0.0,0.0,0.0,0.0,0,0,0.0
2405,0,0.0,0.4,,,,,,,,,,,,,,,,,,
2407,0,0.0,0.41,,,,,,,,,,,,,,,,,,
2409,0,0.0,0.4,,,,,,,,,,,,,,,,,,
2411,0,0.0,0.4,,,,,,,,,,,,,,,,,,
2413,0,0.0,0.4,,-0.14,-0.04,1.1,2,-1,1,0.15,,,,,,,,,,
2415,0,0.0,0.4,,,,,,,,,,,,,,,,,,
2417,0,0.0,0.4,,,,,,,,,,,,,,,,,,
2419,0,0.0,0.4,,,,,,,,,,,,,,,,,,
2421,0,0.0,0.4,,,,,,,,,,,,,,,,,,
2423,0,0.0,0.4,,-0.14,0.01,1.13,4,-1,1,0.14,25,2040,0,0.0,0.0,0.0,0.0,0,0,0.0
2425,0,0.0,0.4,,,,,,,,,,,,,,,,,,
2427,0,0.0,0.41,,,,,,,,,,,,,,,,,,
2429,0,0.0,0.41,,,,,,,,,,,,,,,,,,
2431,0,0.0,0.41,,,,,,,,,,,,,,,,,,
2433,0,0.0,0.41,,0.2,0.0,0.95,3,-0,0,0.2,,,,,,,,,,
2435,0,0.0,0.42,,,,,,,,,,,,,,,,,,
2437,0,0.0,0.41,,,,,,,,,,,,,,,,,,
2439,0,0.0,0.41,,,,,,,,,,,,,,,,,,
2441,0,0.0,0.41,,,,,,,,,,,,,,,,,,
2443,0,0.0,0.41,,-0.05,0.13,0.9,3,1,-0,0.14,25,1980,0,0.0,0.0,0.0,0.0,0,0,0.0
2445,0,0.0,0.41,,,,,,,,,,,,,,,,,,
2447,0,0.0,0.41,,,,,,,,,,,,,,,,,,
2449,0,0.0,0.41,,,,,,,,,,,,,,,,,,
2451,0,0.0,0.41,,,,,,,,,,,,,,,,,,
2453,0,0.0,0.41,,0.03,0.11,0.92,4,-1,-0,0.11,,,,,,,,,,
2455,0,0.0,0.41,,,,,,,,,,,,,,,,,,
2457,0,0.0,0.41,,,,,,,,,,,,,,,,,,
2459,0,0.0,0.41,,,,,,,,,,,,,,,,,,
2461,0,0.0,0.41,,,,,,,,,,,,,,,,,,
2463,0,0.0,0.41,,0.36,0.06,0.76,2,-1,0,0.36,25,1980,0,0.0,0.0,0.0,0.0,0,0,0.0
2465,0,0.01,0.42,,,,,,,,,,,,,,,,,,
2467,0,0.0,0.41,,,,,,,,,,,,,,,,,,
2469,0,0.0,0.41,,,,,,,,,,,,,,,,,,
2471,0,0.0,0.41,,,,,,,,,,,,,,,,,,
2473,0,0.0,0.41,,0.05,0.2,0.84,1,-1,0,0.2,,,,,,,,,,
2475,0,0.0,0.4,,,,,,,,,,,,,,,,,,
2477,0,0.0,0.4,,,,,,,,,,,,,,,,,,
2479,0,0.0,0.4,,,,,,,,,,,,,,,,,,
2481,0,0.0,0.4,,,,,,,,,,,,,,,,,,
2483,0,0.0,0.4,,0.03,0.17,0.99,2,-1,1,0.17,25,2040,0,0.0,0.0,0.0,0.0,0,0,0.0
2485,0,0.0,0.4,,,,,,,,,,,,,,,,,,
2487,0,0.0,0.4,,,,,,,,,,,,,,,,,,
2489,0,0.0,0.41,,,,,,,,,,,,,,,,,,
2491,0,0.0,0.4,,,,,,,,,,,,,,,,,,
2493,0,0.0,0.41,,0.19,0.12,1.09,0,-0,1,0.22,,,,,,,,,,
2495,0,0.0,0.42,,,,,,,,,,,,,,,,,,
2497,0,0.0,0.41,,,,,,,,,,,,,,,,,,
2499,0,0.0,0.41,,,,,,,,,,,,,,,,,,
2501,0,0.0,0.41,,,,,,,,,,,,,,,,,,
2503,0,0.0,0.41,,-0.19,0.12,1.1,-0,1,1,0.22,25,1980,0,0.0,0.0,0.0,0.0,0,0,0.0
2505,0,0.0,0.41,,,,,,,,,,,,,,,,,,
2507,0,0.0,0.41,,,,,,,,,,,,,,,,,,
2509,0,0.0,0.41,,,,,,,,,,,,,,,,,,
2511,0,0.0,0.41,,,,,,,,,,,,,,,,,,
2513,0,0.0,0.41,,-0.11,0.12,1.15,0,1,1,0.17,,,,,,,,,,
2515,0,0.0,0.41,,,,,,,,,,,,,,,,,,
2517,0,0.0,0.41,,,,,,,,,,,,,,,,,,
2519,0,0.0,0.41,,,,,,,,,,,,,,,,,,
2521,0,0.0,0.41,,,,,,,,,,,,,,,,,,
2523,0,0.0,0.42,,0.09,0.13,1.02,-1,2,1,0.16,25,1980,0,0.0,0.0,0.0,0.0,0,0,0.0
2525,0,0.0,0.42,,,,,,,,,,,,,,,,,,
2527,0,0.0,0.42,,,,,,,,,,,,,,,,,,
2529,0,0.0,0.42,,,,,,,,,,,,,,,,,,
2531,0,0.0,0.42,,,,,,,,,,,,,,,,,,
2533,0,0.0,0.42,,-0.15,0.18,0.87,-1,2,-1,0.23,,,,,,,,,,
2535,0,0.0,0.42,,,,,,,,,,,,,,,,,,
2537,0,0.0,0.42,,,,,,,,,,,,,,,,,,
2539,0,0.0,0.42,,,,,,,,,,,,,,,,,,
2541,0,0.0,0.42,,,,,,,,,,,,,,,,,,
2543,0,0.0,0.42,,-0.05,0.1,0.87,0,1,-1,0.11,25,1980,0,0.0,0.0,0.0,0.0,0,0,0.0
2545,0,0.0,0.42,,,,,,,,,,,,,,,,,,
2547,0,0.0,0.42,,,,,,,,,,,,,,,,,,
2549,0,0.0,0.42,,,,,,,,,,,,,,,,,,
2551,0,0.0,0.42,,,,,,,,,,,,,,,,,,
2553,0,0.0,0.42,,0.18,0.12,0.83,-1,1,-2,0.22,,,,,,,,,,
2555,0,0.0,0.43,,,,,,,,,,,,,,,,,,
2557,0,0.0,0.42,,,,,,,,,,,,,,,,,,
2559,0,0.0,0.42,,,,,,,,,,,,,,,,,,
2561,0,0.0,0.42,,,,,,,,,,,,,,,,,,
2563,0,0.0,0.42,,-0.07,0.1,0.8,-1,0,-2,0.12,25,1920,0,0.0,0.0,0.0,0.0,0,0,0.0
2565,0,0.0,0.42,,,,,,,,,,,,,,,,,,
2567,0,0.0,0.42,,,,,,,,,,,,,,,,,,
2569,0,0.0,0.42,,,,,,,,,,,,,,,,,,
2571,0,0.0,0.41,,,,,,,,,,,,,,,,,,
2573,0,0.0,0.42,,0.08,0.01,0.98,-0,-1,-1,0.08,,,,,,,,,,
2575,0,0.0,0.42,,,,,,,,,,,,,,,,,,
2577,0,0.0,0.42,,,,,,,,,,,,,,,,,,
2579,0,0.0,0.42,,,,,,,,,,,,,,,,,,
2581,0,0.0,0.41,,,,,,,,,,,,,,,,,,
2583,0,0.0,0.42,,0.16,-0.01,1.04,-1,-1,0,0.16,25,1920,0,0.0,0.0,0.0,0.0,0,0,0.0
2585,0,0.0,0.43,,,,,,,,,,,,,,,,,,
2587,0,0.0,0.41,,,,,,,,,,,,,,,,,,
2589,0,0.0,0.41,,,,,,,,,,,,,,,,,,
2591,0,0.0,0.41,,,,,,,,,,,,,,,,,,
2593,0,0.0,0.41,,-0.24,0.04,1.12,-0,-0,1,0.24,,,,,,,,,,
2595,0,0.0,0.41,,,,,,,,,,,,,,,,,,
2597,0,0.0,0.41,,,,,,,,,,,,,,,,,,
2599,0,0.0,0.41,,,,,,,,,,,,,,,,,,
2601,0,0.0,0.41,,,,,,,,,,,,,,,,,,
2603,0,0.01,0.41,,-0.15,-0.05,1.18,1,-1,1,0.16,25,1980,0,0.0,0.0,0.0,0.0,0,0,0.0
2605,0,0.0,0.41,,,,,,,,,,,,,,,,,,
2607,0,0.0,0.41,,,,,,,,,,,,,,,,,,
2609,0,0.0,0.41,,,,,,,,,,,,,,,,,,
2611,0,0.0,0.41,,,,,,,,,,,,,,,,,,
2613,0,0.0,0.41,,0.04,-0.04,1.09,0,-1,1,0.06,,,,,,,,,,
2615,0,0.0,0.42,,,,,,,,,,,,,,,,,,
2617,0,0.0,0.41,,,,,,,,,,,,,,,,,,
2619,0,0.0,0.41,,,,,,,,,,,,,,,,,,
2621,0,0.0,0.41,,,,,,,,,,,,,,,,,,
2623,0,0.0,0.41,,-0.18,0.05,0.96,1,-0,1,0.19,25,1920,0,0.0,0.0,0.0,0.0,0,0,0.0
2625,0,0.0,0.41,,,,,,,,,,,,,,,,,,
2627,0,0.0,0.41,,,,,,,,,,,,,,,,,,
2629,0,0.0,0.41,,,,,,,,,,,,,,,,,,
2631,0,0.0,0.41,,,,,,,,,,,,,,,,,,
2633,0,0.0,0.41,,0.09,0.03,1.01,2,-2,-0,0.1,,,,,,,,,,
2635,0,0.0,0.41,,,,,,,,,,,,,,,,,,
2637,0,0.01,0.41,,,,,,,,,,,,,,,,,,
2639,0,0.0,0.41,,,,,,,,,,,,,,,,,,
2641,0,0.0,0.41,,,,,,,,,,,,,,,,,,
2643,0,0.0,0.41,,0.3,-0.02,0.84,1,-1,-1,0.3,25,1920,0,0.0,0.0,0.0,0.0,0,0,0.0
2645,0,0.0,0.42,,,,,,,,,,,,,,,,,,
2647,0,0.0,0.41,,,,,,,,,,,,,,,,,,
2649,0,0.0,0.41,,,,,,,,,,,,,,,,,,
2651,0,0.0,0.41,,,,,,,,,,,,,,,,,,
2653,0,0.0,0.41,,-0.01,0.08,0.87,1,-2,-1,0.08,,,,,,,,,,
2655,0,0.0,0.42,,,,,,,,,,,,,,,,,,
2657,0,0.0,0.41,,,,,,,,,,,,,,,,,,
2659,0,0.0,0.41,,,,,,,,,,,,,,,,,,
2661,0,0.0,0.41,,,,,,,,,,,,,,,,,,
2663,0,0.0,0.41,,0.06,0.01,1.02,2,-2,-1,0.06,25,1980,0,0.0,0.0,0.0,0.0,0,0,0.0
2665,0,0.0,0.42,,,,,,,,,,,,,,,,,,
2667,0,0.0,0.42,,,,,,,,,,,,,,,,,,
2669,0,0.0,0.42,,,,,,,,,,,,,,,,,,
2671,0,0.0,0.42,,,,,,,,,,,,,,,,,,
2673,0,0.0,0.42,,0.13,0.0,1.12,1,-1,0,0.13,,,,,,,,,,
2675,0,0.0,0.43,,,,,,,,,,,,,,,,,,
2677,0,0.0,0.42,,,,,,,,,,,,,,,,,,
2679,0,0.0,0.42,,,,,,,,,,,,,,,,,,
2681,0,0.0,0.42,,,,,,,,,,,,,,,,,,
2683,0,0.0,0.42,,-0.23,0.06,1.11,1,-0,1,0.24,25,1980,0,0.0,0.0,0.0,0.0,0,0,0.0
2685,0,0.01,0.42,,,,,,,,,,,,,,,,,,
2687,0,0.0,0.42,,,,,,,,,,,,,,,,,,
2689,0,0.0,0.42,,,,,,,,,,,,,,,,,,
2691,0,0.0,0.42,,,,,,,,,,,,,,,,,,
2693,0,0.0,0.42,,-0.02,0.05,1.2,2,-1,1,0.06,,,,,,,,,,
2695,0,0.0,0.42,,,,,,,,,,,,,,,,,,
2697,0,0.0,0.42,,,,,,,,,,,,,,,,,,
2699,0,0.01,0.42,,,,,,,,,,,,,,,,,,
2701,0,0.0,0.42,,,,,,,,,,,,,,,,,,
2703,0,0.0,0.43,,0.16,0.05,0.98,1,-0,1,0.17,25,1980,0,0.0,0.0,0.0,0.0,0,0,0.0
2705,0,0.0,0.43,,,,,,,,,,,,,,,,,,
2707,0,0.0,0.43,,,,,,,,,,,,,,,,,,
2709,0,0.0,0.43,,,,,,,,,,,,,,,,,,
2711,0,0.0,0.43,,,,,,,,,,,,,,,,,,
2713,0,0.0,0.43,,-0.15,0.19,0.92,1,0,1,0.24,,,,,,,,,,
2715,0,0.0,0.43,,,,,,,,,,,,,,,,,,
2717,0,0.0,0.43,,,,,,,,,,,,,,,,,,
2719,0,0.0,0.43,,,,,,,,,,,,,,,,,,
2721,0,0.0,0.43,,,,,,,,,,,,,,,,,,
2723,0,0.0,0.43,,0.0,0.16,0.93,1,-0,0,0.16,25,2040,0,0.0,0.0,0.0,0.0,0,0,0.0
2725,0,0.0,0.43,,,,,,,,,,,,,,,,,,
2727,0,0.0,0.43,,,,,,,,,,,,,,,,,,
2729,0,0.0,0.43,,,,,,,,,,,,,,,,,,
2731,0,0.0,0.43,,,,,,,,,,,,,,,,,,
2733,0,0.0,0.44,,0.23,0.16,0.87,-0,1,-1,0.28,,,,,,,,,,
2735,0,0.0,0.43,,,,,,,,,,,,,,,,,,
2737,0,0.0,0.42,,,,,,,,,,,,,,,,,,
2739,0,0.0,0.42,,,,,,,,,,,,,,,,,,
2741,0,0.0,0.42,,,,,,,,,,,,,,,,,,
2743,0,0.0,0.42,,-0.19,0.2,0.91,-1,0,-2,0.28,15,1980,0,0.0,0.0,0.0,0.0,0,0,0.0
2745,0,0.0,0.42,,,,,,,,,,,,,,,,,,
2747,0,0.0,0.42,,,,,,,,,,,,,,,,,,
2749,0,0.0,0.42,,,,,,,,,,,,,,,,,,
2751,0,0.0,0.42,,,,,,,,,,,,,,,,,,
2753,0,0.0,0.42,,-0.03,0.05,1.03,-0,-1,-1,0.06,,,,,,,,,,
2755,0,0.0,0.42,,,,,,,,,,,,,,,,,,
2757,0,0.0,0.42,,,,,,,,,,,,,,,,,,
2759,0,0.0,0.42,,,,,,,,,,,,,,,,,,
2761,0,0.0,0.42,,,,,,,,,,,,,,,,,,
2763,0,0.0,0.43,,0.11,0.06,1.03,-1,1,-1,0.13,15,2040,0,0.0,0.0,0.0,0.0,0,0,0.0
2765,0,0.0,0.42,,,,,,,,,,,,,,,,,,
2767,0,0.0,0.42,,,,,,,,,,,,,,,,,,
2769,0,0.0,0.42,,,,,,,,,,,,,,,,,,
2771,0,0.0,0.42,,,,,,,,,,,,,,,,,,
2773,0,0.0,0.42,,-0.19,0.09,0.98,-1,0,-0,0.21,,,,,,,,,,
2775,0,0.0,0.42,,,,,,,,,,,,,,,,,,
2777,0,0.0,0.42,,,,,,,,,,,,,,,,,,
2779,0,0.0,0.42,,,,,,,,,,,,,,,,,,
2781,0,0.0,0.41,,,,,,,,,,,,,,,,,,
2783,0,0.0,0.41,,-0.0,-0.01,0.96,-0,-1,0,0.01,15,2040,0,0.0,0.0,0.0,0.0,0,0,0.0
2785,0,0.0,0.42,,,,,,,,,,,,,,,,,,
2787,0,0.0,0.42,,,,,,,,,,,,,,,,,,
2789,0,0.01,0.42,,,,,,,,,,,,,,,,,,
2791,0,0.0,0.41,,,,,,,,,,,,,,,,,,
2793,0,0.0,0.43,,0.13,0.08,1.02,-1,1,-0,0.15,,,,,,,,,,
2795,0,0.0,0.41,,,,,,,,,,,,,,,,,,
2797,0,0.0,0.41,,,,,,,,,,,,,,,,,,
2799,0,0.0,0.41,,,,,,,,,,,,,,,,,,
2801,0,0.0,0.41,,,,,,,,,,,,,,,,,,
2803,0,0.0,0.41,,-0.17,0.09,0.99,-0,1,-1,0.19,15,1980,0,0.0,0.0,0.0,0.0,0,0,0.0
2805,0,0.0,0.41,,,,,,,,,,,,,,,,,,
2807,0,0.0,0.41,,,,,,,,,,,,,,,,,,
2809,0,0.0,0.41,,,,,,,,,,,,,,,,,,
2811,0,0.0,0.41,,,,,,,,,,,,,,,,,,
2813,0,0.0,0.41,,0.03,-0.03,1.04,0,-0,-1,0.04,,,,,,,,,,
2815,0,0.0,0.41,,,,,,,,,,,,,,,,,,
2817,0,0.0,0.41,,,,,,,,,,,,,,,,,,
2819,0,0.0,0.41,,,,,,,,,,,,,,,,,,
2821,0,0.0,0.42,,,,,,,,,,,,,,,,,,
2823,0,0.01,0.42,,0.07,0.01,1.03,-0,1,-1,0.07,15,1980,0,0.0,0.0,0.0,0.0,0,0,0.0
2825,0,0.0,0.42,,,,,,,,,,,,,,,,,,
2827,0,0.0,0.42,,,,,,,,,,,,,,,,,,
2829,0,0.0,0.42,,,,,,,,,,,,,,,,,,
2831,0,0.0,0.42,,,,,,,,,,,,,,,,,,
2833,0,0.0,0.42,,-0.21,0.07,1.02,1,0,-1,0.22,,,,,,,,,,
2835,0,0.0,0.42,,,,,,,,,,,,,,,,,,
2837,0,0.01,0.42,,,,,,,,,,,,,,,,,,
2839,0,0.0,0.42,,,,,,,,,,,,,,,,,,
2841,0,0.0,0.42,,,,,,,,,,,,,,,,,,
2843,0,0.0,0.42,,-0.07,-0.06,1.02,1,0,-1,0.1,15,1980,0,0.0,0.0,0.0,0.0,0,0,0.0
2845,0,0.0,0.42,,,,,,,,,,,,,,,,,,
2847,0,0.0,0.42,,,,,,,,,,,,,,,,,,
2849,0,0.0,0.42,,,,,,,,,,,,,,,,,,
2851,0,0.0,0.43,,,,,,,,,,,,,,,,,,
2853,0,0.0,0.44,,-0.05,0.07,1.11,1,2,-1,0.09,,,,,,,,,,
2855,0,0.0,0.43,,,,,,,,,,,,,,,,,,
2857,0,0.0,0.42,,,,,,,,,,,,,,,,,,
2859,0,0.0,0.43,,,,,,,,,,,,,,,,,,
2861,0,0.0,0.43,,,,,,,,,,,,,,,,,,
2863,0,0.0,0.43,,-0.39,0.09,1.05,2,2,-1,0.4,15,1980,0,0.0,0.0,0.0,0.0,0,0,0.0
2865,0,0.0,0.43,,,,,,,,,,,,,,,,,,
2867,0,0.0,0.42,,,,,,,,,,,,,,,,,,
2869,0,0.0,0.43,,,,,,,,,,,,,,,,,,
2871,0,0.0,0.42,,,,,,,,,,,,,,,,,,
2873,0,0.0,0.43,,-0.03,-0.01,1.02,2,1,-1,0.03,,,,,,,,,,
2875,0,0.0,0.43,,,,,,,,,,,,,,,,,,
2877,0,0.0,0.43,,,,,,,,,,,,,,,,,,
2879,0,0.0,0.43,,,,,,,,,,,,,,,,,,
2881,0,0.0,0.43,,,,,,,,,,,,,,,,,,
2883,0,0.0,0.44,,-0.04,0.1,0.91,1,3,-1,0.11,15,1980,0,0.0,0.0,0.0,0.0,0,0,0.0
2885,0,0.01,0.43,,,,,,,,,,,,,,,,,,
2887,0,0.0,0.43,,,,,,,,,,,,,,,,,,
2889,0,0.0,0.44,,,,,,,,,,,,,,,,,,
2891,0,0.0,0.43,,,,,,,,,,,,,,,,,,
2893,0,0.0,0.43,,-0.24,0.18,0.92,2,1,-1,0.3,,,,,,,,,,
2895,0,0.0,0.44,,,,,,,,,,,,,,,,,,
2897,0,0.0,0.44,,,,,,,,,,,,,,,,,,
2899,0,0.0,0.43,,,,,,,,,,,,,,,,,,
2901,0,0.0,0.43,,,,,,,,,,,,,,,,,,
2903,0,0.0,0.44,,0.01,0.05,0.82,1,0,-1,0.05,15,1980,0,0.0,0.0,0.0,0.0,0,0,0.0
2905,0,0.0,0.43,,,,,,,,,,,,,,,,,,
2907,0,0.0,0.43,,,,,,,,,,,,,,,,,,
2909,0,0.0,0.44,,,,,,,,,,,,,,,,,,
2911,0,0.0,0.44,,,,,,,,,,,,,,,,,,
2913,0,0.0,0.45,,-0.01,0.14,0.98,0,2,-1,0.14,,,,,,,,,,
2915,0,0.0,0.44,,,,,,,,,,,,,,,,,,
2917,0,0.0,0.44,,,,,,,,,,,,,,,,,,
2919,0,0.0,0.43,,,,,,,,,,,,,,,,,,
2921,0,0.0,0.43,,,,,,,,,,,,,,,,,,
2923,0,0.0,0.43,,-0.4,0.13,1.01,1,0,-1,0.43,12,1920,0,0.0,0.0,0.0,0.0,0,0,0.0
2925,0,0.0,0.43,,,,,,,,,,,,,,,,,,
2927,0,0.0,0.43,,,,,,,,,,,,,,,,,,
2929,0,0.0,0.43,,,,,,,,,,,,,,,,,,
2931,0,0.0,0.43,,,,,,,,,,,,,,,,,,
2933,0,0.0,0.43,,-0.05,0.03,1.08,0,-0,-1,0.06,,,,,,,,,,
2935,0,0.0,0.43,,,,,,,,,,,,,,,,,,
2937,0,0.0,0.43,,,,,,,,,,,,,,,,,,
2939,0,0.0,0.43,,,,,,,,,,,,,,,,,,
2941,0,0.0,0.43,,,,,,,,,,,,,,,,,,
2943,0,0.0,0.43,,-0.17,0.07,1.04,-0,1,-1,0.18,12,1980,0,0.0,0.0,0.0,0.0,0,0,0.0
2945,0,0.0,0.43,,,,,,,,,,,,,,,,,,
2947,0,0.01,0.43,,,,,,,,,,,,,,,,,,
2949,0,0.0,0.42,,,,,,,,,,,,,,,,,,
2951,0,0.0,0.42,,,,,,,,,,,,,,,,,,
2953,0,0.0,0.42,,-0.38,0.13,1.0,0,-0,-0,0.41,,,,,,,,,,
2955,0,0.0,0.42,,,,,,,,,,,,,,,,,,
2957,0,0.0,0.42,,,,,,,,,,,,,,,,,,
2959,0,0.0,0.42,,,,,,,,,,,,,,,,,,
2961,0,0.0,0.42,,,,,,,,,,,,,,,,,,
2963,0,0.0,0.42,,-0.03,0.05,0.84,0,-1,-1,0.06,12,1980,0,0.0,0.0,0.0,0.0,0,0,0.0
2965,0,0.0,0.43,,,,,,,,,,,,,,,,,,
2967,0,0.0,0.42,,,,,,,,,,,,,,,,,,
2969,0,0.0,0.43,,,,,,,,,,,,,,,,,,
2971,0,0.0,0.43,,,,,,,,,,,,,,,,,,
2973,0,0.0,0.43,,-0.05,0.13,0.93,-1,-0,-1,0.14,,,,,,,,,,
2975,0,0.0,0.43,,,,,,,,,,,,,,,,,,
2977,0,0.0,0.42,,,,,,,,,,,,,,,,,,
2979,0,0.0,0.42,,,,,,,,,,,,,,,,,,
2981,0,0.0,0.42,,,,,,,,,,,,,,,,,,
2983,0,0.0,0.42,,-0.35,0.1,0.91,-0,-1,-2,0.37,12,1980,0,0.0,0.0,0.0,0.0,0,0,0.0
2985,0,0.0,0.42,,,,,,,,,,,,,,,,,,
2987,0,0.0,0.42,,,,,,,,,,,,,,,,,,
2989,0,0.0,0.42,,,,,,,,,,,,,,,,,,
2991,0,0.0,0.42,,,,,,,,,,,,,,,,,,
2993,0,0.0,0.42,,0.05,-0.02,0.99,-0,-2,-2,0.06,,,,,,,,,,
2995,0,0.0,0.42,,,,,,,,,,,,,,,,,,
2997,0,0.0,0.43,,,,,,,,,,,,,,,,,,
2999,0,0.0,0.42,,,,,,,,,,,,,,,,,,
3001,0,0.0,0.44,,,,,,,,,,,,,,,,,,
3003,0,0.0,0.43,,-0.07,0.05,1.03,-1,0,-2,0.08,12,1980,0,0.0,0.0,0.0,0.0,0,0,0.0
3005,0,0.0,0.43,,,,,,,,,,,,,,,,,,
3007,0,0.0,0.43,,,,,,,,,,,,,,,,,,
3009,0,0.0,0.43,,,,,,,,,,,,,,,,,,
3011,0,0.01,0.43,,,,,,,,,,,,,,,,,,
3013,0,0.0,0.43,,-0.37,0.06,1.12,0,-1,-1,0.38,,,,,,,,,,
3015,0,0.0,0.43,,,,,,,,,,,,,,,,,,
3017,0,0.0,0.43,,,,,,,,,,,,,,,,,,
3019,0,0.0,0.43,,,,,,,,,,,,,,,,,,
3021,0,0.0,0.43,,,,,,,,,,,,,,,,,,
3023,0,0.0,0.43,,-0.09,-0.07,1.01,1,-1,-0,0.11,12,1980,0,0.0,0.0,0.0,0.0,0,0,0.0
3025,0,0.0,0.43,,,,,,,,,,,,,,,,,,
3027,0,0.0,0.44,,,,,,,,,,,,,,,,,,
3029,0,0.0,0.43,,,,,,,,,,,,,,,,,,
3031,0,0.0,0.43,,,,,,,,,,,,,,,,,,
3033,0,0.0,0.44,,-0.14,0.08,1.1,0,1,-0,0.16,,,,,,,,,,
3035,0,0.0,0.44,,,,,,,,,,,,,,,,,,
3037,0,0.0,0.44,,,,,,,,,,,,,,,,,,
3039,0,0.0,0.43,,,,,,,,,,,,,,,,,,
3041,0,0.0,0.44,,,,,,,,,,,,,,,,,,
3043,0,0.0,0.43,13.36,-0.43,0.1,1.01,1,1,-0,0.45,12,1980,0,0.0,0.0,0.0,0.0,0,0,0.0
3059,0,0.0,0.44,,,,,,,,,,,,,,,,,,
3061,0,0.0,0.45,,,,,,,,,,,,,,,,,,
3063,0,0.0,0.44,,-0.01,0.08,0.83,1,1,-1,0.08,12,1980,0,0.0,0.0,0.0,0.0,0,0,0.0
3075,0,0.0,0.44,,,,,,,,,,,,,,,,,,
3077,0,0.0,0.44,,,,,,,,,,,,,,,,,,
3079,0,0.01,0.44,,,,,,,,,,,,,,,,,,
3081,0,0.0,0.44,,,,,,,,,,,,,,,,,,
3083,0,0.0,0.44,,0.03,-0.05,0.89,1,-1,-1,0.06,12,1980,0,0.0,0.0,0.0,0.0,0,0,0.0
3085,0,0.01,0.44,,,,,,,,,,,,,,,,,,
3087,0,0.0,0.43,,,,,,,,,,,,,,,,,,
3089,0,0.0,0.44,,,,,,,,,,,,,,,,,,
3091,0,0.0,0.44,,,,,,,,,,,,,,,,,,
3093,0,0.0,0.44,,-0.1,0.07,1.08,0,1,-1,0.12,,,,,,,,,,
